lon,lat,iso3c,city_country,city_port,population,gdp_cap,IWI,gdp,wealth,port_locode,port_name,port_status,outflows,ctry,uj_orig,Lj_orig,Cj_orig,Dj_orig,PCj_orig,uj,Lj,Cj,Dj,PCj,Lj_1,Dj_1,Yj_1,Pj_1,Lj_2,Dj_2,Yj_2,Pj_2,Lj_3,Dj_3,Yj_3,Pj_3,Lj_4,Dj_4,Yj_4,Pj_4
-17.446713,14.692814,SEN,"Dakar - Senegal",TRUE,3223.755,2287.6685,70.2606002240275,7374882765.2175,226502961.27521,SNDKR,Dakar,AI,2417.263262,1,436.768286798695,3223.755,359442.078609817,361433.535618485,2.74209343467737,438.893498093708,3223.755,361943.195931292,363910.063569117,2.73639506806715,0,212.517143995035,0,113.234520791723,0,386.744547776058,0,83.9389885964708,0,52.3372809093211,0,228.17615313375,3223.755,315587.04508748,315941.70196921,2.93843608296496
-17.044529,14.7029696,SEN,"Yaoundé - Cameroon",FALSE,505.227,2302.16270413245,52.2935947198641,1163114756.52073,26420135.9795328,,,,0,1,292.598839677086,505.227,31784.3057017581,39729.5152225801,3.2557006212035,297.782571127296,505.227,32591.7725109176,40898.9008452502,3.23128963044966,0,383.314837478551,0,33.377506567557,505.227,25628.4808477413,26420.1359795328,4.08197436780056,0,19.4119435578445,0,148.319138940189,0,329.83870802287,0,35.9816350967459
-16.6384888,15.1122198,SEN,"Dzolokpuita - Ghana",FALSE,74.508,2361.8791047779,42.0766985704881,175978888.338792,3135050.65708993,,,,0,1,262.653328421144,74.508,4017.38830114277,4923.74096553804,3.40988745609514,267.496887929741,74.508,4123.63961874922,5133.06455374048,3.38328806270436,74.508,2889.94907971469,3135.05065708993,4.5090208546044,0,127.970983825613,0,21.4275040158838,0,4.11791728838072,0,119.450653889383,0,20.6613025427897,0,53.3271644273887
-16.4633198,14.7565098,SEN,"Gusau - Nigeria",FALSE,113.325,2297.65604456748,38.0772661124075,260381871.25061,4315106.18218858,,,,0,1,247.307840612171,113.325,5606.81980981808,7173.71097593952,3.4990089620898,259.509721243951,113.325,6006.15085331794,7460.81623873389,3.42752919858864,113.325,3861.18709503981,4315.10618218858,4.76446248557229,0,253.143636663372,0,18.6076199585293,0,6.07830070390837,0,120.083474466123,0,34.3590145006644,0,50.507280588937
-16.4205399,14.3423595,SEN,"Chipinge - Zimbabwe",FALSE,18.416,2269.64499576379,37.4244716433748,41797782.2419859,689209.069784391,,,,0,1,121.517398295332,18.416,330.164107950405,1301.6729271992,4.74462567396608,145.118723570213,18.416,425.452685831281,1330.51981067415,4.39709174822055,18.416,476.175501581222,689.20906978439,7.35009032060349,0,99.6296154410492,0,16.0687455297828,0,1.72011816511865,0,122.2917227046,0,11.3020274914402,0,47.708748210604
-17.033333,20.933297,MRT,"Nouadhibou - Mauritania",TRUE,118,5196.45446473013,38.9206658183864,613181626.838156,4592638.5665696,MRNDB,Nouadhibou,AI,197.0295,2,451.05749118811,118,13775.9472451544,13969.4868551522,2.70452174017469,457.011086388364,118,14036.4392473788,14220.5313610102,2.6893655207458,0,22.4804723422171,0,67.6402227879373,0,14.9426957703793,0,82.9646849481611,0,4.5791734315364,0,149.869824928686,118,11772.9081996064,11882.7300665696,2.95573753010109
-16.8981705,21.2914486,MRT,"",FALSE,0,5538.53368337853,18.6296720206833,0,0,,,,0,2,46.8606513811268,1e-06,4.59566789308006e-06,211.163787427809,9.11579177262563,36.7159356946096,1e-06,3.24329295531091e-06,208.084399439919,8.57959945288873,1e-06,4.62614217530423,1.86296720206833e-05,57.540984346185,0,2.88489685418465,0,72.8654465540938,0,0.784046792548883,0,139.770586856477,0,93.9023288166245,0,12.7716965313912
-15.978542,18.085588,MRT,"Nouakchott - Mauritania",TRUE,1440.712,3726.39485774327,41.8651880562521,5368661788.28902,60315678.8148991,MRNKC,Nouakchott,AI,334.524,2,288.893630952803,1440.712,89001.3785258733,90448.6173958784,3.27353092109419,294.623211346831,1440.712,91533.6977302262,93358.0891744968,3.24609454903477,0,344.330325458566,0,53.4502210886793,0,114.015941969297,0,92.8868751228012,0,57.595811890303,0,130.689799064639,1440.712,72211.7308562793,72693.0668148991,3.69090838215995
-15.67383,23.8871498,ESH,"",FALSE,0,7041.16211331411,31.3978211479454,0,0,,,,0,3,52.9044683120807,1e-06,5.46526897761271e-06,339.638426236572,8.43943782136973,48.2653063736713,1e-06,4.79371885671093e-06,337.577383635945,7.49119463495834,1e-06,94.3361129647251,3.13978211479454e-05,14.1709433821513,0,21.7754310736837,0,29.4954055423126,0,1.16211005045391,0,127.677428929379,0,8.50406966523668,0,47.1980818019826
-16.2439098,15.6356897,SEN,"Banikoara - Benin",FALSE,93.802,2287.6183979327,43.5760615586268,214583180.962884,4087521.72632231,,,,0,1,268.506645163988,93.802,5219.48283751127,6081.42686440737,3.3778293404943,279.991052322313,93.802,5541.30331860004,6363.03252788174,3.31774014800776,93.802,3907.46099668331,4087.52172632231,4.23376856400985,0,96.8430323192386,0,26.8930618290463,0,5.083556180692,0,117.379060070065,0,26.6604044591693,0,51.2555707058516
-16.577537,13.453171,GMB,"Banjul - Gambia, The",TRUE,976.753,1827.81084253539,39.6195599018914,1785319723.87897,38698523.9928521,GMBJL,Banjul,AI,184.275,4,282.184568200146,976.753,58348.0249657195,59762.5750874026,3.30666267854196,291.256861497212,976.753,61046.2347317398,62960.5153769256,3.2621210816869,0,428.444094456609,0,39.544595145901,0,157.90411278728,0,65.1384609715595,0,30.2026851929313,0,148.940029770482,976.753,45011.3402706389,45516.6989928521,3.85809788162327
-16.2409897,12.7924099,SEN,"Quelimane - Mozambique",FALSE,91.883,2295.74090262069,36.7829540931087,210939561.355497,3379728.1709371,,,,0,1,223.482113127168,91.883,3933.47026886035,5420.06887691799,3.65426556020504,232.647454221788,91.883,4165.93367209313,5722.68876509404,3.59185801105806,91.883,3037.73903209364,3379.72817093711,4.92996678113615,0,25.463599570307,0,53.8467289591782,0,4.65403026511369,0,125.951871100869,0,177.670245590187,0,20.3850542967571
-16.076402,14.138908,SEN,"Kaolack - Senegal",TRUE,187.932,2278.7640345833,45.3761239685572,428252682.54731,8527625.72965889,,,,0,1,285.868240407873,187.932,11436.3854107969,12345.3863058961,3.28833383981395,291.261479060436,187.932,11745.8567538104,13642.52190872,3.26209891796995,187.932,8344.19555880322,8527.62572965889,4.1711155319663,0,163.861785857695,0,29.7649813234897,0,10.9139844652466,0,115.332788151418,0,87.4254060030372,0,40.7498136834357
-15.6096001,13.5730095,GMB,"Bria - Central African Republic",FALSE,70.315,1877.21348753621,26.69126049904,131996266.376109,1876795.98199,,,,0,4,175.629465407182,70.315,2133.51289693623,3015.22522932563,4.05180120972755,176.631162554912,70.315,2150.91758219288,3303.25177571726,4.04193736484553,70.315,1676.16560085348,1876.79598199,5.67416493839909,0,29.2349382043258,0,42.9644570792155,0,4.07567584064699,0,115.069599622749,0,82.9402999176182,0,25.5080710062931
-16.50258,16.034409,SEN,"Saint-Louis - Senegal",TRUE,154.555,2616.38725725041,41.8228350121846,404375732.544337,6463928.26530819,,,,0,1,282.04710892761,154.555,9226.18522932113,9254.6983398191,3.30735324844573,288.352883655128,154.555,9522.26439369244,9538.96892954496,3.27616044608644,154.555,6460.32336139199,6463.92826530819,3.98096859415499,0,69.96851787293,0,38.2529156456377,0,7.39438526073032,0,117.669753463189,0,38.5334033186586,0,51.5462642768497
-15.804984,16.512799,MRT,"Rosso - Mauritania",TRUE,159.231,3119.63824766881,37.3432812371366,496743117.814552,5946208.0146705,,,,0,2,235.072228605293,159.231,7327.19404280834,8815.9807391602,3.57593235676827,230.996037238998,159.231,7146.36392252612,9357.64162402911,3.60284073013475,159.231,5683.94330842023,5946.2080146705,4.62278184771228,0,62.571803302857,0,44.0594359167934,0,11.8992635282193,0,101.034158218401,0,99.6644326582045,0,34.9106687998212
-15.883334,14.866839,SEN,"Touba - Senegal",TRUE,597.23,2294.61226912889,41.7294708957356,1370411285.49184,24922091.9030602,,,,0,1,275.008862233114,597.23,34387.6269183631,35933.819037314,3.34336766735018,285.378539819124,597.23,36254.836614332,38835.8848523617,3.29075094211642,0,665.19514948793,0,25.144157004659,597.23,23992.9447337232,24922.0919030602,4.18668069458659,0,34.4992063690507,0,110.409657997648,0,110.390377643454,0,61.7228551479387
-15.575626,11.856113,GNB,"Bissau - Guinea-Bissau",TRUE,503.968,1367.43735056953,29.1359647460553,689144666.691825,14683593.88114,GWOXB,Bissau,AI,114.309,5,245.952398735325,503.968,24739.1108028348,25232.77393014,3.50726013051369,252.119938404574,503.968,25630.0814004922,26157.1300189106,3.47022958697526,0,217.359143765116,0,38.0683713013562,0,41.6309614665205,0,86.9851333334701,0,15.4825758829946,0,142.636819215512,503.968,18659.9859728733,18913.02688114,4.10863533936531
-15.65446,14.4204092,SEN,"",FALSE,0,2255.07749469541,31.0289501068166,0,0,,,,0,1,69.5931523402982,1e-06,8.08569725819221e-06,231.961247660943,7.14913752942853,80.4241143461077,1e-06,9.94168541352852e-06,205.276801045727,5.87644197383452,1e-06,55.6915348526272,3.10289501068166e-05,11.2820960445022,0,19.0643548992216,0,19.2829435595602,0,0.546677947232626,0,113.872438797821,0,3.09463176844152,0,47.8607942138524
-15.5441999,14.1010094,SEN,"Debre Zeyit - Ethiopia",FALSE,69.357,2287.6685,33.2273419593215,158665824.1545,2304548.75627266,,,,0,1,237.820506291907,69.357,3244.97804238195,3413.61458419554,3.55816331915803,249.347527050978,69.357,3471.97942192021,3687.41465755292,3.48671349755834,69.357,2222.32936263213,2304.54875627266,4.49131007593494,0,49.0198136429662,0,30.2406710595896,0,3.90952814620012,0,107.081656690647,0,21.1952511311254,0,45.989423883915
-13.9632597,17.0292988,MRT,"Fritissa - Morocco",FALSE,15.521,3680.26830758623,24.3321127914395,57121444.4020459,377658.722635932,,,,0,2,54.5420103091355,15.521,88.6020545741956,852.698198104136,6.68813601579462,56.2597277167752,15.521,92.615063374204,971.640885798595,6.59984504020843,15.521,321.559286516737,377.658722635932,11.4724480780315,0,16.3298570365634,0,50.9091022477452,0,5.37784480762596,0,88.7120260618498,0,47.3211998162681,0,29.9060293827712
-15.945537,23.708077,ESH,"Ad Dakhla - Morocco",TRUE,106.277,6999.25678566019,41.685948396546,743860013.409608,4430257.53773972,,,,0,3,263.817412650317,106.277,5766.65316174258,5952.37620358905,3.40343102115147,271.453604997717,106.277,6006.57511602435,6174.89318707958,3.36206439860658,106.277,4308.81485855604,4430.25753773972,4.02477712224945,0,42.3161407789297,0,40.6132483067866,0,3.62319884547123,0,138.795271157554,0,20.5242443413481,0,58.3159245131361
-14.2343597,16.6268101,MRT,"Had Zraqtane - Morocco",FALSE,10.415,3292.61139046978,26.1754116436426,34292547.6317428,272616.912268538,,,,0,2,172.140403410769,10.415,307.084000689266,379.959485613785,4.0867959473929,174.640912586874,10.415,313.476207424008,406.005195627388,4.06161473102156,10.415,232.693016425208,272.616912268538,5.36503852582189,0,3.33687704828461,0,44.8016926857583,0,0.730246262267022,0,95.7700823278023,0,4.90195282487926,0,36.9640850064108
-13.9593992,16.1129189,SEN,"",FALSE,0,2493.74395561908,28.4022929330901,0,0,,,,0,1,64.3862591439356,1e-06,7.23552223662806e-06,49.87440852474,7.48542845385552,51.9725924886391,1e-06,5.32826559559752e-06,229.910861607241,7.22669868596443,1e-06,57.4169563969575,2.84022929330901e-05,14.4610426534817,0,15.9770932970578,0,27.413898858358,0,1.46234800006347,0,90.6137969567697,0,5.65965342821018,0,46.0600891607871
-13.203346,27.153675,ESH,"Laâyoune - Morocco",TRUE,217.732,7166.58209753815,43.2531834575172,1560394253.26118,9417602.14057214,,,,0,3,277.922275403233,217.732,12726.8507027884,13964.8778872923,3.3283018743861,286.139753533256,217.732,13267.8115738533,14448.1012631104,3.2869962268008,0,218.598216278538,0,26.722758515344,217.732,9044.74359568668,9417.60214057213,4.15438234554281,0,14.9055795336399,0,102.336406160764,0,41.6096744106973,0,61.2501893316875
-14.2115793,13.3027792,GMB,"Tarkwa - Ghana",FALSE,61.291,1770.86443929862,23.1067512092836,108538052.349052,1416235.8883682,,,,0,4,183.934184998718,61.291,1986.59065626563,2127.42158045514,3.97236195134888,189.429049774581,61.291,2071.91258831366,2230.48259524641,3.92256274644332,61.291,1370.56711845945,1416.2358883682,5.00402146912384,0,11.8039157044477,0,53.920792934331,0,2.85848331234143,0,109.572479846332,0,25.810732303599,0,36.4644070668173
-15.3329,12.0479898,GNB,"",FALSE,0,1367.45133840083,18.1778592380354,0,0,,,,0,5,54.9397802302763,1e-06,5.76809422600518e-06,201.274483387958,8.24336502343362,46.7932188362629,1e-06,4.58622341745124e-06,245.69721232492,7.60543501203297,1e-06,46.1748940769495,1.81778592380354e-05,17.5437010978184,0,3.21752274641169,0,66.4604631687398,0,0.953082753630359,0,122.112149112924,0,37.3261797973055,0,19.5127015330739
-13.6763992,13.7135201,SEN,"Khénifra - Morocco",FALSE,78.8,2287.6685,28.5775553827832,180268277.8,2251911.36416331,,,,0,1,211.454622624853,78.8,3117.05638171743,3291.92138462886,3.74193970174013,219.413044505036,78.8,3285.99166682328,3481.49205499834,3.68315710206883,78.8,2230.60575348739,2251.91136416332,4.6014164283749,0,30.6183630972798,0,39.2746174865082,0,5.2526698072391,0,94.8228269888204,0,15.5995302554414,0,55.0233703011389
-14.8474998,12.0527,GNB,"Misséni - Mali",FALSE,54.756,1394.43121299449,18.6469722659379,76353475.4987265,1021033.6133937,,,,0,5,156.701550084031,54.756,1411.66065558,1560.413310842,4.2547371931364,157.280598981298,54.756,1419.11857573341,1642.85635217295,4.24801679507808,54.756,961.994578874483,1021.0336133937,5.55136404296064,0,9.99279952460135,0,54.468126145816,0,2.44478754049882,0,110.119812152995,0,22.9575750037233,0,35.9354440240831
-14.299376,10.940929,GIN,"Boké - Guinea",TRUE,116.27,1146.57562365401,27.5929884020649,133312347.762251,3208236.76150809,,,,0,6,208.189756869461,116.27,4498.13075989758,4619.81287420592,3.76697723354882,215.402616312367,116.27,4722.40202173026,4833.8238539478,3.71239116634669,116.27,3141.95689121373,3208.23676150809,4.60467549586677,0,33.1170874327309,0,44.8510974297462,0,6.14805265736331,0,104.095115844065,0,27.4395108743744,0,49.2732216183317
-13.3009596,12.4839897,GIN,"Kalfou - Cameroon",FALSE,13.99,1189.02775135884,23.7319650851646,16634498.2415102,332010.191541452,,,,0,6,176.217724133273,13.99,426.520185666748,499.445059310484,4.04599892466062,178.336114498358,13.99,433.863848426567,532.106162567411,4.02533095270678,13.99,323.2915170478,332.010191541453,5.16420627894516,0,4.90094280897659,0,41.9431383168218,0,0.905207030673676,0,97.5948243248873,0,3.69364693248122,0,48.3140061967977
-13.6282301,10.0732899,GIN,"",FALSE,0,1176.62521698137,26.8793431772143,0,0,,,,0,6,50.4397400164739,1e-06,5.10519381315408e-06,107.048159614595,8.69673158281682,47.8881108593282,1e-06,4.74028986454054e-06,132.972426642541,7.5199294678629,1e-06,40.0820124121119,2.68793431772143e-05,13.6968217304196,0,5.4765320278572,0,37.0545675646889,0,0.592034851999203,0,112.699227126253,0,4.37100253871788,0,41.4766848138153
-13.1784992,11.1257696,GIN,"",FALSE,0,1125.84335585272,17.2149499541175,0,0,,,,0,6,97.3533933154566,1e-06,1.30611425385021e-05,40.8468577336759,5.91354005880318,81.7333592521969,1e-06,1.01736941252586e-05,52.8439212417411,5.83251319067323,1e-06,22.5214346850938,1.72149499541175e-05,8.93419061479857,0,1.62606650428749,0,33.2494220871577,0,0.209354301729447,0,92.6642764624037,0,0.625651648323142,0,53.6027371572945
-13.0830994,11.79953,GIN,"Bethlehem - South Africa",FALSE,7.461,1135.4866,20.8461390559678,8471865.5226,155533.043496575,,,,0,6,151.294781507504,7.461,182.940919945288,228.572530603222,4.31924849726227,151.19296035756,7.461,182.765061097316,244.860587821543,4.32049472577182,7.461,140.048400006306,155.533043496576,5.7128634693729,0,3.23882874715058,0,37.5663443056589,0,0.487688125982934,0,96.8103629615842,0,1.73131873335586,0,51.3812204693234
-13.8246593,13.3325996,SEN,"",FALSE,0,2141.07888826552,23.0399064754911,0,0,,,,0,1,82.5009478096907,1e-06,1.03104611304212e-05,41.7324839095778,6.48284161330601,62.5635602724677,1e-06,6.94469398629617e-06,48.2545841404281,6.61215802936413,1e-06,19.9138618958688,2.30399064754911e-05,10.2928290703766,0,1.04341238073189,0,44.9660281986496,0,0.208818949910295,0,100.514239673633,0,1.01125995754856,0,45.6752692452847
-13.7090893,13.0267,SEN,"",FALSE,0,2287.6685,21.3110377398114,0,0,,,,0,1,78.590132006732,1e-06,9.6194048688378e-06,17.202931596082,6.66398517094412,71.2948424108962,1e-06,8.36961503437314e-06,19.8878019187652,6.21668779980414,1e-06,8.71869425443464,2.13110377398114e-05,9.3891593101169,0,0.360596176842034,0,46.1680909980151,0,0.0741379887240885,0,101.819777364276,0,0.402020852927102,0,43.7248353714327
-11.400062,16.629969,MRT,"Kiffa - Mauritania",TRUE,110.714,3692.66927840016,24.5103198098448,408830186.488796,2713635.54742716,,,,0,2,187.744275229093,110.714,3695.17134490915,3906.58264508921,3.93761005012462,183.938240084005,110.714,3588.6235341917,4138.44809733363,3.97232440028501,110.714,2713.63554700837,2713.63554742716,4.90554997509408,0,25.1018412875535,0,51.0047561093609,0,12.6673730705162,0,71.7992957667593,0,13.4608624142491,0,69.6509465004447
-12.2216101,14.4544096,SEN,"Sidi Redouane - Morocco",FALSE,20.065,2223.952360451,30.4239054818422,44623604.1124494,610455.663493164,,,,0,1,175.528915059077,20.065,608.318681864494,894.137102804617,4.05279581862546,175.231441957929,20.065,606.84645631372,904.756828641549,4.05574293172643,20.065,568.388218721349,610.455663493164,5.11698118810409,0,7.75148430869236,0,43.8171292232309,0,2.25327927223693,0,81.2697358152887,0,3.81436802795197,0,62.4633195885913
-13.712215,9.509116,GIN,"Conakry - Guinea",TRUE,1667.864,2150.37966857964,47.7173443768735,3586540835.55592,79586040.8617897,GNCKY,Conakry,AI,676.60790476,6,319.577604821639,1667.864,119016.298069266,119845.122119925,3.13493524576255,322.991604320244,1667.864,120836.780727284,121716.513996513,3.12069095305512,0,126.200374455155,0,96.9159356704231,0,81.9426151744031,0,120.273681504336,0,30.8816744501878,0,195.918341012716,1667.864,104352.063854954,104620.53333791,3.37034992195082
-13.5013895,9.7055101,GIN,"",FALSE,0,1177.39094451741,47.8186094627483,0,0,,,,0,6,32.6854405563687,1e-06,2.74690066029507e-06,671.641183670571,11.6387711030359,25.2302124908412,1e-06,1.89768341084005e-06,799.107073982144,10.4264897886136,1e-06,84.660129767663,4.78186094627483e-05,32.0332604496074,0,28.314096625051,0,55.3910062926149,0,5.05943687647779,0,131.035665843874,0,132.180311111811,0,25.6364109571502
-12.1095896,12.6156893,SEN,"Ādēt - Ethiopia",FALSE,11.216,2258.58745277728,29.7127985122773,25332316.87035,333258.748113702,,,,0,1,176.75290450584,11.216,343.432398559632,488.212854079774,4.04074410080086,191.692229802962,11.216,385.639216421768,514.872422480024,3.90264780921254,11.216,318.170540364252,333.258748113702,4.96454203166436,0,5.29475442498377,0,38.4845371469311,0,1.01524109366658,0,87.8869899107039,0,2.38652985739429,0,57.3225820778634
-12.9784594,10.6564093,GIN,"Bawku - Ghana",FALSE,30.311,1134.95099453162,19.5251633744116,34401499.5952479,591827.22704179,,,,0,6,168.191172855567,30.311,864.567143614997,934.399170225507,4.12764921421907,145.145086116843,30.311,700.436750396218,1083.77356460782,4.39674945606461,30.311,483.148210744639,591.82722704179,6.58507623345038,0,42.5115138911486,0,22.1997308947901,0,2.18841726994749,0,97.8443904752069,0,8.64752998024301,0,49.2215129237396
-12.854191,10.049703,GIN,"Kindia - Guinea",TRUE,181.126,1272.4382327917,31.7736110513414,230471647.35263,5755027.07528526,,,,0,6,220.026554553636,181.126,7583.21553655279,8686.10438307734,3.67875220082743,222.63216838201,181.126,7711.82961984226,9291.47044313461,3.66023800988884,181.126,5335.52381085096,5755.02707528526,4.83017671809503,0,156.666795557322,0,28.1879226675469,0,11.5461127260379,0,103.832582435219,0,55.2492800586627,0,47.4666126281945
-12.7595196,8.4948397,SLE,"",FALSE,0,1525.79033972791,18.3068914371631,0,0,,,,0,7,35.4675150852669,1e-06,3.08690704862553e-06,630.203599791872,10.9876944497785,31.1889075236459,1e-06,2.56900857104153e-06,857.988494971642,9.32548424995721,1e-06,58.1308465966896,1.83068914371631e-05,35.8268644934115,0,101.503800506491,0,27.1125879142763,0,5.24626445009955,0,119.257866843365,0,86.5216207435911,0,29.3663385946617
-13.234314,8.484392,SLE,"Freetown - Sierra Leone",TRUE,1035.246,1636.18751938735,51.9455928614036,1693856584.69567,53776467.2273966,SLFNA,Freetown,AI,292.305,7,321.596684212068,1035.246,74541.2769324296,75291.5546212011,3.1264848992485,325.902198357835,1035.246,75971.0043094119,76942.6469657099,3.10871582157973,0,81.1716231525779,0,95.711135743102,0,98.2476163881611,0,86.9968591685171,0,23.1704070769015,0,179.14213802752,1035.246,64338.4687164806,64591.7522273966,3.39961099150572
-11.6982899,26.7553997,ESH,"Malakal - South Sudan",FALSE,57.035,6390.125709182,25.1492270818786,364460819.823195,1434386.16661495,,,,0,3,188.76688646229,57.035,1918.41977217378,2372.36851609589,3.92845387973342,205.53538804362,57.035,2166.43057908506,2620.91065385462,3.78775008453699,57.035,1326.75364922577,1434.38616661495,5.32368412298456,0,86.1862915614553,0,20.8875896881915,0,5.74006863672133,0,80.9373318565819,0,9.55242261307073,0,62.7408880941121
-11.1610899,28.4597492,MAR,"Kukawa - Nigeria",FALSE,73.209,6295.70213058728,39.2491173607986,460902057.278165,2873388.6328667,,,,0,8,256.944127237681,73.209,3825.34658638459,4345.51958339096,3.44215499724818,264.172976767046,73.209,3980.01435296289,4536.21564358144,3.40146703710946,73.209,2762.42293472907,2873.3886328667,4.35881088694168,0,64.5028619797665,0,28.524866503288,0,6.68971697302095,0,88.5746085960314,0,17.4294626323454,0,54.87456803727
-12.283231,11.316916,GIN,"Labé - Guinea",TRUE,127.747,1146.98337636056,35.8287216279254,146523685.379933,4577011.70180259,,,,0,6,241.498837193003,127.747,6109.34520060422,6796.86639895493,3.53483486375779,254.450966610335,127.747,6582.75375375123,7228.84792580139,3.45656912031825,127.747,4424.1228453071,4577.01170180259,4.4184119130837,0,103.378282263099,0,28.9044782507294,0,11.1155192925633,0,88.1484971686443,0,25.0705114704116,0,58.6946062399921
-12.08277,10.383497,GIN,"Mamou - Guinea",TRUE,376.269,1135.61305456118,26.8662514052221,427295988.426679,10108937.5499915,,,,0,6,208.826800813093,376.269,14620.3706141661,16438.3242962078,3.76204800498882,217.804180468886,376.269,15526.4665922941,17395.9685559824,3.69479253345296,0,456.910943053945,0,22.7980963396762,376.269,9414.7676263257,10108.9375499915,5.02237991554895,0,36.4952614534972,0,80.6670406877781,0,55.4644517804454,0,65.4345322333184
-11.74007,7.956451,SLE,"Bo - Sierra Leone",TRUE,249.807,1496.9442,25.5146367561591,373947139.7694,6373734.86414584,,,,0,7,199.380074903169,249.807,9085.39597319664,10267.021086882,3.83743064182977,207.351676961848,249.807,9608.73968013272,10731.9962591177,3.77349490915563,0,196.444160801663,0,27.8910242142534,249.807,5921.71114364351,6373.73486414584,5.07996143314207,0,13.9162677352649,0,104.790674917202,0,79.1457213525267,0,43.9410372100359
-10.971644,8.643743,SLE,"Koidu - Sierra Leone",TRUE,300.387,1517.04766003136,22.0121301485176,455701395.453841,6612157.73892276,,,,0,7,184.241976881685,300.387,9759.55794793819,10302.6982711759,3.96951650334111,192.729314331239,300.387,10408.1094159677,11063.5846700524,3.89363377835252,0,194.840869270894,0,29.3401955226993,300.387,6377.33515985339,6612.15773892276,5.12841795272514,0,17.7261827735148,0,97.2736969378681,0,51.2164726179137,0,57.2266338470905
-10.8695793,12.6057196,MLI,"Kawambwa - Zambia",FALSE,10.832,2285.3071,24.4574447781555,24754446.5072,264923.041836981,,,,0,9,67.145107648141,10.832,83.2163748598497,508.432315266045,6.11803963013898,78.1765803328542,10.832,103.414991270661,552.289420917293,5.73191661235869,10.832,264.923975125775,264.92304183698,8.27604024075025,0,7.64789851355034,0,48.7093314789835,0,7.52335133433817,0,49.1108618280382,0,2.94464620399881,0,78.4994597017585
-11.432892,14.449705,MLI,"Kayes - Mali",TRUE,174.373,2363.01954108217,36.6490483544719,412046806.437122,6390604.50871433,,,,0,9,237.344733950424,174.373,8135.01344404119,8518.43725427975,3.56121837385197,248.735374506285,174.373,8698.43386501505,8897.97963336868,3.49038848861749,174.373,6365.34322247038,6390.60450871433,4.12675378477184,0,30.5726033944261,0,59.546091512128,0,23.0980150884408,0,68.5065570229819,0,17.7300992509074,0,78.192282100625
-11.8790693,12.8341799,SEN,"",FALSE,0,2287.6685,30.2988245952444,0,0,,,,0,1,49.6702677787836,1e-06,4.99429979574222e-06,113.312190055255,8.7819863777831,49.3223222749066,1e-06,4.9443954902755e-06,103.832100549059,7.41255210387583,1e-06,40.3495222291452,3.02988245952444e-05,11.8908904464889,0,2.76660539709541,0,45.4108856173591,0,0.99748730683717,0,75.6275266951101,0,1.38208693942225,0,64.2489305739555
-11.5879192,10.1457901,GIN,"",FALSE,0,1178.37874359219,21.1600028678453,0,0,,,,0,6,96.9752789632379,1e-06,1.29887334087525e-05,89.1719783290883,5.92612901565316,79.0349107070982,1e-06,9.69727159766748e-06,149.584931684871,5.92427464386751,1e-06,22.9300604851014,2.11600028678453e-05,15.1313091974472,0,29.3594587579675,0,13.3722683463764,0,0.900329114336034,0,76.3622066208378,0,1.15490258208956,0,67.4227463901064
-9.299825,10.383689,GIN,"Kankan - Guinea",TRUE,198.013,1153.17201735961,31.112356240142,228343050.673428,6160650.99617924,,,,0,6,230.635730428688,198.013,8867.12282059399,9544.34840726457,3.60525186260648,235.76316379901,198.013,9150.07530881336,9798.27277451876,3.57143726738452,198.013,6093.41784169299,6160.65099617924,4.52884345390287,0,124.084092330929,0,31.7365515359,0,32.099420539313,0,62.3977878230695,0,16.9821361477178,0,85.7870295524367
-11.3188601,7.3100801,SLE,"",FALSE,0,1344.94827331861,15.4784810906556,0,0,,,,0,7,55.7255470017718,1e-06,5.88630755200379e-06,474.813334237909,8.17125808254108,49.5326545757608,1e-06,4.97454456425169e-06,555.618970912881,7.39722407947138,1e-06,103.028870034063,1.54784810906556e-05,17.1782072805521,0,43.2075330417367,0,26.5263546748509,0,2.27704115017789,0,115.550511058019,0,28.5052086151543,0,32.6584219465463
-11.1890097,7.8601699,SLE,"Khartoum North - Sudan",FALSE,188.463,1485.97140072144,26.5325861186727,280050628.094164,5000410.77768342,,,,0,7,207.273914075427,188.463,7245.28051133144,8524.71161203915,3.77410157753427,214.693072226113,188.463,7618.58508073714,8997.46926792736,3.71764442330796,188.463,4479.09166570026,5000.41077768341,5.26905897685715,0,300.128871181317,0,20.355142525557,0,11.5768346268839,0,103.641364213609,0,51.8727181077228,0,48.9619304363561
-2.216954,31.616774,DZA,"Béchar - Algeria",TRUE,179.119,13194.7313701357,47.9612505819522,2363427088.28733,8590771.24298869,,,,0,10,287.003695629043,179.119,10961.9824876495,11181.5358938464,3.28275205280384,289.489873856148,179.119,11097.8888927981,12863.760703559,3.27063967395854,179.119,8271.90743738336,8590.7712429887,4.07862562801815,0,148.954167054062,0,30.3941742072112,0,30.2680956834361,0,67.4254926180482,0,22.6782637566903,0,77.8953936341395
-10.0955496,9.1883497,GIN,"Mongu - Zambia",FALSE,66.815,1121.84293071791,25.8338628216588,74955935.4159169,1726089.54442914,,,,0,6,196.48070664178,66.815,2379.71463390729,2978.03271809829,3.86159785592732,203.934062512212,66.815,2509.71658357219,3041.97336649904,3.80046820516276,66.815,1516.03130447014,1726.08954442913,5.38345047929789,0,110.775218858018,0,19.9156047678475,0,8.17373994805689,0,73.3169517532256,0,8.03090296144414,0,73.9660827978907
-10.3059597,14.7111797,MLI,"Ikot Abasi - Nigeria",FALSE,18.328,2285.3071,26.3038363987401,41885108.5288,482096.713516109,,,,0,9,150.653755501711,18.328,446.67806774827,716.307490628213,4.32711519297322,164.621149012183,18.328,506.993887792683,767.410070089548,4.16577704771787,18.328,482.095780815208,482.096713516109,5.25585171184809,0,4.80961883969557,0,52.6204359914609,0,4.79185064324585,0,52.717904089534,0,1.85878776930103,0,84.6437452264278
-9.6050797,16.6627998,MRT,"Abū Ḩamad - Sudan",FALSE,24.199,3760.08548182476,19.5791653774687,90990308.5746773,473796.222969366,,,,0,2,118.683956844658,24.199,419.463516344559,792.105528147732,4.79284395463298,154.686939342869,24.199,612.446207551773,793.878737526075,4.27839775636672,24.199,473.796264043883,473.796222969365,5.53812082278282,0,8.55669459233267,0,41.2102480771863,0,3.7797758265749,0,62.0047876204733,0,2.37050614682889,0,78.2956626366174
-10.801398,6.313299,LBR,"Monrovia - Liberia",TRUE,1110.25,967.725459213548,41.2600904571139,1074417191.09184,45809015.4300107,LRMLW,Monrovia,AI,467.27200002,11,309.863724446588,1110.25,75808.119985178,77083.0736630142,3.17668265791409,312.754326425485,1110.25,76820.4007757957,78447.1430057011,3.16406633126348,0,161.198754889892,0,69.7996594580599,0,125.369102563901,0,79.1478071199982,0,32.8782971040157,0,154.553728841544,1110.25,62728.6936460753,63098.0794307507,3.53835190734502
-10.132382,8.567176,GIN,"Guéckédou - Guinea",TRUE,221.715,1099.39487496181,19.6079430369351,243752334.702158,4347375.09043406,,,,0,6,183.76484100377,221.715,7176.87342895347,7693.74262318187,3.97393036552473,189.982469565104,221.715,7526.26877534538,8044.40965854748,3.9176616139883,0,282.961849945463,0,20.8886353080056,221.715,4028.74002423484,4347.37509043407,5.53591469195353,0,15.6496846936497,0,88.8221364899233,0,29.6027239433365,0,64.5815067711928
-10.066664,28.983267,MAR,"Guelmim - Morocco",TRUE,118.318,6238.3237,43.0273185293868,738105983.5366,5090906.27375998,,,,0,8,288.180690817632,118.318,7283.45422567155,7378.86623689913,3.27699926275383,293.010672023546,118.318,7458.46788905596,7572.49472884009,3.25373871096689,118.318,5090.90627284707,5090.90627375999,3.96830106290968,0,46.5149508822672,0,41.515080190138,0,7.77173004289067,0,101.564822033542,0,36.742097263841,0,46.7111106142438
-10.4223099,8.6459198,GIN,"",FALSE,0,1227.60079775481,18.0701264188066,0,0,,,,0,6,99.9937353852052,1e-06,1.35701171055762e-05,79.8725308883647,5.82793658999871,94.9244180192576,1e-06,1.2598105462134e-05,73.0718110724488,5.44303227458291,1e-06,7.90088198414801,1.80701264188066e-05,16.5530510935538,0,19.9357695963085,0,10.4207586485139,0,0.303288935872176,0,84.4865523642188,0,0.520834477732942,0,64.471236640128
-9.4627399,13.0295696,MLI,"Ghardaïa - Algeria",FALSE,57.187,2269.38964058337,35.3665191502151,129779585.376041,2022505.13064335,,,,0,9,117.333874314844,57.187,975.205359890982,3304.33234198797,4.81640155218923,112.780574244794,57.187,921.595209824189,3665.03448013069,4.89879704848944,57.187,1546.37000428964,2022.50513064335,7.54174373745649,0,27.7991630457395,0,56.2487168731504,0,162.82638840781,0,23.241603340865,0,10.1300971831684,0,93.1797787223955
-9.4801102,7.0074396,LBR,"Zuwārah - Libya",FALSE,34.046,786.9167,15.4325262289124,26791365.9682,525415.787989552,,,,0,11,56.2142772523836,34.046,202.920817469384,1191.92360877359,6.60213146347147,52.6570847877695,34.046,184.828831717795,1296.76190678735,6.78971006715146,34.046,355.727834138318,525.415787989552,12.9635046380939,0,40.7662901975111,0,38.2940020336489,0,6.26062011418563,0,97.7175740741055,0,68.2748615229934,0,29.5904069361667
-9.544252,15.181505,MLI,"Nioro - Mali",TRUE,116.376,2301.37386339613,31.0032048103123,267824684.726588,3608028.96300491,,,,0,9,217.859491797873,116.376,4803.91324224616,5038.34567331128,3.69439048973597,225.724183250895,116.376,5053.56024043748,5450.50548995628,3.63866530130556,116.376,3608.0289603664,3608.0289630049,4.47224402475652,0,28.5940247338928,0,50.2369027710535,0,28.4833925061231,0,50.3343706930253,0,9.46390797168991,0,87.3223161950173
-9.5260296,14.5371294,MLI,"Rundu - Namibia",FALSE,52.399,2258.05105134941,26.6645356098404,118319617.039658,1397195.00142003,,,,0,9,135.833416827933,52.399,1101.42499348341,2111.22091392125,4.52348067578912,136.269352126676,52.399,1106.47824231546,2442.46133403826,4.51727314850995,52.399,1313.1861387347,1397.19500142003,6.16065736587945,0,20.5958279736503,0,49.1926901946938,0,38.4210111184296,0,36.0168565453596,0,5.98596231603383,0,91.2479702894032
-9.4735699,8.5450697,GIN,"Manzini - Eswatini",FALSE,43.102,1096.84397846855,22.3680314344588,47276169.1599514,964106.890888042,,,,0,6,176.238748334892,43.102,1314.29638832212,1661.65986966992,4.04579199679811,181.564192203875,43.102,1371.39648386103,1762.72416608664,3.99450191235684,43.102,840.302032358157,964.106890888043,5.78544947734031,0,72.4849141353824,0,19.6984021009418,0,4.83275837165354,0,76.2881834509301,0,5.21978259165687,0,73.4055010196981
-9.716798,29.717562,MAR,"Tiznit - Morocco",TRUE,108.998,6238.3237,44.8746618567915,679964806.6526,4891248.39306656,,,,0,8,248.600375796822,108.998,5433.04793599678,7439.92954887004,3.4912006835839,248.004897540235,108.998,5414.46618872797,7777.79349379687,3.49479077417241,108.998,4540.98089402373,4891.24839306656,4.57377237639233,0,41.6747319545359,0,47.7433597333421,0,8.85258655667747,0,103.589155989504,0,129.369520120462,0,27.0977605717163
-9.599649,30.433289,MAR,"Agadir - Morocco",TRUE,1070.86,6374.8461531175,58.0517269919173,6826567751.5274,62165272.3665645,MAAGA,Agadir,AI,593.66057139,8,399.582125525365,1070.86,105145.908653484,107190.302526644,2.8486848830459,406.246038222437,1070.86,107659.88952852,109880.330545617,2.82856358190525,0,350.267499171867,0,50.098647711087,0,139.465768641738,0,79.3948096466194,0,138.283336475393,0,79.7335313888812,1070.86,83635.2695052913,84130.7135079945,3.24213574015306
-5.986109,14.249942,MLI,"Niono - Mali",TRUE,128.619,2285.3071,33.8806562465947,293933913.8949,4357696.12578076,,,,0,9,240.640100873986,128.619,6119.82526591206,6627.7480457806,3.54023546341994,245.708326739764,128.619,6304.78483771494,6901.11465359819,3.50875280807878,128.619,4198.8820760099,4357.69612578076,4.49827037284046,0,105.050361754641,0,28.4389539884923,0,23.9644728465458,0,59.542690527064,0,9.79318381596809,0,93.1430472970367
-8.8621101,31.2670689,MAR,"Dayr Mawās - Egypt",FALSE,41.579,6727.27118707371,36.8417125347524,279713208.687338,1531841.56548247,,,,0,8,156.813375328041,41.579,1073.03829660917,3599.36421958582,4.25343658958307,167.086603016803,41.579,1174.85574810125,3824.80867856064,4.13932154595959,41.579,1401.64333971757,1531.84156548247,6.83778219675934,0,70.7984141033146,0,30.4244164837624,0,69.2479260426801,0,30.7631382252299,0,58.8411254037096,0,33.3728684930584
-9.551909,13.355745,MLI,"Balandougou - Mali",TRUE,1631.251,2258.59960670909,27.9096560141396,3684342867.04381,45527654.2827213,,,,0,9,194.832871783072,1631.251,57404.5666921272,58108.7074122968,3.87556138319791,202.907872020775,1631.251,60833.3422635436,62056.5760034728,3.80869371610362,0,372.724255673194,0,49.1446363847397,0,105.94924995757,0,92.1766692187924,1631.251,45132.476619929,45527.6542827212,4.46606841031841,0,49.960653979215,0,134.231949291024
-9.1929197,14.5529394,MLI,"Cahama - Angola",FALSE,43.276,2285.3071,27.938885275401,98898950.0596,1209083.19917825,,,,0,9,106.643399468728,43.276,643.836008677265,1912.11683930591,5.01769054005393,113.327126825769,43.276,702.246206592478,2329.76696982139,4.88865769698714,43.276,973.717782867326,1209.08319917825,7.56187196949241,0,47.1941266826194,0,34.3480348010911,0,58.7001814484899,0,30.7982577546523,0,6.41004069686491,0,93.1999069581673
-8.816789,7.750291,GIN,"N’Zérékoré - Guinea",TRUE,195.027,1164.86349690503,28.8972795876179,227179833.210898,5635749.74613435,,,,0,6,220.291530975791,195.027,8179.26092573545,8450.86669487914,3.67685513458645,227.652535422278,195.027,8572.47994064324,8802.44075056778,3.62542390808003,195.027,5565.50073502738,5635.74974613436,4.55940559000118,0,108.042859654757,0,32.7236933710955,0,14.503964526887,0,89.3134747155291,0,25.1629247301471,0,67.8078213522227
-8.1639996,7.2641697,CIV,"",FALSE,0,3149.8581711304,28.2093242708592,0,0,,,,0,12,64.7689070309654,1e-06,7.29703001880135e-06,163.096737055783,7.45903896807057,56.1955188288206,1e-06,5.9573544787091e-06,175.834045730953,6.95976801227895,1e-06,23.1058430439825,2.82093242708592e-05,19.1992974763998,0,33.1754879432308,0,16.0227695784865,0,0.788161863918177,0,103.95336393869,0,3.26086967304524,0,51.1068989448755
-7.5722198,9.5049696,CIV,"Bariadi - Tanzania",FALSE,86.279,3289.988,39.2309187365728,283856874.652,3384804.43767277,,,,0,12,275.764573015706,86.279,4987.33156111036,5136.824144214,3.33943792520442,283.260277053045,86.279,5182.11567531979,5299.07229894834,3.30127509552559,86.279,3384.80443548051,3384.80443767276,4.13061623103299,0,69.6747872833191,0,28.7901423764434,0,11.5596579474596,0,70.6820516929317,0,8.22865272998336,0,83.7755469735021
-8.002662,12.639193,MLI,"Bamako - Mali",TRUE,4552.105,2286.20141850059,45.3510168389582,10407028908.1636,206442590.507706,,,,0,9,271.849433440044,4552.105,257812.472331388,262361.803674723,3.35996551229533,274.803642093313,4552.105,261824.156049613,266516.460992482,3.3444374898474,0,868.791467402795,0,58.5770273518091,0,467.138044694517,0,79.8844928989749,4552.105,205382.502571931,206442.590507706,3.80981055987669,0,143.333913926386,0,144.215062316435
-9.166742,11.416769,GIN,"Siguiri - Guinea",TRUE,183.875,1135.4866,32.4018248026735,208787598.575,5957885.53559159,,,,0,6,208.204849417189,183.875,7114.29819581402,9058.89131910884,3.76686019902908,208.519719713027,183.875,7129.67321099075,9249.81154733194,3.76442140304122,183.875,5703.90179032027,5957.88553559159,4.79378615325241,0,67.2604811363247,0,44.1453222790047,0,76.7993410624674,0,41.3129235737053,0,13.5938829854644,0,98.1958001348062
-7.4854398,11.42488,MLI,"Souk Ahras - Algeria",FALSE,95.222,2285.3071,32.0476990885096,217611512.6762,3051646.00260606,,,,0,9,173.804419491733,95.222,2846.45147622143,5350.43389606023,4.06998089658555,178.937300314767,95.222,2967.29702253244,5516.86088905921,4.01952930343456,95.222,2795.41439821364,3051.64600260606,5.64674422930252,0,122.684365802284,0,26.9542098168609,0,49.8017067063138,0,42.3057211794086,0,10.6965984593116,0,91.2847793042321
-9.233368,32.283274,MAR,"Safi - Morocco",TRUE,395.857,6780.39513730578,50.0776184680819,2684066877.86845,19823575.8139195,,,,0,8,323.272434351031,395.857,28715.4773895697,30150.2175680474,3.11952881918523,333.464001167603,395.857,30017.4356479598,31745.2766115683,3.07830563778306,0,345.26950175661,0,29.5169980473419,395.857,19301.0786992679,19823.5758139195,3.94784874197192,0,105.324991693978,0,53.4423539306529,0,108.149487402684,0,52.7398709761876
-8.500158,33.233179,MAR,"El Jadid - Morocco",TRUE,467.017,7268.41013196153,54.5650407804857,3394471094.59828,25482801.6501801,,,,0,8,309.065319755863,467.017,31770.7140423735,38336.0040528409,3.18019704587226,315.898264033008,467.017,32778.8767043393,39706.3891720717,3.15053205275814,0,269.838567090937,0,38.2174836897409,467.017,24749.9300246918,25482.8016501801,3.99049813445052,0,95.334899366962,0,64.2966200825007,0,248.150493474719,0,39.8525878963564
-8.3035603,32.2542381,MAR,"Funtua - Nigeria",FALSE,139.815,6725.98050128035,37.1479411148004,940392963.786512,5193839.38696582,,,,0,8,275.173501352952,139.815,8057.2283734305,9797.15843250936,3.34251022244559,284.771876218637,139.815,8461.70337906622,10476.0401367517,3.29375359449595,139.815,4693.01870160173,5193.83938696582,4.92111530355699,0,271.62636259406,0,20.4551997302636,0,88.8217430371417,0,35.7709140499186,0,63.0642161060241,0,42.4520026517938
-8.2107401,31.9539585,MAR,"Ouled Fayet - Algeria",FALSE,38.613,6720.5864,38.3004049757337,259502002.6632,1478893.53732801,,,,0,8,220.0176539176,38.613,1616.51988293122,3078.61329172411,3.67881599255959,218.989185748893,38.613,1605.73586235232,3434.67803008837,3.6862106311423,38.613,1194.70813943908,1478.89353732801,6.25017607257604,0,125.441340056701,0,19.2886938956096,0,53.5172619719043,0,29.5308685603047,0,30.5363083625236,0,39.0944310899509
-8.008349,31.630015,MAR,"Marrakech - Morocco",TRUE,1132.514,6720.5864,58.6646890573813,7611158186.2096,66438581.6631311,,,,0,8,346.787544087422,1132.514,90820.7982370129,94627.0775802817,3.027051396465,355.134050766773,1132.514,93959.517714969,98115.4843851476,2.99635423759858,0,586.970689875562,0,38.7394743920157,0,361.250339431673,0,49.3807634285427,1132.514,65403.2116177069,66438.5816631311,3.66996898729686,0,203.328557545635,0,65.8207371712559
-7.6750998,8.2902699,CIV,"Krugersdorp - South Africa",FALSE,55.013,3186.43542100719,24.1835686231057,175295371.815869,1330410.66066291,,,,0,12,173.160127061144,55.013,1635.79035676869,2269.70189166624,4.0764641120597,176.98276627671,55.013,1687.62093903826,2375.68328839067,4.03849400971173,55.013,1164.6896723102,1330.41066066291,5.76777887282077,0,89.7080055077523,0,20.7825155419704,0,6.47226740213295,0,77.372296940445,0,6.74926840636971,0,75.7679201633455
-7.583329,33.53329,MAR,"Casablanca - Morocco",TRUE,4219.891,9656.635,70.9405986874118,40749947126.785,299361593.935621,MACAS,Casablanca,AI,2434.0279715,8,441.105402696175,4219.891,477197.897292395,485946.716011992,2.73050596120683,443.311358836839,4219.891,480610.766873709,490341.663708643,2.72467455914024,0,813.484462339237,0,66.8943446926271,0,578.794165178235,0,79.3052544044207,0,613.65663128479,0,77.0196106764965,4219.891,387994.591685156,389420.628881121,3.06302963620724
-7.9837198,32.2262306,MAR,"Qillīn - Egypt",FALSE,132.168,6742.80992422409,43.2105007592418,891183702.06485,5711045.46434747,,,,0,8,248.643036941888,132.168,6589.58074922296,11804.0407768499,3.49094395214707,255.86987178965,132.168,6864.88527924075,12391.986810881,3.44834115853911,132.168,4831.23217146095,5711.04546434747,5.52270369130579,0,259.699195014731,0,23.8201995507009,0,203.565092511393,0,26.9047551280792,0,130.631787395242,0,33.5858437030076
-7.59407,7.3604698,CIV,"Pikine - Senegal",FALSE,241.969,3331.50044575431,31.6783867627629,806119831.358724,7665187.56659899,,,,0,12,224.993031820191,241.969,10458.7760043915,11010.1746259987,3.64372822101943,232.205113680692,241.969,10940.9784912822,11524.0889556986,3.59478884342217,0,135.232750933026,0,33.1845356508265,241.969,7414.9578600633,7665.18756659898,4.48148907964844,0,13.5619312018672,0,104.789053650957,0,35.1476515193655,0,65.0921371102963
-7.408295,32.048099,MAR,"El Kelaa des Srarhna - Morocco",TRUE,223.364,6725.77294838356,38.3125407240053,1502295548.84275,8557642.34627671,,,,0,8,255.522453287198,223.364,11579.1630245451,14047.6144132896,3.45034973883406,266.656647520395,223.364,12306.6285256351,15205.9221894097,3.38785287243639,0,185.698820945431,0,30.6567668074887,223.364,8015.70944393342,8557.64234627672,4.66616337150702,0,170.04540883924,0,32.036751181563,0,50.6163858793061,0,58.7199067886504
-6.26652,13.449454,MLI,"Ségou - Mali",TRUE,240.936,2285.3071,34.5068161376911,550612751.4456,8313934.25295074,,,,0,9,213.404338462113,240.936,9656.38357362447,14412.179614584,3.72724955908557,212.394715512539,240.936,9591.18598515213,15061.4738756618,3.73483251045217,0,388.834817655269,0,23.2446116008736,240.936,7432.41441585703,8313.93425295074,5.31667249068858,0,158.387204603929,0,36.4204091239524,0,17.7211702596467,0,108.882646502728
-7.350092,6.733084,CIV,"Duekoué - Côte d’Ivoire",TRUE,284.596,3302.72447034709,26.4823462879371,939942173.3629,7536769.82416175,,,,0,12,202.187086970231,284.596,10559.4633835903,10571.2291117424,3.81450684792167,207.820421500282,284.596,10982.2562171509,10985.5437111095,3.76984489033405,0,76.0443984181587,0,45.3106868673822,284.596,7521.51664996054,7536.76982416175,4.55597727486684,0,11.4215890953424,0,116.915204732339,0,35.8242777014891,0,66.0154425059669
-6.841593,34.020894,MAR,"Rabat - Morocco",TRUE,1891.455,7891.94605770258,67.9275739994679,14927260830.5718,128481949.479164,,,,0,8,360.006947412638,1891.455,160010.435881291,169141.399577792,2.9789048189889,377.038810404578,1891.455,170933.477939557,182613.936680158,2.92047155547667,0,384.4273651177,0,63.6521082463085,0,859.317511558385,0,42.573867977451,1891.455,126872.423746585,128481.949479164,3.50377590563665,0,493.774045272118,0,56.1637129683825
-6.5227799,32.8590393,MAR,"Randburg - South Africa",FALSE,178.623,9675.0688844993,45.6605596927238,1728189829.35592,8156026.1539934,,,,0,8,244.888159983187,178.623,8714.21180346897,14778.6933813289,3.51378428493018,241.725256405909,178.623,8553.87190165316,17101.0236131268,3.53341547386831,178.623,6959.25690531569,8156.0261539934,5.53891021545319,0,374.036981130444,0,23.8917789763863,0,233.648904393679,0,30.2290073056624,0,161.877460716327,0,36.3172176208992
-6.4903197,9.5225697,CIV,"Kikuyu - Kenya",FALSE,92.792,3289.988,40.8585933304043,305284566.496,3791350.59231487,,,,0,12,266.045032860936,92.792,5095.79316395509,5921.43060687369,3.39118856801058,275.884782214425,92.792,5367.15409125423,6173.31780513147,3.33881423984352,92.792,3536.68571284068,3791.35059231488,4.41116538246862,0,159.655205475679,0,20.7615624121718,0,12.1910017064284,0,75.1331988237136,0,8.84103557284169,0,88.2266941797737
-5.666994,11.316457,MLI,"Sikasso - Mali",TRUE,315.73,2285.3071,34.5993127669643,721540010.683,10924041.0199136,,,,0,9,247.113397960785,315.73,15603.381649787,16722.235352949,3.50018864273253,254.953662720656,315.73,16315.3821179658,17725.8029862187,3.45364659888923,0,380.009978316448,0,23.5875782702532,315.73,10390.2620097601,10924.0410199136,4.51094575680575,0,56.7392561140604,0,61.0434451035111,0,17.4662095777641,0,110.022503137985
-6.36073,32.339077,MAR,"Béni Mellal - Morocco",TRUE,559.315,9578.10692231839,51.2521768542167,5357178873.25651,28666111.2972162,,,,0,8,323.716576293814,559.315,40652.3808273056,41323.787167364,3.11769380468822,330.174680093774,559.315,41815.9004097567,42441.9809974675,3.09141151047378,0,231.241279899163,0,41.8814742573599,559.315,28440.4099977558,28666.1112972162,3.77647589049809,0,179.55665404742,0,47.5284762371343,0,76.8282797951689,0,72.6597816443358
-6.9510198,6.7373199,CIV,"",FALSE,0,3289.988,26.0983083598812,0,0,,,,0,12,118.892388054537,1e-06,1.73774237956938e-05,35.6085757047283,5.31232442520938,130.414616514176,1e-06,1.98323544672378e-05,26.3113330849695,4.71022666212214,1e-06,0.370906312999299,2.60983083598812e-05,39.6717312278406,0,15.3383841861787,0,6.16912268204774,0,0.041551079534644,0,118.528348838249,0,0.1601367185542,0,60.3764864265347
-6.59448,6.48704,CIV,"",FALSE,0,3289.988,30.2351215412896,0,0,,,,0,12,81.8109707969355,1e-06,1.01874978394928e-05,104.789518991743,6.51368041212894,82.5394733230232,1e-06,1.03173399354047e-05,107.716104895666,5.8060005324199,1e-06,2.07057052011721,3.02351215412896e-05,41.8766934807894,0,51.7797484070144,0,8.37408606156843,0,0.29523950839271,0,110.899650414758,0,1.44123656484692,0,50.1937637869551
-6.450154,6.883246,CIV,"Daloa - Côte d’Ivoire",TRUE,466.205,3289.988,31.5809428623859,1533808855.54,14723193.4671586,,,,0,12,230.617989485217,466.205,20874.6028517997,21046.1501098777,3.6053707191319,236.279737082018,466.205,21610.5484608642,21781.5694073348,3.56808882145263,0,193.413695845993,0,37.8648838748135,466.205,14572.5103009682,14723.1934671586,4.36227515333757,0,19.3662200066056,0,119.662428039948,0,73.292751096011,0,61.5105668700766
-5.51861,33.8304405,MAR,"Ibadan - Nigeria",FALSE,713.763,5725.32862494757,52.8535171786926,4086527735.32846,37724884.9820151,,,,0,8,318.887908599469,713.763,50776.1100662623,54989.8289939452,3.13783929185498,330.879418182575,713.763,53525.6385414772,56791.5398778289,3.08858791462048,0,139.353584490561,0,62.3508987575006,713.763,37105.5194073183,37724.8849820152,3.82104834357471,0,512.72646814633,0,32.5056549820566,0,126.192648242453,0,65.5216405543018
-6.633194,4.750108,CIV,"San-Pédro - Côte d’Ivoire",TRUE,390.654,3573.43717303907,31.4114659961222,1395977525.39641,12271014.8372491,CISPY,San-Pdro,AI,2312.50202864,12,795.616203647456,390.654,102596.889825812,107866.854974637,2.12060479706921,798.249471920079,390.654,103082.329594984,109099.204563149,2.11760391240944,0,35.4478336572941,0,117.479116958585,0,70.9292536479083,0,83.0506102393091,0,14.0651288510513,0,186.502073917198,390.654,97453.591288178,97833.5898969291,2.24056010498308
-6.600167,5.783308,CIV,"Soubré - Côte d’Ivoire",TRUE,310.768,3216.67761193904,26.8544558285881,999640468.107073,8345505.52893867,,,,0,12,173.688595843957,310.768,9280.88072030855,12909.9810304132,4.07114383436451,173.987219216613,310.768,9303.68432820692,13569.4235611586,4.06814771134689,0,101.054262321831,0,47.1411415436079,310.768,7893.5477368406,8345.50552893867,5.33385607698587,0,16.6422091246482,0,116.164098339419,0,182.524625790635,0,35.076534526379
-4.034,5.317569,CIV,"Abidjan - Côte d’Ivoire",TRUE,9022.419,3473.84868051719,53.7001420652593,31342518338.2232,484505182.072294,CIABJ,Abidjan,AI,3248.84543344,12,333.061378562599,9022.419,682981.131768825,685327.998377492,3.07989989653047,336.621494676482,9022.419,693434.160920154,695937.522814812,3.06589758390461,0,496.182810006158,0,114.821155358485,0,430.756806151693,0,123.232907619728,0,193.546841061176,0,183.844112312476,9022.419,604174.684282254,604712.463109575,3.2904970649498
-5.93669,6.13259,CIV,"Gagnoa - Côte d’Ivoire",TRUE,277.044,3292.32142843847,37.4502145097444,912117897.820308,10375357.2286376,,,,0,12,249.347659255721,277.044,13868.7053294417,14931.7526291793,3.48671270539786,255.680258634498,277.044,14374.6003725627,15603.230871966,3.44943691134485,0,132.236029500063,0,37.4697308359701,277.044,10026.1309976342,10375.3572286376,4.30317280064907,0,16.3708553198869,0,106.492687896771,0,85.3192031614461,0,46.6478979571723
-5.900032,35.008948,MAR,"Ksar El Kebir - Morocco",TRUE,481.749,7708.3994,48.126429375983,3713513702.5506,23184859.2254504,,,,0,8,275.038183070735,481.749,27742.6253794098,36567.5987817447,3.34321490940117,295.544881147522,481.749,30744.149832295,39616.848263599,3.24175221027584,0,184.883753164016,0,47.4537351840065,481.749,22390.0692668631,23184.8592254504,4.31213211295571,0,356.734508784976,0,34.1623088947237,0,286.357029635395,0,38.1299163308602
-5.667584,32.939324,MAR,"Khénifra - Morocco",TRUE,381.704,5810.59514758978,38.7930319415803,2217927410.21561,14807455.4642289,,,,0,8,262.71749907269,381.704,20588.23783137,22227.9398580446,3.40953047087835,262.81964382674,381.704,20599.6741008702,24818.3247708501,3.40896250077195,0,218.957910600252,0,36.293440146413,381.704,14152.5814881246,14807.455464229,4.5143021473086,0,248.677035208709,0,34.0557630297377,0,64.1117553575975,0,67.0717475299614
-5.759602,10.555472,MLI,"Kadiolo - Mali",TRUE,317.492,2328.09481993824,27.1998768923998,739151480.571833,8635743.31432181,,,,0,9,214.207200783854,317.492,12793.0867414772,13041.9297500172,3.72125600489518,223.902946273016,317.492,13628.2687988526,14005.6975369858,3.65132040594053,0,261.807502002402,0,26.7061492925037,317.492,8424.19088521025,8635.7433143218,4.7080191025755,0,41.8869026015743,0,66.7672044540694,0,15.2865574599674,0,110.521677952593
-5.6370897,9.4510393,CIV,"Nneyi-Umuleri - Nigeria",FALSE,286.071,3289.988,35.5292803371237,941170157.148,10163896.7553213,,,,0,12,252.61791954479,286.071,14589.6572552394,15277.5982053615,3.46729616476988,260.556509681134,286.071,15249.0191262749,16034.549475038,3.42162092359067,0,340.451299817804,0,23.4818752105589,286.071,9785.65434894211,10163.8967553213,4.37991152984994,0,26.9586351429779,0,83.4471144895858,0,16.4969373551217,0,106.674007747412
-5.30024,6.8373399,CIV,"Arzew - Algeria",FALSE,37.253,3289.988,41.8178867554655,122561922.964,1557841.73530136,,,,0,12,185.662953700373,37.253,1223.70557325967,2694.39632090179,3.95646758606214,193.438623731041,37.253,1297.57101441459,2844.70025152708,3.88750849460112,37.253,1199.53642820044,1557.84173530136,5.98663645149337,0,171.886492157988,0,15.8149831044284,0,5.57887583465913,0,87.7841807245717,0,10.4257549017104,0,64.2149061521699
-5.7609501,12.9448795,MLI,"Béni Mellal - Morocco",FALSE,89.799,2275.85166218126,32.5280080868355,204369203.412215,2920982.59818974,,,,0,9,226.030060512091,89.799,3907.02041236004,4440.36424392662,3.63655418299195,237.108474792384,89.799,4183.43133816933,4630.34429236568,3.56273870764378,89.799,2755.17088317364,2920.98259818974,4.61866373450802,0,84.9226537404938,0,26.3074549997915,0,17.8315094551438,0,57.411191609587,0,4.4894215653401,0,114.418281822651
-5.0414901,6.5430398,CIV,"Chipata - Zambia",FALSE,39.005,3289.988,39.0763581540411,128325981.94,1524173.34979837,,,,0,12,165.323359471336,39.005,1085.54736399016,2458.24699203404,4.15818463583815,182.083231342067,39.005,1246.11166938518,2559.27714244904,3.98961797352475,39.005,1156.58530570868,1524.17334979837,5.93473231959587,0,104.706469226705,0,19.7243732952425,0,6.78460519316165,0,77.4867921160931,0,14.0126465414705,0,53.9175174870902
-4.6909499,5.9060397,CIV,"",FALSE,0,3289.988,32.1998889870533,0,0,,,,0,12,37.4850218972701,1e-06,3.34077977503245e-06,1113.78334987048,10.5754472091102,32.9733089963551,1e-06,2.78152664347271e-06,1472.57087099941,9.06204710702631,1e-06,197.487610584244,3.21998889870533e-05,24.745400683954,0,109.99536124173,0,33.1571529736569,0,13.7535945784317,0,93.7683576550822,0,102.507755643317,0,34.3467821605659
-5.803895,35.77671,MAR,"Tangier - Morocco",TRUE,1007.037,7897.3692983517,60.3686019577755,7952943086.1042,60793415.8097524,MAPTM,Tanger Med,AI,29213.26830742,8,2335.6553528514,1007.037,1231792.47581901,1241692.75720711,1.33664069554083,2350.76388578805,1007.037,1243191.13793641,1254378.59605361,1.33295218836083,0,348.306857181134,0,79.9922434610566,0,374.573682830168,0,77.1365585594462,0,194.714327144429,0,106.986735333301,1007.037,1140665.75916472,1141684.34318429,1.39781496894161
-5.003295,34.043295,MAR,"Fès - Morocco",TRUE,1380.105,4852.60936283408,54.7499901257426,6697110444.69412,75560735.122488,,,,0,8,320.180063285413,1380.105,98747.5729703457,103670.393518025,3.13240584149273,333.122535833987,1380.105,104498.908825212,111107.51952651,3.07965755574453,0,307.014525108065,0,58.5861139892619,0,821.642674260819,0,35.8123367760601,1380.105,74201.2733209981,75560.735122488,3.76849960948009,0,217.347178498006,0,69.6301210660996
-4.31988,35.1186104,MAR,"Niangoloko - Burkina Faso",FALSE,87.889,5072.45692357448,40.7110698682004,445813166.556038,3578055.21964627,,,,0,8,174.256968623405,87.889,2637.02562934555,6971.73891551969,4.0654476028457,176.710217058792,87.889,2690.22082424536,9153.99548603407,4.04116230666951,87.889,2693.70616510235,3578.05521964626,7.44966134073744,0,299.273113226694,0,22.3500134999955,0,126.006298813686,0,34.4441532623517,0,232.587623742922,0,25.3523568797864
-5.466706,12.38318,MLI,"Koutiala - Mali",TRUE,173.39,2285.3071,34.2337289247921,396249398.069,5935786.2582697,,,,0,9,246.70595713536,173.39,8548.76017591891,9043.29546767271,3.50266489668164,257.462447133066,173.39,9086.16549735569,9496.51588681617,3.43918340636775,173.39,5775.88546674262,5935.7862582697,4.40989450028401,0,170.888278030851,0,25.6378350812784,0,30.3717531924304,0,60.8138579877027,0,8.22164156657924,0,116.884848292707
-4.88414,13.22997,MLI,"Techiman - Ghana",FALSE,62.939,2285.3071,27.7750123769379,143834943.5669,1748131.5039921,,,,0,9,215.147150481399,62.939,2551.98942999482,2668.84850954854,3.71427972435877,221.900188421121,62.939,2667.1857405309,2799.89370473215,3.6654077115623,62.939,1748.13149432293,1748.13150399209,4.63880388754764,0,37.3232001466674,0,31.7470681899308,0,10.8495818662835,0,58.8825435235536,0,2.89073909241125,0,114.074511034047
-5.1606898,9.9698601,CIV,"",FALSE,0,3219.81194498956,23.6325528252283,0,0,,,,0,12,89.5288946829386,1e-06,1.15877334371662e-05,125.876794383613,6.19280300548024,90.774729777305,1e-06,1.18187735981056e-05,96.7711300390314,5.55617115841282,1e-06,26.3626761910732,2.36325528252283e-05,10.6451986641106,0,11.9514493007073,0,15.810231652583,0,0.599182754404797,0,70.6104345827817,0,0.222421997529464,0,115.893661118484
-5.31213,8.7883997,CIV,"",FALSE,0,3289.988,26.5663110545579,0,0,,,,0,12,85.2442441406496,1e-06,1.08037009791807e-05,154.265085237112,6.36461083927646,76.0728812109038,1e-06,9.18228656950177e-06,161.166758170685,6.03072993325742,1e-06,19.8218044681561,2.65663110545579e-05,17.196339895657,0,42.095629406677,0,11.8001929834055,0,0.984493911750588,0,77.1615790494189,0,0.581631027977659,0,100.388472082456
-5.199932,9.583411,CIV,"Ferkessédougou - Côte d’Ivoire",TRUE,160.267,3267.52578171889,28.1654532445121,523676554.458741,4513992.69513822,,,,0,12,216.292738395748,160.267,6547.83780094569,7218.8838541718,3.70583581824979,225.149786433688,160.267,6934.21561631859,7618.32450800623,3.64264078059383,160.267,4193.3446404649,4513.99269513822,4.90982259796186,0,217.265921527974,0,21.5700063696385,0,24.0179859986797,0,64.8750620235012,0,8.33024597463211,0,110.158285367665
-4.93154,12.8220196,MLI,"Siliana - Tunisia",FALSE,24.889,2270.88540033439,28.0674148072147,56520066.7289225,698569.887136766,,,,0,9,224.510530267353,24.889,1072.49838773738,1081.71258366643,3.64708227189523,232.356237770916,24.889,1126.43862587377,1145.93711485613,3.59378664651236,24.889,698.569844896447,698.569887136767,4.60285999936287,0,19.1366524831525,0,27.8099174156167,0,3.9940347618736,0,60.8732888232073,0,1.09865391308688,0,116.065256730683
-4.805582,12.183353,MLI,"Kouri - Mali",TRUE,137.964,2215.83852651061,27.169998873553,305705946.47151,3748481.72459086,,,,0,9,213.853069964554,137.964,5546.02466895493,5834.20821465426,3.72389571581791,216.604758777116,137.964,5648.2504616757,6376.64858087064,3.70354703805507,137.964,3479.99974656388,3748.48172459087,5.01330930979008,0,182.676673394039,0,21.8812717392159,0,23.1871383481442,0,61.4172731688067,0,6.40748776017343,0,116.83426079359
-4.8452396,10.9798899,BFA,"Tiko - Cameroon",FALSE,33.422,1561.522,23.9344297130372,52189188.284,799936.50986913,,,,0,13,153.547244895296,33.422,836.979727288677,1443.3427287062,4.29197879738305,167.892344170592,33.422,950.884137709603,1497.84950884176,4.13079617226674,33.422,558.210914825359,799.936509869129,6.76657179563032,0,131.529807665007,0,13.939775001332,0,5.14634903379429,0,70.472266581134,0,1.79123980810885,0,119.451331233534
-5.016623,7.683365,CIV,"Bouaké - Côte d’Ivoire",TRUE,659.233,3289.988,40.2539059826232,2168868659.204,26536703.2026426,,,,0,12,265.902504320031,659.233,36174.9323866595,36904.3422658344,3.39196747272682,270.73255933782,659.233,37117.3008424178,38045.906424533,3.3658990087462,0,363.895724375536,0,34.4164896984862,659.233,26194.5752234529,26536.7032026426,4.05648027687668,0,49.6126688815497,0,93.2091942903453,0,50.2190372696511,0,92.6447593721991
-3.2846298,9.6600199,CIV,"",FALSE,0,3217.02361233922,19.5825015048918,0,0,,,,0,12,58.4625578750796,1e-06,6.30363078392882e-06,126.623052660593,7.93422594187666,55.1121694753101,1e-06,5.79396737538158e-06,137.667628621241,7.02514555157047,1e-06,42.3732711618226,1.95825015048918e-05,12.6626686965001,0,7.01400308771174,0,31.1234883016081,0,3.16327050723243,0,46.3450205248457,0,0.634817843139829,0,103.453857784859
-4.758877,10.630955,BFA,"Banfora - Burkina Faso",TRUE,126.236,1561.522,24.6889188876878,197120291.192,3116630.36470615,,,,0,13,204.220705057651,126.236,4751.22241975325,5243.34058251895,3.79818116140331,204.173342333466,126.236,4749.64835483522,5578.34766953782,3.79855873349137,126.236,2757.39421916204,3116.63036470616,5.40284121818978,0,245.601537570549,0,18.1032310487778,0,16.8531033594699,0,69.1085360714169,0,5.76243910300076,0,118.186660597345
-4.1257401,6.7047696,CIV,"Cidade de Nacala - Mozambique",FALSE,74.281,3289.988,36.3507584903294,244383598.628,2700170.69142016,,,,0,12,253.377577524815,74.281,3804.62529207657,3943.2179635784,3.46283718311326,249.603481125256,74.281,3723.92663909694,4270.37503368737,3.48518072301757,74.281,2614.25885919019,2700.17069142016,4.45434670631216,0,51.4647936176806,0,31.7470367323452,0,9.60749581787081,0,73.4773036577389,0,15.561370082819,0,57.7343654701879
-3.98735,7.06142,CIV,"Ilesa - Nigeria",FALSE,101.136,3289.988,30.9159129234854,332736226.368,3126711.76942962,,,,0,12,216.525581606527,101.136,4138.34900247505,4868.40636704156,3.70412739127171,214.950183334433,101.136,4095.40211993479,5184.72899403232,3.71573798673207,101.136,2958.78238475598,3126.71176942962,4.91871433131729,0,84.1616464232826,0,29.1642626973388,0,17.6352520657592,0,63.7114189494455,0,17.9519239732768,0,63.1469840562095
-4.016502,34.216732,MAR,"Taza - Morocco",TRUE,215.147,4756.2676,43.2527353559962,1023296705.3372,9305696.25363651,,,,0,8,260.546477980652,215.147,11467.7834228769,13542.1939220919,3.42167738619488,291.205288436418,215.147,13443.1038953024,16283.1106882887,3.26236866756394,0,233.944643066976,0,27.2173082863276,215.147,8777.04256564917,9305.69625363651,4.44352494594024,0,88.3179871748323,0,44.2972885560974,0,85.1265817029381,0,45.1200038366931
-4.1851397,14.0335598,MLI,"Rubengera - Rwanda",FALSE,35.513,2285.3071,26.5762081399309,81158111.0423,943800.879673367,,,,0,9,203.208565649498,35.513,1327.17130366386,1379.82423779018,3.80627736929771,207.448855218764,35.513,1366.90989024749,1430.87702492153,3.7727372402434,35.513,943.800880640875,943.800879673366,4.64534019639455,0,10.8916767431894,0,43.2424551632496,0,6.38704432378126,0,56.468694973179,0,1.63348456431885,0,111.660662709008
-3.4726,12.4589195,BFA,"Al Marj - Libya",FALSE,63.617,1561.522,23.9784948796488,99339345.074,1525439.90875862,,,,0,13,179.979343004148,63.617,1998.93858832769,2461.67057466564,4.00953895734243,188.760758945188,63.617,2139.71160152566,2614.36278100169,3.92850851691108,63.617,1381.23486086739,1525.43990875862,5.40476554595992,0,74.5541707915454,0,23.2634784718089,0,12.9729524830919,0,55.7687887787804,0,2.99150720711462,0,116.135662210687
-4.283237,11.183756,BFA,"Bobo-Dioulasso - Burkina Faso",TRUE,903.887,1563.71297280047,35.5323045529694,1413419827.8457,32117188.1654698,,,,0,13,249.351390923176,903.887,45249.1678727806,46717.3818106697,3.48669034016735,255.970423276031,903.887,46974.7925147186,48398.3713797727,3.44776055258901,0,759.0133094369,0,27.5313669286899,903.887,31371.2463931519,32117.1881654699,4.28239362021227,0,94.8159559102414,0,77.895390071698,0,31.2419958767096,0,135.701011574526
-3.4547899,10.1577702,BFA,"",FALSE,0,1561.522,18.5995770061625,0,0,,,,0,13,91.491166740495,1e-06,1.19522548193546e-05,27.5103326876433,6.1188558362909,80.346205548686,1e-06,9.92793005192201e-06,91.7925320536911,5.87909078642369,1e-06,26.6457829057397,1.85995770061625e-05,10.9118803532268,0,9.16059588473444,0,18.6102401669604,0,0.844983544750104,0,61.2759039651751,0,0.22373760333895,0,119.081522500575
-3.932213,35.247186,MAR,"Al Hoceïma - Morocco",TRUE,157.146,5081.60594467335,48.3370623895879,798554047.781638,7595976.00627419,,,,0,8,274.283309804629,157.146,9014.15270610645,12291.7117761609,3.34715513712187,324.723502506076,157.146,11472.5427367422,13901.9072561876,3.11354688285297,157.146,6997.48558749801,7595.97600627418,4.38855551616588,0,362.217926941418,0,19.2889076019285,0,47.6168336187871,0,53.2000875431078,0,69.2699287900296,0,44.1082911545899
-3.8383498,11.7186594,BFA,"",FALSE,0,1561.522,21.1535394343159,0,0,,,,0,13,86.4945175727711,1e-06,1.1030778155956e-05,130.553950900355,6.31292974820296,79.9809801187901,1e-06,9.86352310679711e-06,115.590207479273,5.89156073758502,1e-06,26.385704693446,2.11535394343159e-05,12.3312337297099,0,16.7244902024019,0,15.4886809852621,0,1.02073359213422,0,62.6952568813196,0,0.264931138332915,0,123.062122440437
-3.516123,11.495237,BFA,"Houndé - Burkina Faso",TRUE,102.324,1561.522,23.1279888600729,159781177.128,2366548.3321181,,,,0,13,192.769351274583,102.324,3546.47657272401,4086.19143157607,3.89328719003285,198.905868171122,102.324,3708.8510791976,4225.36387156738,3.84134885538277,102.324,2193.1598704888,2366.5483321181,5.33188362178092,0,136.498379746123,0,21.3723392391364,0,20.0994908685626,0,55.6959068210009,0,4.02049204294103,0,124.53063574696
-3.2551699,10.9504795,BFA,"Abū Za‘bal - Egypt",FALSE,25.688,1559.68196236009,20.0266158993534,40065110.249106,514443.709222591,,,,0,13,146.536246596354,25.688,601.751431812936,928.066430393631,4.37881169056179,145.617216412838,25.688,596.367258283747,955.919619506661,4.39063431082046,25.688,405.050627704253,514.44370922259,6.7450208922889,0,53.0614965165657,0,18.63580714142,0,5.65023006145863,0,57.1090440800801,0,1.27854277975491,0,120.055020889964
-4.031478,6.172398,CIV,"Adzopé - Côte d’Ivoire",TRUE,156.488,3289.988,28.5378806552521,514843642.144,4465835.86797909,,,,0,12,199.888589829929,156.488,5712.16379874315,6166.10493591273,3.83324371736963,211.899818406526,156.488,6208.75237010671,6712.44854550313,3.73856835869615,156.488,4293.93854920885,4465.83586797909,4.6743141637169,0,38.382821216372,0,49.4398750639124,0,17.2738364230959,0,73.6972716404832,0,36.6002689051357,0,50.6295040349547
-4.183454,14.484661,MLI,"Mopti - Mali",TRUE,175.604,2287.68401478936,27.9093141499409,401726463.733071,4900987.20198623,,,,0,9,211.996474074974,175.604,6971.73123219477,6978.20227183274,3.73783775657475,216.250905588343,175.604,7172.46113122771,7176.22141793916,3.70614302979416,175.604,4899.1914605694,4900.98720198622,4.48546926132428,0,40.7133048779696,0,49.2041702546005,0,32.0835457429526,0,55.4279621793239,0,7.14720124847058,0,117.43622609562
-3.5236499,14.0762997,MLI,"Kamsar - Guinea",FALSE,105,2285.3071,24.7752788915821,239957245.5,2601404.28361612,,,,0,9,197.931227700743,105,3779.23280916107,3786.99916293617,3.84944405803117,201.700100562747,105,3882.45304830887,3887.03619656323,3.81845117441349,105,2603.20000548852,2601.40428361612,4.66597884861261,0,24.0885661397628,0,48.5055082904986,0,19.1883407041389,0,54.3472813882786,0,4.14560439591928,0,116.923715560891
-0.04122,16.2347698,MLI,"Catabola - Angola",FALSE,49.483,2285.3071,23.3834754351307,113083851.2293,1157084.51495657,,,,0,9,181.42521827299,49.483,1572.70244823964,1690.5364470477,3.99581300513349,189.792246616223,49.483,1677.33246168953,1753.66759690848,3.91934394516322,49.483,1127.09806259978,1157.08451495657,4.88884382347735,0,10.4030304392778,0,50.8870274370391,0,12.6797294608108,0,46.0926866577438,0,2.30523396669256,0,108.100950812164
-3.7660499,6.5562596,CIV,"",FALSE,0,3330.13071312614,26.749789223801,0,0,,,,0,12,57.9443075954029,1e-06,6.22395482430243e-06,108.273432017524,7.97750960624164,63.479500753183,1e-06,7.09039327519753e-06,84.9770704724369,6.56671174955025,1e-06,31.2990460477301,2.6749789223801e-05,10.8201498675366,0,2.52263866167217,0,38.112839837744,0,0.941982631977603,0,62.3702366525212,0,1.13402530570796,0,56.8443710048236
-3.199681,5.466835,CIV,"Aboisso - Côte d’Ivoire",TRUE,115.831,3283.31415970208,30.802133925745,380309562.432452,3567841.97475296,,,,0,12,94.1959585813678,115.831,1443.27973033126,5912.25475546976,5.29181440873206,102.557781865409,115.831,1629.73399821344,6627.17051812596,5.10240279406914,115.831,3206.89017321618,3567.84197475297,7.3349434314372,0,51.2720400893211,0,58.0094186904075,0,29.5916832043294,0,76.3579003947243,0,148.297616777955,0,34.1092151560233
-2.884658,34.416684,MAR,"Taourirt - Morocco",TRUE,321.876,5909.4069394727,41.5215982796711,1902096268.04972,13364805.9678674,,,,0,8,263.831701328354,321.876,17466.5343471007,17606.850231242,3.40335201880206,291.473127603169,321.876,20138.3197580689,21450.3290688319,3.26108354088477,0,319.262895975383,0,26.7303521169561,321.876,13083.4551081893,13364.8059678674,4.17558837380556,0,40.877806682042,0,74.7024957603034,0,61.0722244455727,0,61.1162973052815
-3.3598599,7.0014696,CIV,"",FALSE,0,3315.53558628181,33.597304142047,0,0,,,,0,12,54.976626472337,1e-06,5.77362139815174e-06,296.47237784988,8.23994071298606,48.64542955196,1e-06,4.84774388831079e-06,405.42180167015,7.46259845240413,1e-06,109.940033217552,3.3597304142047e-05,14.3306434510186,0,15.1721994898232,0,38.5761917305926,0,13.570667346036,0,40.7889965504105,0,4.28850294345409,0,72.5589131510769
-2.933289,35.166696,MAR,"Nador - Morocco",TRUE,398.424,7606.25038889618,51.3612061101847,3030512704.94557,20463537.1832442,,,,0,8,298.97696972712,398.424,25849.3980769653,26623.4298604424,3.22575094108201,326.078126676122,398.424,29260.6940070494,29683.6382664722,3.10799689399458,0,226.176048029969,0,35.6053972656085,398.424,20312.2180870017,20463.5371832442,3.75716671243613,0,40.2364061045522,0,84.4169292465041,0,70.3266010136975,0,63.8527090512989
-3.483656,6.733739,CIV,"Abengourou - Côte d’Ivoire",TRUE,164.424,3393.50643563291,31.3151713379485,557973902.172505,5148965.73207084,,,,0,12,220.084267217759,164.424,6886.53132318917,7158.80362509072,3.67833873715672,235.146725038929,164.424,7569.58142779895,8051.65433098599,3.57544678667184,164.424,4949.28069487399,5148.96573207084,4.56038844924686,0,73.0021902323339,0,37.5495671294528,0,32.7882046082174,0,56.0291535886196,0,26.1085862382957,0,62.7886582044368
-2.416466,13.583359,BFA,"Ouahigouya - Burkina Faso",TRUE,124.58,1563.41905949248,24.9678181813964,194770746.431573,3110490.78903837,,,,0,13,202.720846972635,124.58,4639.77684414887,4778.52198315728,3.81019924428148,206.878067082427,124.58,4776.29819362943,4919.69233822517,3.77719480587794,124.58,3099.03549666991,3110.49078903836,4.75910273923308,0,39.015352020085,0,42.4151093913585,0,35.5695691120795,0,44.4220968061922,0,5.11341953608528,0,117.160885142694
-3.0625598,11.1466293,BFA,"Hohoe - Ghana",FALSE,25.922,1561.522,20.2432159885365,40477773.284,524744.644854843,,,,0,13,192.896427963431,25.922,899.28417123595,914.343234217494,3.89218780973506,198.707493130493,25.922,938.234328563352,953.794522349658,3.84299193341788,25.922,504.620230831291,524.744644854843,5.28341293633023,0,28.1116027886459,0,22.3848444802893,0,4.66179209077082,0,54.9693291812886,0,0.919018014665826,0,123.804057892665
-2.7472,11.7775002,BFA,"Sébékoro - Mali",FALSE,40.627,1561.522,21.1605772475616,63439954.294,859690.771836685,,,,0,13,190.83498044244,40.627,1387.9607853265,1464.18809143882,3.91015151592526,192.433973124778,40.627,1404.60431670644,1496.93264909137,3.89619372750756,40.627,800.483616563146,859.690771836685,5.32801512415884,0,35.4130419110458,0,25.3314504030084,0,10.1257636091706,0,47.372661205027,0,1.59872856660968,0,119.221425383486
-3.03983,6.1229501,GHA,"",FALSE,0,3802.82235998441,26.9757504642009,0,0,,,,0,14,47.3516382521803,1e-06,4.66460994506902e-06,175.203019599441,9.05474225581971,39.8668461173974,1e-06,3.64811068288218e-06,224.366199085053,8.23214693153062,1e-06,53.5903290550032,2.69757504642009e-05,16.8441312145968,0,6.12271715016522,0,49.8333096215514,0,6.19571668902416,0,49.5388652637812,0,7.26186444214105,0,45.7580765668831
-2.75492,6.4242897,GHA,"",FALSE,0,3953.2102,29.0369393929079,0,0,,,,0,14,52.1132814954801,1e-06,5.34888258869446e-06,129.279110223972,8.51953111843333,41.9699481750102,1e-06,3.92611559460299e-06,375.399817122179,8.02420302919846,1e-06,60.5044707681065,2.90369393929079e-05,19.9873493488834,0,10.6614013304615,0,47.6147810573983,0,34.4908430506212,0,26.4726264798332,0,6.04522820321591,0,63.2328255083757
-2.366508,12.250045,BFA,"Koudougou - Burkina Faso",TRUE,252.816,1560.77676867213,26.6972220059627,394589339.548613,6749484.87865947,,,,0,13,207.551843173468,252.816,9737.89329933024,11253.8107247383,3.7719348178914,217.160723148811,252.816,10388.2676978322,12025.8914447745,3.69948050009142,0,358.185161310228,0,21.4360907551195,252.816,6070.70045246711,6749.48487865947,5.20690890920197,0,95.112884893599,0,41.5986948541763,0,9.42221012219191,0,132.166987213182
-2.883702,7.283584,GHA,"Domaa-Ahenkro - Ghana",TRUE,1000,3838.14915389001,37.1443756204362,3838149153.89001,37144375.6204362,,,,0,14,246.790739189941,1000,49327.8585410358,50756.8667568608,3.50214914216046,255.297391255893,1000,51774.6638598718,53994.4723790767,3.45165300101838,0,372.452637230795,0,41.5591114021911,0,161.941226958477,0,63.0264821240988,1000,36437.0180950881,37144.3756204362,4.20175151916642,0,89.4468118304996,0,84.8045877400315
-2.800007,8.033291,CIV,"Bondoukou - Côte d’Ivoire",TRUE,141.568,3415.9826182662,35.1347520530404,483593827.30271,4973956.57864482,,,,0,12,259.952808450083,141.568,7521.31899732923,7647.84871707571,3.42502418581249,266.0476890158,141.568,7774.50141983846,7909.32431068613,3.39117405138171,141.568,4891.7735685664,4973.95657864482,4.31207791031565,0,53.4004006322508,0,41.2712397458816,0,68.9063036717125,0,36.3320828243723,0,11.4557005562161,0,89.1064099423026
-3.0037599,9.2666302,CIV,"Birkat as Sab‘ - Egypt",FALSE,94.883,3281.84616266209,23.3886063445532,311391409.451867,2219181.13579024,,,,0,12,198.875438777216,94.883,3438.39188038985,3522.2650445193,3.84160074945783,205.87343349373,94.883,3612.52873967077,3693.76105433491,3.78508332774312,94.883,2176.80781667844,2219.18113579024,4.93060031919426,0,33.1674838958638,0,39.9441864989922,0,35.4938855339753,0,38.6129579451011,0,5.77561283811588,0,95.7217894128601
-2.500115,10.066876,GHA,"Wa - Ghana",TRUE,107.214,3936.48868750266,37.1891567694194,422046698.141911,3987198.25387653,,,,0,14,237.851556972982,107.214,5017.11390397231,6124.70156161042,3.55796423217724,238.021241638912,107.214,5022.22788247068,6391.81588899633,3.55687694933939,107.214,3789.13275737632,3987.19825387653,4.61967111819035,0,47.8604326291825,0,41.1048113866029,0,75.5802047391149,0,32.7097283704646,0,7.73446087763177,0,102.25061926873
-2.7890699,11.0427799,BFA,"",FALSE,0,2197.95807905528,23.1288106598402,0,0,,,,0,13,100.98205584407,1e-06,1.37621287973461e-05,90.9260918333501,5.79689313404676,91.0948021676306,1e-06,1.18783515293842e-05,99.7568909611245,5.54716521158296,1e-06,39.1643492678199,2.31288106598402e-05,8.85313510491862,0,4.55677476792732,0,25.9545661135936,0,1.27259809206706,0,49.1130525138602,0,0.218032290214732,0,118.653942780049
-2.75752,5.2915597,GHA,"Kolda - Senegal",FALSE,27.938,3680.15963132643,31.4353166300399,102816299.779998,878239.876010055,,,,0,14,192.620708188644,27.938,967.244597717292,1241.17827760167,3.89457453473458,166.710292043006,27.938,786.87715550404,1377.25449891037,4.14332336570564,27.938,735.663370155764,878.239876010055,5.66912930001155,0,7.64699553790303,0,55.6045732655748,0,7.71012002305057,0,55.3764818780452,0,19.7689981177378,0,34.5830744536817
-2.49212,9.0273695,GHA,"Mesra - Algeria",FALSE,10.555,3903.89231157778,29.1246396378985,41205583.3487034,307410.571378019,,,,0,14,101.666598031619,10.555,146.668011310026,599.798493077084,5.12152357438146,117.029850554363,10.555,179.327686131527,609.960194815873,4.82175995294333,10.555,235.399024870986,307.410571378019,7.76164905946539,0,7.73911521109419,0,42.8065944690767,0,27.8750085887746,0,22.5553114389458,0,1.67197289583988,0,92.096202141185
-1.911082,34.686468,MAR,"Oujda-Angad - Morocco",TRUE,619.82,7265.94785567517,64.1855171619656,4503579799.90458,39783467.2473295,,,,0,8,345.35502791094,619.82,49412.7663279082,49413.5538829688,3.03242620393459,366.689215927073,619.82,53830.4792462926,56535.7434992118,2.95551737803834,0,353.035578415387,0,37.4012255911848,619.82,39450.1925681016,39783.4672473295,3.53810329095704,0,56.7492312121198,0,93.285701163304,0,164.590594546338,0,54.7762837170002
-2.63341,7.4203897,GHA,"Béchar - Algeria",FALSE,96.471,3953.2102,36.4293790503192,381370141.2042,3514378.62636334,,,,0,14,234.941927776198,96.471,4435.7070433689,6413.59907983473,3.57678218580508,244.414768514268,96.471,4693.39408233018,6839.51932393146,3.51669936760381,96.471,3055.41718620455,3514.37862636334,5.26153877308034,0,118.395061147403,0,26.7289095187038,0,178.152312900031,0,21.7897527024519,0,10.2223293666861,0,90.964743586824
-2.42713,6.64852,GHA,"",FALSE,0,3953.2102,30.0019266172557,0,0,,,,0,14,52.6503806690794,1e-06,5.42780989896629e-06,748.431754247515,8.4649127628704,53.3371691313546,1e-06,5.52923777304744e-06,856.605485189188,7.13678283243837,1e-06,89.2242810369041,3.00019266172557e-05,22.113189033574,0,27.5197822483021,0,39.8171719669063,0,125.101866754901,0,18.6750172591887,0,11.4998183444012,0,61.5952777362653
-1.9408599,7.58079,GHA,"Nnewi - Nigeria",FALSE,104.212,3953.2102,38.4258396252504,411971941.3624,4004433.5990266,,,,0,14,197.212203381072,104.212,3731.42033128656,6986.30672069818,3.85545273600685,210.954590047934,104.212,4108.34879709403,7494.64718314716,3.74573839355555,104.212,3446.6678925703,4004.43359902659,5.52348678898508,0,107.963832984511,0,31.2085716036247,0,176.162530564239,0,24.4318452477155,0,17.6409526513442,0,77.2061724139417
-2.3793299,11.9639797,BFA,"Gīnīr - Ethiopia",FALSE,8.983,1555.86958355345,20.7091832742223,13976376.4690606,186030.593352339,,,,0,13,105.465124920113,8.983,131.539606030248,379.253312475205,5.04163950098942,110.093833672871,8.983,139.863787488655,429.958940853377,4.94968034855501,8.983,119.681476003366,186.030593352339,9.38160569947986,0,38.2077546734111,0,16.604082655175,0,7.73811148476758,0,36.8954792119479,0,0.693156314747497,0,123.27501448405
-2.3323998,7.3266597,GHA,"Matola - Mozambique",FALSE,225.038,3934.99061586051,37.6600902235125,885522418.212017,8474951.38371881,,,,0,14,251.457415861697,225.038,11401.7205347085,14117.2199454339,3.47414512421647,255.993178518722,225.038,11696.6566437511,15087.4956765777,3.44762920482685,0,380.193057011747,0,21.718360593526,225.038,7513.81414152931,8474.95138371881,4.88538625367297,0,129.236321306028,0,37.2509057240898,0,27.9011343014826,0,80.1711661605554
-1.527486,12.368619,BFA,"Ouagadougou - Burkina Faso",TRUE,2497.171,1561.522,38.4954008979503,3899387454.262,96129598.7557355,,,,0,13,250.725681854919,2497.171,125995.425209659,128606.194903335,3.47848686160761,255.669880936465,2497.171,129559.758855452,132422.997461694,3.44949691578732,0,761.049696733948,0,45.5020495931766,0,360.847606723238,0,66.0808397697915,2497.171,95201.0215080021,96129.5987557354,4.06833459616755,0,76.9122297694158,0,143.132997705057
-0.85435,10.77911,GHA,"Calabar - Nigeria",FALSE,93.991,3844.83852701892,32.5092252880077,361380217.993035,3055574.59404513,,,,0,14,214.685244788225,93.991,3799.37247338831,4868.01277839404,3.71770252224899,219.402186977684,93.991,3919.18539971014,5070.81024132333,3.68323521491641,93.991,2851.23182718562,3055.57459404513,4.91192659904896,0,34.6665760114809,0,44.5464048317611,0,87.7422815052058,0,28.0003636900761,0,6.5422222294042,0,102.542874758433
-2.02933,8.1420498,GHA,"",FALSE,0,3909.39329504001,30.4736731110018,0,0,,,,0,14,141.941190998552,1e-06,2.23831003725579e-05,23.5986633162852,4.84509350043952,99.1805541924665,1e-06,1.34127400442596e-05,50.384023604273,5.33456797044736,1e-06,16.3106024260885,3.04736731110018e-05,9.37585037077819,0,1.07008862324671,0,36.6046124260283,0,2.45445780215235,0,24.1695126404852,0,0.210139678639926,0,82.6022132497771
-0.852935,9.408997,GHA,"Tamale - Ghana",TRUE,1146.388,3953.2102,39.9885546755501,4531912734.7576,45842399.2173945,,,,0,14,262.721181873568,1146.388,61834.7762795193,63590.2683610236,3.40950998608511,271.992510552164,1146.388,64975.5151951812,67201.3158378167,3.3592079183144,0,635.563136428421,0,34.5419160247587,0,156.601912030663,0,69.5868605838977,1146.388,45055.7628454146,45842.3992173945,4.10251899142725,0,85.4569314732323,0,94.200265462544
-2.0349898,7.0902801,GHA,"El Wak - Kenya",FALSE,45.153,3953.2102,34.7409805927437,178499300.1606,1568659.49670415,,,,0,14,136.916623379396,45.153,959.945272730821,3226.1946248239,4.50810848245069,142.008314782807,45.153,1011.34697403099,3545.05244866304,4.43811187057071,45.153,1162.77169669052,1568.65949670416,7.74929781257385,0,107.778371121396,0,25.4532808728697,0,128.820341289575,0,23.2818429335088,0,13.7593777537744,0,71.2377479085873
-1.89963,5.9580197,GHA,"",FALSE,0,3910.51913372888,33.3768235924992,0,0,,,,0,14,41.592721068938,1e-06,3.87580136806441e-06,369.367016332046,9.85747564278111,47.7646335909375,1e-06,4.72283863526385e-06,1642.54733723415,7.52941486873189,1e-06,168.644330054099,3.33768235924992e-05,23.4981841131589,0,93.3427023046852,0,31.5849351636026,0,94.7056025943414,0,31.356843517055,0,66.4054841358465,0,37.4471009081125
-1.625058,6.70004,GHA,"Kumasi - Ghana",TRUE,6898.949,3953.2102,55.7015155157662,27272995556.0798,384281914.76598,,,,0,14,311.623475807536,6898.949,474888.170559288,480699.073124768,3.1689821310927,316.603205334269,6898.949,485766.169689451,491833.693911426,3.14752375153308,0,1151.78538928732,0,65.0417731334857,0,711.647374272633,0,82.7457561774233,6898.949,382760.039079492,384281.91476598,3.56791795928344,0,484.785167078427,0,100.254411766053
-2.26566,12.9614601,BFA,"Zomba - Malawi",FALSE,78.833,1627.34871682273,19.3775853082574,128288781.393286,1527593.18260586,,,,0,13,142.300148701173,78.833,1770.90518290893,2859.18220369871,4.43420881202781,146.085140938372,78.833,1838.5777874938,3166.37726655348,4.38460151253496,78.833,1300.79982805483,1527.59318260586,6.84078944218419,0,80.9657481538723,0,27.4195796249625,0,83.4807269445009,0,27.003393665482,0,4.28114811083312,0,119.242571678295
-1.083295,13.083043,BFA,"Kaya - Burkina Faso",TRUE,141.824,1561.522,20.6131088024861,221461296.128,2923433.54280379,,,,0,13,181.695828098522,141.824,4517.15494205754,4662.38816454028,3.99326139182976,186.203027941802,141.824,4678.0788226885,4801.17482505622,3.9515453833449,141.824,2850.88884543615,2923.43354280379,5.12803040777934,0,30.9083455674742,0,49.2496167302617,0,60.8163616323369,0,35.1099747510494,0,6.44541866570209,0,107.848763240085
-2.0190399,12.1964092,BFA,"Sakouéba - Mali",FALSE,41.911,1578.17761345313,20.6985723020877,66143001.9574339,867497.863752799,,,,0,13,118.451970622027,41.911,724.454144944822,1864.91359025603,4.79686454408475,128.656485558461,41.911,815.232460474797,2060.96813947768,4.62994981780936,41.911,821.476211523896,867.497863752798,7.33355286346734,0,56.7062963828947,0,27.9123422361595,0,58.4359152192885,0,27.4961569399297,0,2.43916787478231,0,134.583271043231
-1.9836799,4.92097,GHA,"Bocaranga - Central African Republic",FALSE,27.719,3953.2102,37.6841551729159,109579033.5338,1044567.09723805,,,,0,14,116.457434270961,27.719,467.653962890862,1907.09146329172,4.83190292755542,178.686710078087,27.719,862.04872108788,2059.81615591421,4.02194419238476,27.719,766.775973481945,1044.56709723806,6.5919821383762,0,19.2885248345934,0,41.5624139641135,0,19.5019886070745,0,41.3343223187673,0,78.969911554929,0,20.5408988754907
-0.78598,32.4087105,DZA,"",FALSE,0,13888.5151898265,38.4111599953153,0,0,,,,0,10,56.1095849482886,1e-06,5.94434452459911e-06,127.672976330038,8.13670256415732,44.5488530566262,1e-06,4.2752386215195e-06,165.61161065145,7.79118494300897,1e-06,25.1369127668082,3.84111599953153e-05,19.998293317916,0,25.8567227053859,0,19.7179682940766,0,1.35087266794112,0,86.2664053391533,0,2.58606214964443,0,62.348990751049
-0.29448,27.9394188,DZA,"Cuango - Angola",FALSE,77.757,13747.3943974488,41.9438900722357,1068956146.16242,3261431.06034683,,,,0,10,262.071030968424,77.757,4179.29871299916,4295.05950339644,3.41313244930759,277.855864602729,77.757,4543.49353012694,4573.99681686982,3.32864278004491,77.757,3260.09028052937,3261.43106034683,3.94275967240084,0,26.3667642894598,0,43.8416309232633,0,8.61249626673568,0,76.7097552909242,0,6.07408856088903,0,91.3428506546629
-1.735029,8.052471,GHA,"Kintampo - Ghana",TRUE,111,3953.2102,31.8375771190788,438806332.2,3533971.06021775,,,,0,14,237.911772824913,111,5196.15969483656,6047.90148400622,3.55757826437069,249.604257947661,111,5564.78365579875,6427.04590040647,3.48517607360034,111,3334.14999658113,3533.97106021775,4.83880206759544,0,49.0759767152199,0,39.8837466693943,0,140.238660927634,0,23.5937268199553,0,12.8099162221641,0,78.0651647652114
-1.704435,4.940486,GHA,"Sekondi - Ghana",TRUE,345.041,3953.2102,55.5145875968161,1364019600.6182,19154808.818993,GHTKD,Takoradi,AI,343.8114,14,467.116613721841,345.041,42346.2585196027,44194.3373251454,2.6642747776538,481.287662431258,345.041,44193.3644669401,47726.9445174239,2.63036736045272,0,260.749841743713,0,35.5865753522459,0,253.15848851335,0,36.1161938792329,0,102.645201635949,0,56.7190432860358,345.041,31072.8301578339,31875.830618993,3.25992656539263
-1.66741,7.6862698,GHA,"",FALSE,0,3953.2102,34.7148244506919,0,0,,,,0,14,161.26917824816,1e-06,2.68611390537836e-05,33.7250677344134,4.54103455365818,141.004190921184,1e-06,2.21723162794551e-05,45.4066962008181,4.54745158855445,1e-06,18.5296627016103,3.47148244506919e-05,7.11859472391811,0,0.698305792315268,0,36.6695205905407,0,1.40263644207015,0,25.8735180759105,0,0.171282715243829,0,74.0408373376733
-1.2003399,5.16293,GHA,"Lubango - Angola",FALSE,242.548,3953.2102,47.126908309488,958843227.5896,11430537.3566497,,,,0,14,219.880823137027,242.548,10145.1678988032,20092.5525376344,3.67979693608756,231.911960953604,242.548,10947.3845324208,21867.2466700089,3.5967355950106,0,109.19616125338,0,50.8981361883914,242.548,10036.3215874805,11430.5373566497,5.30906790944565,0,235.855709002564,0,34.6323824229294,0,479.042812118417,0,24.3006785654877
-0.983493,7.750098,GHA,"Atebubu - Ghana",TRUE,105.938,3953.2102,32.7029046576606,418795182.1676,3464480.31362325,,,,0,14,187.870834155553,105.938,3539.17384415541,5780.21844612854,3.93647301454657,173.353417678263,105.938,3155.04999213415,6468.41241446416,4.07451548840303,105.938,3025.85705851326,3464.48031362325,5.95731575893392,0,55.3134822344988,0,44.061504695121,0,168.665573783381,0,25.2325765824837,0,24.9421896389256,0,65.6156651980322
-0.47613,6.2894998,GHA,"Benguela - Angola",FALSE,186.596,3915.11583355947,41.0997756355816,730544954.078863,7669053.73449698,,,,0,14,187.962183625789,186.596,6238.12471338165,12074.7154992959,3.93565298653551,192.053660524825,186.596,6433.00970344267,13218.3088226907,3.89949845408465,186.596,7253.75755590033,7669.05373449698,5.2639915271488,0,77.0854297786121,0,51.0634966804451,0,98.9197224134626,0,45.0770259915883,0,122.683089012224,0,40.4766301493027
-1.26867,12.4855795,BFA,"Kuvango - Angola",FALSE,33.296,1548.55313505811,24.8504324087384,51560625.1848949,827419.997481354,,,,0,13,96.8934416839008,33.296,431.951585953698,1463.57833696621,5.22816657527047,99.4840724447559,33.296,448.544276652723,1520.36215379986,5.16937858446445,33.296,587.901728215451,827.419997481354,8.31303283157968,0,15.7742659187921,0,50.7501448585246,0,79.5653059634777,0,22.596958909218,0,3.43551805035183,0,108.746615426989
-0.433167,12.249994,BFA,"Pouytenga - Burkina Faso",TRUE,181.256,1596.38093961074,25.259614458178,289353623.590084,4578456.67823152,,,,0,13,211.549634739142,181.256,7174.46532235196,7194.77912577825,3.74121934596228,216.307386066663,181.256,7406.07679979788,7427.94059765433,3.70572826215875,181.256,4565.15061141938,4578.45667823151,4.72694147778465,0,45.8556987570099,0,47.1640534797401,0,77.6310345670038,0,36.2485045237679,0,9.22380420804108,0,105.160524532045
-0.199998,5.549954,GHA,"Accra - Ghana",TRUE,3048.022,3953.2102,68.5172293751128,12049471660.2244,208842022.51439,GHTEM,Tema,QQ,7407.89336449,14,619.586537253416,3048.022,560034.533168787,564491.25216664,2.36049618233042,626.431488771384,3048.022,568894.047852793,573798.145676617,2.34940737476966,0,634.005330602018,0,70.6791703835282,0,480.724847483184,0,81.1688910821139,0,259.425412499768,0,110.492204851822,3048.022,482028.969224402,482934.07700052,2.56331115882245
1.65764,13.7969694,NER,"",FALSE,0,908.340884736449,18.21835659222,0,0,,,,0,15,58.9871081733394,1e-06,6.3845841353365e-06,195.926592763527,7.89113454970669,50.1911396776914,1e-06,5.06928643294555e-06,200.99682184886,7.34990200775321,1e-06,35.5283885841884,1.821835659222e-05,17.4818901926947,0,2.89421938544041,0,61.250610642289,0,31.9071147663454,0,18.4472815405868,0,0.75149212548352,0,120.202620240498
0.05265,8.85392,GHA,"Chinde - Mozambique",FALSE,8.6,3953.2102,29.5972745903776,33997607.72,254536.561477247,,,,0,14,126.789213073998,8.6,163.825443599135,473.867957781142,4.65905092389393,134.094112517898,8.6,177.47402003522,533.944155644723,4.54853370733137,8.6,254.536561408084,254.536561477247,6.58785829140671,0,7.15928817574251,0,39.2811700853007,0,7.56065440432486,0,38.2243090905872,0,2.98488039695742,0,60.8353306317586
-0.233454,11.049927,GHA,"Bawku - Ghana",TRUE,100.737,3443.348943435,35.8736219329596,346872642.514812,3613801.05266056,,,,0,14,264.066837243476,100.737,5473.43359962967,5548.77234394658,3.40205291505898,271.236312934819,100.737,5686.95521925796,5766.10726643702,3.36321845210622,100.737,3613.80103254235,3613.80105266055,4.24829158025551,0,40.0831236197471,0,40.3381203198429,0,47.4963235022271,0,37.0566741874582,0,6.74497352570057,0,98.3345901976481
-0.82513,9.98067,GHA,"Aioun - Mauritania",FALSE,12.666,3608.44598300667,29.1684758976839,45704576.8207625,369447.915720064,,,,0,14,103.670847954431,12.666,180.979169663156,683.178352649566,5.07885240362056,111.87343269354,12.666,201.777109332125,717.908170547933,4.91578175910378,12.666,228.993064561449,369.447915720064,8.70393975932269,0,8.30571706974403,0,45.7023441832993,0,54.0909847802282,0,17.9087221090393,0,2.02968514778061,0,92.4512332401938
-0.01374,9.4424696,GHA,"Luuq - Somalia",FALSE,52.008,3953.2102,30.0437969546538,205598556.0816,1562517.79201763,,,,0,14,169.634032210307,52.008,1501.64858139286,2687.31346143341,4.11256590182815,179.081719893368,52.008,1622.53626330581,2852.16337507156,4.01813975818822,52.008,1469.87065236914,1562.51779201763,5.59722387552274,0,27.878585418865,0,40.6421684301251,0,48.900197951249,0,30.6871763650609,0,7.80572024507664,0,76.8078746131431
-0.22433,9.9239798,GHA,"Diallassagou - Mali",FALSE,10,3953.2102,25.3205514237845,39532102,253205.514237845,,,,0,14,198.402998706894,10,361.153116088787,449.249465227505,3.84551861074897,201.262319066053,10,368.611476915519,483.51324284127,3.82200861962168,10,253.205531051832,253.205514237845,5.28152394902313,0,4.10584188597084,0,41.4757971574773,0,9.59527592459598,0,27.1310821536688,0,0.907426532464511,0,88.2246860550023
-0.23763,32.7311096,DZA,"",FALSE,0,13822.566,39.9593271920494,0,0,,,,0,10,77.1521189052081,1e-06,9.36894808126156e-06,102.860234490747,6.73469028580367,70.3994249868393,1e-06,8.21985302289377e-06,163.292195984548,6.25369959370353,1e-06,28.5582319959872,3.99593271920494e-05,14.9538861565564,0,31.8271368680255,0,14.1651423329809,0,0.57143897063435,0,105.714561921919,0,1.07558247250878,0,77.0544774285173
0.062,34.1462479,DZA,"Magu - Tanzania",FALSE,18.568,13822.566,39.034247987274,256657405.488,724787.916627704,,,,0,10,268.983840373618,18.568,1035.81488593149,1178.76176415707,3.37525985782283,195.223833300768,18.568,655.291447463356,1394.6179477941,3.87223320500256,18.568,569.065658702044,724.787916627704,6.06188845028373,0,83.0179574798655,0,15.8709567355724,0,1.93515305667827,0,103.951670671407,0,8.92198938767236,0,48.4125858425129
-0.633443,35.696881,DZA,"Oran - Algeria",TRUE,725.418,13680.5691624158,63.5150657543658,9924131120.66136,46074971.9694005,DZORN,Oran,AI,255.6159,10,385.462036939366,725.418,67659.2812587131,69385.8551810406,2.89294781642609,398.859657169695,725.418,71043.6451707214,75291.5698198548,2.85089513455608,0,351.999711809187,0,41.694931531455,0,247.963544284342,0,49.6775879949763,0,31.4793948003153,0,139.425185808387,725.418,54884.2742265901,55532.7602694005,3.33910792320999
-0.34739,35.5365906,DZA,"Kouribga - Morocco",FALSE,90.859,13775.9879587745,55.3395627750259,1251672489.94629,5028097.33417608,,,,0,10,256.199552482421,90.859,4727.9600417228,7960.22540572008,3.44643873550623,291.547305848626,90.859,5686.70189820061,8720.62058022257,3.2607279233217,90.859,4613.38585824024,5028.09733417608,4.48309940002129,0,187.234891762162,0,22.2533227334236,0,7.6165359149645,0,110.334037841956,0,81.3453493359668,0,33.7615124735898
0.05872,6.15661,GHA,"Zagora - Morocco",FALSE,34.381,3953.2102,38.8969776080709,135915319.8862,1337316.98714309,,,,0,14,275.717177442066,34.381,1986.89539029303,2134.15184613738,3.33968394591242,269.741593109758,34.381,1925.66550615034,2286.79516410158,3.37119296545446,34.381,1293.28786607055,1337.31698714309,4.48280288558481,0,9.79773296206393,0,51.50322765429,0,8.18414512793494,0,56.3521623015076,0,34.4241278150261,0,27.4767759414119
0.36174,12.0579901,BFA,"Mazabuka - Zambia",FALSE,73.2,1564.24563399205,22.6391773750371,114502780.408218,1657187.78385272,,,,0,13,171.110106565313,73.2,2139.85571079443,2797.13526386765,4.09732387701308,179.892084802418,73.2,2298.45751372758,2901.97201287524,4.01037233842803,73.2,1559.24709389313,1657.18778385272,5.47108968557002,0,30.5810480285664,0,39.0665557530921,0,46.4694832597816,0,31.691834890487,0,4.14442229629926,0,106.120504745601
0.3068,35.7280197,DZA,"Kassala - Sudan",FALSE,468.678,13822.566,55.9459393267844,6478332587.748,26220630.9517987,,,,0,10,327.662503528922,468.678,34659.3930667494,35817.379094003,3.10154723757526,337.484485555551,468.678,36153.0827797643,37144.7303135064,3.06253517270368,0,326.348989308521,0,32.6729654865565,468.678,25881.1259373437,26220.6309517987,3.66891885752438,0,18.1555719888959,0,138.523903893392,0,90.7731549403284,0,61.9513785804793
0.17407,26.7181301,DZA,"Asamankese - Ghana",FALSE,20.402,13754.6295522982,35.5508752420232,280621952.125989,725308.956687758,,,,0,10,220.049700183973,20.402,854.300397792377,972.327262974686,3.67858640509539,245.104732053153,20.402,996.579422082982,1036.04212117472,3.51245335099638,20.402,724.110471831022,725.308956687757,4.20142733302716,0,6.62812735019282,0,43.914086331153,0,2.23664896235601,0,75.5962690142419,0,1.4598664772049,0,93.5713098598509
1.0877,26.958849,DZA,"Kherrata - Algeria",FALSE,18.598,13747.3415581596,37.6662944731761,255673058.298652,700517.744612129,,,,0,10,242.412460825028,18.598,894.237560387717,950.886678829525,3.52911915749958,248.644219388505,18.598,927.258151481224,1004.82534347056,3.49093684354728,18.598,700.517743733689,700.517744612129,4.18097635144272,0,7.09562335797406,0,41.5424405142069,0,2.00627136842115,0,78.125435105645,0,1.32593890415486,0,96.1004743716591
2.101906,34.108919,DZA,"Aflou - Algeria",TRUE,114.592,13822.566,42.5694418617965,1583955483.072,4878117.48182698,,,,0,10,279.446374981702,114.592,6750.65666450189,7230.30078813948,3.32051005672227,286.154056878601,114.592,6983.32645784508,7584.63924225603,3.28692581228996,114.592,4652.74598684627,4878.11748182698,4.19664945848901,0,164.175528925242,0,22.341028075267,0,5.08006269356208,0,127.005588609763,0,14.5297805077477,0,75.0979081859168
3.666624,32.483817,DZA,"Ghardaïa - Algeria",TRUE,210.733,13822.566,54.3332823474776,2912870800.878,11449815.588931,,,,0,10,320.046483592813,210.733,15069.1222514244,15656.0864506668,3.13296608749058,330.168404728783,210.733,15754.5406102532,16288.576003362,3.09143669235337,0,194.321283372091,0,28.3036035001272,210.733,11187.2469863472,11449.815588931,3.73027030784409,0,12.6218087113584,0,111.05576809866,0,19.0470038518152,0,90.4041947622508
0.20933,10.8734493,TGO,"Al Manāqil - Sudan",FALSE,58.071,1468.95664149522,31.2532292472104,85303781.1282692,1814906.27561475,,,,0,16,233.673068576094,58.071,2649.51004821987,2912.56195751861,3.58509309451237,239.279724826558,58.071,2740.79095343791,3104.29578029382,3.54884746962436,58.071,1711.99477513179,1814.90627561476,4.77878688635334,0,55.3889455674656,0,26.5679063920784,0,22.7962734581513,0,41.4130248114626,0,4.50725473219948,0,93.1349811745655
0.05048,5.7687697,GHA,"Ténès - Algeria",FALSE,37.402,3953.2102,53.4407004820401,147857967.9004,1998789.07942926,,,,0,14,144.105630565707,37.402,855.469166846132,3616.12210046411,4.41031345133774,143.598979175964,37.402,851.175710297741,3966.05328238147,4.41697556903184,37.402,1493.36336697659,1998.78907942926,7.19816043977345,0,24.9348393556615,0,55.7058727189894,0,21.1014007707657,0,60.5548073636003,0,217.428098252858,0,18.864549385052
0.77777,18.9019699,MLI,"",FALSE,0,2285.3071,12.4608224567388,0,0,,,,0,9,34.994803759452,1e-06,3.02830059217826e-06,116.951095703159,11.0910706218019,42.5344295462124,1e-06,4.00176802927569e-06,53.7389093589853,7.97124778599993,1e-06,20.8307805782836,1.24608224567388e-05,12.8031830906366,0,1.23811442589838,0,52.5158437001743,0,1.17068743507928,0,54.0070257705467,0,0.327091036229851,0,102.17306723362
1.4786099,14.2064199,NER,"Namakgale - South Africa",FALSE,19.262,902.661251353596,18.3109624941318,17387061.023573,352705.759561966,,,,0,15,97.7406383864122,19.262,253.014560927197,491.571890827679,5.20869686939717,109.57851899423,19.262,297.902708232698,502.265383242131,4.95964276033304,19.262,242.282288132437,352.705759561967,7.14095317010825,0,4.37528746428646,0,53.1390426101346,0,14.0392623292805,0,29.6650357064298,0,1.01453093823524,0,110.353059484544
0.46922,10.3394394,TGO,"Hamma Bouziane - Algeria",FALSE,34.791,1791.52743346508,23.7423490738048,62329030.9376835,826020.066626741,,,,0,16,183.06866024971,34.791,1120.08823955617,1399.192523226,3.98040003618739,190.380971173253,34.791,1184.54502367301,1515.36963328756,3.91414507153218,34.791,742.592944238423,826.020066626743,5.59140304309306,0,42.0454851924257,0,23.4983043336394,0,12.2128338531545,0,43.6001501388147,0,2.88406921811743,0,89.7208483545745
1.14132,9.47579,TGO,"Cacongo - Angola",FALSE,33.327,1373.44357100469,23.4389778775196,45772753.8908734,781150.815724097,,,,0,16,168.236056034195,33.327,950.955568870725,1360.22615786081,4.12717722105303,177.59289431634,33.327,1027.40328438126,1447.850856119,4.03254198555126,33.327,753.033757284828,781.150815724096,5.59156771115465,0,32.4163278477581,0,26.9500083370081,0,8.22949975914141,0,53.4877210712915,0,4.18992462601857,0,74.9614033858799
0.59562,6.0068398,GHA,"",FALSE,0,3953.2102,37.1738924725988,0,0,,,,0,14,94.7058270086312,1e-06,1.25566819324118e-05,353.8240338292,6.00352267611327,96.7232743274104,1e-06,1.29405414886671e-05,469.341864739549,5.39630320707403,1e-06,76.5384988446424,3.71738924725988e-05,13.3629092924192,0,5.43673208635605,0,50.1385796484293,0,3.21186306864258,0,65.2322687146643,0,77.2961634958342,0,13.2972557301283
0.50771,7.5739598,GHA,"Kayanza - Burundi",FALSE,11.503,3218.33666164992,33.5632575458883,37020526.618959,386078.151550353,,,,0,14,123.382885044708,11.503,210.764642619057,717.041006898368,4.71374769548631,168.513630092588,11.503,329.001530318484,771.045633221871,4.12426229538447,11.503,386.078151288889,386.078151550353,5.82839135726622,0,9.19515815479143,0,37.7664982591008,0,5.28338266603787,0,49.8230474230721,0,7.77252047046069,0,41.0776304237985
0.470198,6.611847,GHA,"Ho - Ghana",TRUE,183.715,3893.07070546691,38.4335396256206,715215484.654853,7060817.73232089,,,,0,14,254.173175801193,183.715,9452.00226333849,11493.0976228493,3.45818765404554,279.876388652039,183.715,10846.5172526713,12731.7907842429,3.31832261818598,183.715,6709.22477843544,7060.81773232089,4.57116800000666,0,64.651461531095,0,46.5665625801745,0,40.7933126774146,0,58.623111729787,0,272.177476179517,0,22.6953697559142
0.14396,34.7495003,DZA,"Meknès - Morocco",FALSE,128.413,13832.7356266939,48.9472390691589,1776303080.03064,6285461.8105879,,,,0,10,305.387809356562,128.413,8587.69747326364,9688.17245125974,3.19655361175829,294.442891313834,128.413,8151.41472590401,10327.5255145682,3.24694637683189,128.413,5841.61690036474,6285.4618105879,4.31724523184443,0,261.102044067921,0,20.4205821507619,0,8.97086107982009,0,110.168183781794,0,36.4836627599511,0,54.62909911691
1.316772,35.366641,DZA,"Tiaret - Algeria",TRUE,273.948,13822.566,52.0993930151733,3786664310.568,14272524.5177207,,,,0,10,317.425364026446,273.948,19360.7194846414,20465.2480600361,3.14402729855003,326.497065739592,273.948,20155.9772109677,21440.5368847333,3.10628713607703,0,345.481484712983,0,24.4707363339105,273.948,13841.136058579,14272.5245177207,3.86610422018559,0,12.1810730339164,0,130.321674993606,0,44.8932932883248,0,67.8841983403977
0.83412,11.1550198,BFA,"Missour - Morocco",FALSE,13.579,1539.16365357952,21.9358482617815,20900303.2519562,297866.88354673,,,,0,13,144.716331866432,13.579,312.464750976256,583.28498189805,4.40232753789327,159.067935659725,13.579,357.655953842968,608.959115804867,4.22749415938231,13.579,283.747263777417,297.866883546731,6.19314491412739,0,17.0432382502902,0,25.2697547749819,0,6.76306059598888,0,40.1148753374299,0,1.21741093839586,0,94.549337707352
1.064238,10.697912,BEN,"Matéri - Benin",TRUE,260.509,1341.27023884108,22.6149908758556,349412968.65025,5891408.65807827,,,,0,17,192.990078161945,260.509,9043.82838531188,10135.8942316256,3.89137820091117,201.648741536233,260.509,9629.01020241951,10863.2754697919,3.81886794621048,0,398.194423314312,0,19.9465344113671,260.509,5320.00510348373,5891.40865807827,5.45706356737301,0,54.5964118069243,0,53.8682648917669,0,15.5624331677209,0,100.89654340373
1.331625,36.164677,DZA,"Chlef - Algeria",TRUE,575.939,13822.566,54.0496792570843,7960954839.474,31129318.2216458,,,,0,10,323.127794292657,575.939,41751.9290716062,42024.2561959793,3.12012719031353,327.996064829581,575.939,42653.4477838826,43107.8504207094,3.10019505544308,0,310.270906368703,0,36.5423670660415,575.939,30987.8912923663,31129.3182216459,3.65654726028148,0,19.9160457836129,0,144.233334898681,0,90.5023854440216,0,67.6608095600364
