lon,lat,iso3c,city_country,city_port,population,gdp_cap,IWI,gdp,wealth,port_locode,port_name,port_status,outflows,ctry,uj_orig,Lj_orig,Cj_orig,Dj_orig,PCj_orig,uj,Lj,Cj,Dj,PCj,Lj_1,Dj_1,Yj_1,Pj_1,Lj_2,Dj_2,Yj_2,Pj_2,Lj_3,Dj_3,Yj_3,Pj_3,Lj_4,Dj_4,Yj_4,Pj_4
-17.446713,14.692814,SEN,"Dakar - Senegal",TRUE,3223.755,2287.6685,70.2606002240275,7374882765.2175,226502961.27521,SNDKR,Dakar,AI,2417.263262,1,474.533607362366,3223.755,404650.58404155,409160.724383371,2.64634750283301,481.04816683772,3223.755,412609.84277866,416954.335907213,2.63092852042702,0,891.702232730981,0,56.8909740018487,0,1618.87320905896,0,42.2227852326986,0,222.007542422808,0,114.016953246105,3223.755,314410.831005575,315941.70196921,3.02973432263103
-17.044529,14.7029696,SEN,"Yaoundé - Cameroon",FALSE,505.227,2302.16270413245,52.2935947198641,1163114756.52073,26420135.9795328,,,,0,1,325.700974966329,505.227,37043.1295604128,52909.2969263412,3.1095387980258,336.989269195817,505.227,38890.7448372394,55981.2861644371,3.0644631463622,0,1392.35041333388,0,19.4312869357932,505.227,23172.4852201775,26420.1359795328,4.76309816206369,0,89.6971915165232,0,76.5572662108034,0,1413.2683941757,0,19.2869482686928
-16.6384888,15.1122198,SEN,"Dzolokpuita - Ghana",FALSE,74.508,2361.8791047779,42.0766985704881,175978888.338792,3135050.65708993,,,,0,1,289.718065921873,74.508,4621.58005205641,6399.35719058868,3.26953540216864,292.896001714202,74.508,4694.1705005355,6836.11780797528,3.25428459386906,74.508,2182.64985760179,3135.05065708993,5.75928092910737,0,470.511744593715,0,12.4043800868544,0,18.3072401475666,0,62.8852602929951,0,99.8400987295929,0,26.9282294546713
-16.4633198,14.7565098,SEN,"Gusau - Nigeria",FALSE,113.325,2297.65604456748,38.0772661124075,260381871.25061,4315106.18218858,,,,0,1,262.326730478679,113.325,6099.50632948531,8943.14360478954,3.41170623024373,277.802094476282,113.325,6619.97075798775,9404.96656371343,3.32891888645193,113.325,2394.82857911699,4315.10618218858,6.59697175572262,0,910.608768292909,0,10.698328449779,0,25.6668109303682,0,63.722952106839,0,163.831909660999,0,25.2221784914516
-16.4205399,14.3423595,SEN,"Chipinge - Zimbabwe",FALSE,18.416,2269.64499576379,37.4244716433748,41797782.2419859,689209.069784391,,,,0,1,156.868949830382,18.416,475.506355390041,2098.52666833703,4.25279073653591,173.395845029508,18.416,548.657863369933,2362.12187641642,4.07408821452596,18.416,380.659763534417,689.20906978439,10.1487625600222,0,322.988324662033,0,11.0176295751459,0,8.66281597689641,0,67.2747418547073,0,66.8472914857659,0,24.2180779345115
-17.033333,20.933297,MRT,"Nouadhibou - Mauritania",TRUE,118,5196.45446473013,38.9206658183864,613181626.838156,4592638.5665696,MRNDB,Nouadhibou,AI,197.0295,2,498.034639904711,118,15870.461028291,16361.0225547005,2.59208987225563,520.797954723483,118,16916.7804841309,17468.9906143527,2.54291359657895,0,153.610952133397,0,27.1177978983155,0,81.0097842737161,0,37.3419310569466,0,21.7222098417229,0,72.1129910781529,118,11260.4076283102,11882.7300665696,3.16729454832156
-16.8981705,21.2914486,MRT,"",FALSE,0,5538.53368337853,18.6296720206833,0,0,,,,0,2,111.469365407681,1e-06,1.58484759332815e-05,885.848806326251,5.49730256603371,143.861372124703,1e-06,2.28169206753112e-05,993.530971111357,4.77336546943505,1e-06,39.7241271828861,1.86296720206833e-05,23.8719673058973,0,19.4724843669255,0,34.0961005175669,0,4.7731649578047,0,68.8671608450609,0,346.708018871596,0,8.08041092005727
-15.978542,18.085588,MRT,"Nouakchott - Mauritania",TRUE,1440.712,3726.39485774327,41.8651880562521,5368661788.28902,60315678.8148991,MRNKC,Nouakchott,AI,334.524,2,325.443319791974,1440.712,105513.321933053,108771.016449389,3.11059363240484,343.112070446554,1440.712,113791.075877914,117766.366590175,3.04090607663388,0,1427.08718165489,0,27.624116184362,0,550.779007933264,0,44.465681706663,0,260.043796474506,0,64.7128304659323,1440.712,70649.4716322291,72693.0668148991,3.92608036684779
-15.67383,23.8871498,ESH,"",FALSE,0,7041.16211331411,31.3978211479454,0,0,,,,0,3,130.358932878422,1e-06,1.98202585777379e-05,1243.80261005332,5.06282812398858,166.865520489093,1e-06,2.82025933722816e-05,1321.00823862862,4.43244135313789,1e-06,313.762843931267,3.13978211479454e-05,9.09483874835093,0,69.5382087937001,0,19.3189719323417,0,4.03191684426766,0,80.2305902690144,0,68.6479233731675,0,19.4438409222763
-16.2439098,15.6356897,SEN,"Banikoara - Benin",FALSE,93.802,2287.6183979327,43.5760615586268,214583180.962884,4087521.72632231,,,,0,1,307.782781874861,93.802,6343.46354886194,7935.48132706693,3.18586971234248,315.861967379731,93.802,6582.67153407529,8687.25887102983,3.15068721170742,93.802,3332.30908847153,4087.52172632231,5.08714401681068,0,334.255838216629,0,16.0622792192619,0,24.0740208197942,0,59.851130511642,0,151.046963993229,0,23.8940997330878
-16.577537,13.453171,GMB,"Banjul - Gambia, The",TRUE,976.753,1827.81084253539,39.6195599018914,1785319723.87897,38698523.9928521,GMBJL,Banjul,AI,184.275,4,327.511400880323,976.753,72184.6681269879,75002.7867191802,3.10216041981345,350.234498096174,976.753,79444.3141562864,83526.5140601646,3.01424740443817,0,2021.50673056795,0,19.3755249638166,0,582.536348754153,0,36.0935466741946,0,151.012333120089,0,70.8899819181194,976.753,43107.6727489384,45516.6989928521,4.19579040327484
-16.2409897,12.7924099,SEN,"Quelimane - Mozambique",FALSE,91.883,2295.74090262069,36.7829540931087,210939561.355497,3379728.1709371,,,,0,1,230.868669417416,91.883,4120.50539698515,7037.74383749702,3.6036924517917,253.705989263853,91.883,4714.90497382993,7450.12831117736,3.4609153971461,91.883,1887.1441406304,3379.72817093711,6.87654552430943,0,93.6891987343554,0,30.8622864349615,0,21.6548772303765,0,64.1940828698961,0,814.534754279061,0,10.4668993845071
-16.076402,14.138908,SEN,"Kaolack - Senegal",TRUE,187.932,2278.7640345833,45.3761239685572,428252682.54731,8527625.72965889,,,,0,1,339.572034560757,187.932,14625.0502202884,16691.3330318282,3.0544521548119,349.54762504285,187.932,15242.6630838168,18773.5395375421,3.01678445385741,187.932,7903.02568890833,8527.62572965889,4.64965430810295,0,374.214097667491,0,21.3676760168114,0,44.7713626092269,0,61.7756334293013,0,487.608033030965,0,18.7189694926821
-15.6096001,13.5730095,GMB,"Bria - Central African Republic",FALSE,70.315,1877.21348753621,26.69126049904,131996266.376109,1876795.98199,,,,0,4,209.087449224681,70.315,2737.04427406947,4143.47570783416,3.76003739693379,213.280722936896,70.315,2815.79677933615,4563.02407325559,3.72817524751305,70.315,1235.26976734129,1876.79598199,7.16542231724832,0,98.7086414689686,0,25.3480825028588,0,18.4190394853426,0,58.6798793175802,0,330.395760692749,0,13.8549660369251
-16.50258,16.034409,SEN,"Saint-Louis - Senegal",TRUE,154.555,2616.38725725041,41.8228350121846,404375732.544337,6463928.26530819,,,,0,1,345.441277779311,154.555,12325.6992901721,12355.9153226029,3.03210169629627,362.389341409716,154.555,13198.5902257417,13223.886304571,2.97049598762406,154.555,6387.74454088389,6463.92826530819,4.27400231841729,0,266.984380185505,0,20.9057424986892,0,30.5301990839386,0,61.8220934058681,0,174.417465469631,0,25.8650628615977
-15.804984,16.512799,MRT,"Rosso - Mauritania",TRUE,159.231,3119.63824766881,37.3432812371366,496743117.814552,5946208.0146705,,,,0,2,271.219711239542,159.231,8988.3596675475,11547.8521508553,3.36330668146297,262.43756014539,159.231,8575.48409027429,13016.1633609182,3.41108867119786,159.231,4693.64004202237,5946.2080146705,5.68040909376302,0,298.576812474725,0,22.5219746818317,0,51.2415237604435,0,54.3655126324027,0,446.923367026773,0,18.4084818424861
-15.883334,14.866839,SEN,"Touba - Senegal",TRUE,597.23,2294.61226912889,41.7294708957356,1370411285.49184,24922091.9030602,,,,0,1,324.448254993079,597.23,43548.3649702655,46777.3310556895,3.11467863521674,339.364298035344,597.23,46436.4039966057,50430.1099803355,3.05525332779517,0,1877.6556560418,0,15.8337654957949,597.23,22001.4520483958,24922.0919030602,4.62558335197685,0,99.2280728386648,0,68.8771082852953,0,526.444383234005,0,29.9030808723691
-15.575626,11.856113,GNB,"Bissau - Guinea-Bissau",TRUE,503.968,1367.43735056953,29.1359647460553,689144666.691825,14683593.88114,GWOXB,Bissau,AI,114.309,5,289.634856741628,503.968,31247.2872932838,32370.7571960246,3.26993792200767,307.432168805658,503.968,34025.9415723271,35150.7352241436,3.18742634898516,0,991.356202040221,0,18.9798379975522,0,193.452076792725,0,42.9655788543168,0,77.132970707855,0,68.0436084202884,503.968,17771.0870969008,18913.02688114,4.48281036368502
-15.65446,14.4204092,SEN,"",FALSE,0,2255.07749469541,31.0289501068166,0,0,,,,0,1,163.82450939695,1e-06,2.74712234145084e-05,667.607469931561,4.50551274171469,198.992546568602,1e-06,3.62687169400802e-05,936.304788405457,4.06666993771085,1e-06,217.179420077627,3.10289501068166e-05,8.44380530577614,0,69.0731338535084,0,14.9724532927913,0,4.09568377760808,0,61.4871481020042,0,30.5508783965629,0,22.513120625775
-15.5441999,14.1010094,SEN,"Debre Zeyit - Ethiopia",FALSE,69.357,2287.6685,33.2273419593215,158665824.1545,2304548.75627266,,,,0,1,288.298097925719,69.357,4271.98370838525,4630.84949714519,3.27642725777403,304.199966475263,69.357,4612.53991570078,5177.74035914147,3.20189705966482,69.357,2036.64699571615,2304.54875627266,5.10528061843369,0,151.843600659037,0,18.6973153663281,0,15.699149656888,0,58.1486234687127,0,111.146263711235,0,21.8539560994566
-13.9632597,17.0292988,MRT,"Fritissa - Morocco",FALSE,15.521,3680.26830758623,24.3321127914395,57121444.4020459,377658.722635932,,,,0,2,82.5828519836386,15.521,160.25567418339,1756.38778741406,5.598790363723,103.711917405036,15.521,221.898588146581,1814.12038133875,5.07799031969255,15.521,320.687197577756,377.658722635932,12.0776963878036,0,55.9339420991731,0,28.9192620353122,0,19.351419874102,0,49.1664106679823,0,164.014795582767,0,16.888201657545
-15.945537,23.708077,ESH,"Ad Dakhla - Morocco",TRUE,106.277,6999.25678566019,41.685948396546,743860013.409608,4430257.53773972,,,,0,3,308.89827644671,106.277,7224.33967549808,7590.57108839984,3.18093397648693,326.400604822426,106.277,7816.12841031775,8162.00334547419,3.10668053592667,106.277,3923.15965574796,4430.25753773972,4.48102110197936,0,149.194117614569,0,22.9783653918879,0,11.1935992929395,0,83.8899829773417,0,147.585739055018,0,23.1032343811585
-14.2343597,16.6268101,MRT,"Had Zraqtane - Morocco",FALSE,10.415,3292.61139046978,26.1754116436426,34292547.6317428,272616.912268538,,,,0,2,138.368467354145,10.415,224.782942977532,463.184654260818,4.48777529385046,151.287603280098,10.415,255.354582654166,476.207487283519,4.31933622975826,10.415,132.446749847805,272.616912268538,8.19019920670028,0,14.1790556980893,0,25.0317648875414,0,3.26561002796673,0,52.1594468220387,0,22.4772615990175,0,19.8812379366838
-13.9593992,16.1129189,SEN,"",FALSE,0,2493.74395561908,28.4022929330901,0,0,,,,0,1,158.72839750363,1e-06,2.62586223686674e-05,148.208953729459,4.57772626999365,115.576913390238,1e-06,1.66893072213416e-05,272.236807760995,5.34123575574301,1e-06,62.146027522767,2.84022929330901e-05,11.1791421295894,0,9.89172807870096,0,28.0207069542745,0,3.18605152331256,0,49.3729169759547,0,13.5885265835663,0,23.9072149634375
-13.203346,27.153675,ESH,"Laâyoune - Morocco",TRUE,217.732,7166.58209753815,43.2531834575172,1560394253.26118,9417602.14057214,,,,0,3,322.805097738491,217.732,15761.6767919481,18503.150409266,3.12146355792945,335.904102635109,217.732,16683.2585410267,19548.4201056168,3.06870209833368,0,912.508985058237,0,14.2033891914249,217.732,7671.21153969882,9417.60214057213,4.89867449388515,0,32.3396253279202,0,75.4471903760666,0,266.853603171093,0,26.2647956892696
-14.2115793,13.3027792,GMB,"Tarkwa - Ghana",FALSE,61.291,1770.86443929862,23.1067512092836,108538052.349052,1416235.8883682,,,,0,4,218.966362852084,61.291,2548.42939575374,2851.70902152703,3.68637530198879,229.102143860514,61.291,2718.60763698476,3123.38666475857,3.61557495699463,61.291,1216.47627080429,1416.2358883682,5.79346548235308,0,46.0420047429145,0,29.7792073947223,0,13.1566674050065,0,55.7079659497226,0,112.288135160092,0,19.0687976974154
-15.3329,12.0479898,GNB,"",FALSE,0,1367.45133840083,18.1778592380354,0,0,,,,0,5,124.412379138076,1e-06,1.85413727688721e-05,563.522914845609,5.18753414247344,150.246731216284,1e-06,2.42773389128454e-05,693.355756169604,4.67018175448013,1e-06,110.533485396654,1.81778592380354e-05,11.6967420202819,0,11.8771861908195,0,35.6824830027895,0,4.09619719369736,0,60.7605125350896,0,107.079508102318,0,11.8838910056921
-13.6763992,13.7135201,SEN,"Khénifra - Morocco",FALSE,78.8,2287.6685,28.5775553827832,180268277.8,2251911.36416331,,,,0,1,255.202512764772,78.8,4077.67764274499,4488.8554582254,3.4522029153225,261.661927062678,78.8,4225.91614191479,4902.34161822792,3.41541844474052,78.8,2193.33589150311,2251.91136416332,5.10614486617167,0,95.6024440648598,0,24.4574519233114,0,22.5251673163221,0,50.3862103075454,0,74.9945766246617,0,27.6140926351316
-14.8474998,12.0527,GNB,"Misséni - Mali",FALSE,54.756,1394.43121299449,18.6469722659379,76353475.4987265,1021033.6133937,,,,0,5,192.184416259024,54.756,1889.58245757718,2151.63707090588,3.89836121682868,190.167588260332,54.756,1861.31812003399,2282.94219281712,3.91602675768398,54.756,757.745192655255,1021.0336133937,6.79722290307513,0,36.9458234515025,0,30.7829639963923,0,11.2193814560977,0,55.8609934952713,0,117.183446269991,0,17.2846255329852
-14.299376,10.940929,GIN,"Boké - Guinea",TRUE,116.27,1146.57562365401,27.5929884020649,133312347.762251,3208236.76150809,,,,0,6,244.712577259373,116.27,5666.48063501095,6027.86131065803,3.51486456523159,255.263086416251,116.27,6018.68463111718,6410.82169401554,3.45185180095387,116.27,2809.98251562749,3208.23676150809,5.2138337797765,0,99.1087658286594,0,27.7621411175437,0,27.3583284378341,0,52.8401708637549,0,140.955812482418,0,23.2791702563401
-13.3009596,12.4839897,GIN,"Kalfou - Cameroon",FALSE,13.99,1189.02775135884,23.7319650851646,16634498.2415102,332010.191541452,,,,0,6,212.593208916359,13.99,557.657919691525,721.096029029828,3.7333376942877,214.47335447302,13.99,564.716750934107,800.026351723001,3.71927624178422,13.99,315.420416091771,332.010191541453,5.92332659030008,0,15.8848776955836,0,26.3948165848273,0,4.177003373682,0,51.4728460554184,0,20.2077420124734,0,23.4019307965741
-13.6282301,10.0732899,GIN,"",FALSE,0,1176.62521698137,26.8793431772143,0,0,,,,0,6,105.714663392073,1e-06,1.46926916904797e-05,404.306700468176,5.65556823363061,117.109692760023,1e-06,1.70063940352137e-05,417.425177326341,5.30461817541359,1e-06,84.5444375301293,2.68793431772143e-05,11.7869360267729,0,15.4436705067147,0,27.5783442003385,0,3.33952386438826,0,59.3063486405847,0,30.0183540173153,0,19.7810805364327
-13.1784992,11.1257696,GIN,"",FALSE,0,1125.84335585272,17.2149499541175,0,0,,,,0,6,184.662901719044,1e-06,3.25960390060205e-05,79.4309254133608,4.24463495728446,182.370268360695,1e-06,3.20194557220123e-05,127.6592490392,4.2429638073451,1e-06,41.7318603388032,1.72149499541175e-05,7.4209854630659,0,3.93642158568086,0,24.1626565001548,0,0.947857032712825,0,49.2406873919315,0,3.538153029922,0,25.4863227248709
-13.0830994,11.79953,GIN,"Bethlehem - South Africa",FALSE,7.461,1135.4866,20.8461390559678,8471865.5226,155533.043496575,,,,0,6,186.649046898726,7.461,246.944401407443,318.316293718208,3.94749590988945,190.769560729982,7.461,254.769104384841,346.669956228236,3.91072623594623,7.461,125.946414901847,155.533043496576,6.48817575990882,0,8.78645696263922,0,24.5645397431748,0,2.15140701755366,0,49.6425695144504,0,8.79434830814454,0,24.5535161416461
-13.8246593,13.3325996,SEN,"",FALSE,0,2141.07888826552,23.0399064754911,0,0,,,,0,1,176.428556864333,1e-06,3.05396266381384e-05,123.710354037955,4.34171917336693,172.352089453597,1e-06,2.95365928351864e-05,182.18222324682,4.36224006994717,1e-06,58.5754217833539,2.30399064754911e-05,7.69316129869369,0,4.73988983440987,0,27.044468362969,0,1.23541351293346,0,52.9732268072653,0,6.53012528466949,0,23.0410258471108
-13.7090893,13.0267,SEN,"",FALSE,0,2287.6685,21.3110377398114,0,0,,,,0,1,175.214940363187,1e-06,3.02399611027997e-05,36.0804749611705,4.35665171161558,176.825903501285,1e-06,3.06379316809095e-05,51.7945516111716,4.30762900687219,1e-06,16.5898093355346,2.13110377398114e-05,7.61131322645672,0,1.29598288506246,0,27.2320753199004,0,0.340077109791495,0,53.1608331508795,0,1.96619416555665,0,22.1089007527326
-11.400062,16.629969,MRT,"Kiffa - Mauritania",TRUE,110.714,3692.66927840016,24.5103198098448,408830186.488796,2713635.54742716,,,,0,2,215.902766461237,110.714,4511.66380535183,5176.28882463443,3.70870303786974,227.41444556207,110.714,4859.20334976521,5602.26471138064,3.6270501191157,110.714,2677.85973631638,2713.63554742716,5.24615909005091,0,57.8616245534884,0,35.689466770004,0,41.1219988707104,0,42.3348731405843,0,82.4629353570073,0,29.8955106104515
-12.2216101,14.4544096,SEN,"Sidi Redouane - Morocco",FALSE,20.065,2223.952360451,30.4239054818422,44623604.1124494,610455.663493164,,,,0,1,191.8399569157,20.065,690.65362661542,1296.93947961466,3.90135958090102,193.874110838648,20.065,701.139163825162,1382.02758415499,3.88376372592526,20.065,606.708033006379,610.455663493164,5.86166888598551,0,23.6930659826673,0,29.6620066217666,0,10.7404681512494,0,44.0554413489131,0,19.354455464534,0,32.8186476760974
-13.712215,9.509116,GIN,"Conakry - Guinea",TRUE,1667.864,2150.37966857964,47.7173443768735,3586540835.55592,79586040.8617897,GNCKY,Conakry,AI,676.60790476,6,353.163031169705,1667.864,137279.239209445,139170.017454439,3.00350975488497,362.260350529226,1667.864,142358.77610136,144479.332645706,2.97094924324834,0,662.737481202491,0,43.8659288005361,0,417.081397134791,0,55.2952321859567,0,152.701433947078,0,91.3853413300634,1667.864,103414.255694206,104620.53333791,3.51162304490096
-13.5013895,9.7055101,GIN,"",FALSE,0,1177.39094451741,47.8186094627483,0,0,,,,0,6,77.505523019027,1e-06,9.43031611960524e-06,2366.64168739806,6.7175213719991,90.2776187522604,1e-06,1.17264203172989e-05,2885.52648967416,6.09543441088575,1e-06,269.758845695595,4.78186094627483e-05,19.9356016831402,0,108.979907756389,0,31.36490507664,0,23.5616617406544,0,67.4550142584841,0,483.972719558906,0,14.8835576440067
-12.1095896,12.6156893,SEN,"Ādēt - Ethiopia",FALSE,11.216,2258.58745277728,29.7127985122773,25332316.87035,333258.748113702,,,,0,1,201.170151011705,11.216,413.164184282618,763.427457617885,3.82275903492202,195.113130840584,11.216,395.508171826429,854.605515014607,3.87317468481714,11.216,333.258742436593,333.258748113702,6.20239115662515,0,21.7478983744682,0,24.2795864629181,0,6.29551224405576,0,45.1267859337966,0,14.4834350793035,0,29.7518616676747
-12.9784594,10.6564093,GIN,"Bawku - Ghana",FALSE,30.311,1134.95099453162,19.5251633744116,34401499.5952479,591827.22704179,,,,0,6,203.855036230581,30.311,1137.91679396713,1299.37706523181,3.80109957603879,223.907126789281,30.311,1301.12719018531,1488.94577722439,3.65129121943386,30.311,547.819512886227,591.82722704179,6.01959348572009,0,41.727329760661,0,21.8110020413624,0,6.9251827153873,0,53.5390059562257,0,37.0889770293711,0,23.1346795452272
-12.854191,10.049703,GIN,"Kindia - Guinea",TRUE,181.126,1272.4382327917,31.7736110513414,230471647.35263,5755027.07528526,,,,0,6,255.824829255671,181.126,9405.42740127475,11705.0316959102,3.44860135225223,262.942450845375,181.126,9781.47319989432,12482.3064794588,3.40828006192779,181.126,4468.52340635618,5755.02707528526,5.69640260058278,0,494.388549183652,0,17.1257063608251,0,51.2016491601931,0,53.2158154193997,0,239.842381664776,0,24.5878033514966
-12.7595196,8.4948397,SLE,"",FALSE,0,1525.79033972791,18.3068914371631,0,0,,,,0,7,81.5008558109268,1e-06,1.01323755140587e-05,2177.58785682944,6.52810860252272,94.7394337415901,1e-06,1.25630478273673e-05,2610.04150378027,5.93732396543467,1e-06,111.297745940232,1.83068914371631e-05,28.7522124630081,0,268.746127499344,0,18.5030509826892,0,24.0144045154903,0,61.8982746767389,0,370.364751395958,0,15.7615755976373
-13.234314,8.484392,SLE,"Freetown - Sierra Leone",TRUE,1035.246,1636.18751938735,51.9455928614036,1693856584.69567,53776467.2273966,SLFNA,Freetown,AI,292.305,7,358.048739066262,1035.246,86898.434267166,88652.6862694416,2.98587620908833,366.746188602996,1035.246,89929.5891512433,91943.9200389555,2.95532060008072,0,320.333919185488,0,50.0685074999284,0,506.458625614389,0,39.819346030039,0,115.966747195057,0,83.2145696636463,1035.246,63529.8389037729,64591.7522273966,3.55530801555833
-11.6982899,26.7553997,ESH,"Malakal - South Sudan",FALSE,57.035,6390.125709182,25.1492270818786,364460819.823195,1434386.16661495,,,,0,3,229.832009967466,57.035,2541.35096185589,3251.44550749751,3.61064971233059,233.046156766881,57.035,2592.27441909159,3446.00123684712,3.58922313689653,57.035,1001.98572851745,1434.38616661495,6.65621596612717,0,291.409839389458,0,12.3425833067707,0,9.62889795363664,0,67.9000174432321,0,47.2617175710009,0,30.6480907049597
-11.1610899,28.4597492,MAR,"Kukawa - Nigeria",FALSE,73.209,6295.70213058728,39.2491173607986,460902057.278165,2873388.6328667,,,,0,8,296.395785146817,73.209,4691.26352034549,5716.65664673384,3.23776042365087,313.050565622289,73.209,5072.33165650797,6093.16804543118,3.16278278444431,73.209,2415.75132735482,2873.3886328667,5.02301910731218,0,272.243588485776,0,14.9627739177854,0,13.8800040994614,0,66.2668230744969,0,75.3955427328939,0,28.4327004260835
-12.283231,11.316916,GIN,"Labé - Guinea",TRUE,127.747,1146.98337636056,35.8287216279254,146523685.379933,4577011.70180259,,,,0,6,283.135335129783,127.747,7667.94504080854,9017.91476302286,3.30189935695854,289.774334039564,127.747,7926.08578656423,9637.9359214823,3.26926329487543,127.747,3928.93284039113,4577.01170180259,5.12040853574389,0,277.970926176273,0,19.2505095258105,0,52.4224109835308,0,44.3285393757038,0,134.073179998157,0,27.7185789320714
-12.08277,10.383497,GIN,"Mamou - Guinea",TRUE,376.269,1135.61305456118,26.8662514052221,427295988.426679,10108937.5499915,,,,0,6,250.615038343586,376.269,18972.7849938826,22442.2817327648,3.47914494177414,260.072195021494,376.269,20003.7870056832,23829.8614672793,3.42435026644692,0,1417.74148899587,0,14.0391371057903,376.269,7762.44963170519,10108.9375499915,5.9998382456782,0,157.732473717887,0,42.0899473951847,0,257.679715336915,0,32.9305378478954
-11.74007,7.956451,SLE,"Bo - Sierra Leone",TRUE,249.807,1496.9442,25.5146367561591,373947139.7694,6373734.86414584,,,,0,7,231.290573436873,249.807,11231.8859753278,13981.0799671902,3.60087371984612,239.212373061827,249.807,11785.4603855643,14473.8863905804,3.54927566374397,0,656.269861416269,0,16.668291271124,249.807,4424.99029214663,6373.73486414584,6.419129683545,0,48.2514944448661,0,61.4719411733069,0,450.406026758877,0,20.1201036913103
-10.971644,8.643743,SLE,"Koidu - Sierra Leone",TRUE,300.387,1517.04766003136,22.0121301485176,455701395.453841,6612157.73892276,,,,0,7,225.623061095447,300.387,13035.7838375197,14308.0663953082,3.63936413416188,241.335787468246,300.387,14351.7898196991,15995.2684526378,3.53585816904007,0,740.412513534891,0,16.4343952604129,300.387,5573.35120611695,6612.15773892276,5.99007689046531,0,81.9947041804567,0,49.3853006339875,0,241.861794257844,0,28.7545759918202
-10.8695793,12.6057196,MLI,"Kawambwa - Zambia",FALSE,10.832,2285.3071,24.4574447781555,24754446.5072,264923.041836981,,,,0,9,72.5544086953796,10.832,92.9564245509576,976.588828027387,5.91821989386778,72.2481756071348,10.832,92.3964395579025,1292.07188561143,5.92895766365732,10.832,264.923107328641,264.92304183698,13.0936813152519,0,50.199910078762,0,30.0794726880337,0,49.773421930933,0,30.2080671733462,0,30.5668017711595,0,38.5475418499135
-11.432892,14.449705,MLI,"Kayes - Mali",TRUE,174.373,2363.01954108217,36.6490483544719,412046806.437122,6390604.50871433,,,,0,9,273.510448163419,174.373,9962.08313997824,10826.8744786998,3.35120533900651,290.675381432456,174.373,10867.0956661926,11581.9948775879,3.26491621432851,174.373,6272.40562537476,6390.60450871433,4.43656303991171,0,106.026398148917,0,34.1237476464903,0,84.1329082758289,0,38.3072322656487,0,80.1355345981738,0,39.2510389329775
-11.8790693,12.8341799,SEN,"",FALSE,0,2287.6685,30.2988245952444,0,0,,,,0,1,109.033414737547,1e-06,1.53560336315504e-05,346.362645788099,5.56254859448625,135.931168807569,1e-06,2.1041575324003e-05,379.928678902503,4.91256065448688,1e-06,118.19889081379,3.02988245952444e-05,8.80749203476142,0,11.4185633197093,0,28.3369586075102,0,5.80083979115526,0,39.7569937375582,0,8.02134659070501,0,33.8092338566203
-11.5879192,10.1457901,GIN,"",FALSE,0,1178.37874359219,21.1600028678453,0,0,,,,0,6,198.345867028909,1e-06,3.61004558352296e-05,228.649857951583,4.0978969159907,222.782271998788,1e-06,4.26181693093592e-05,199.084284295277,3.85164386732722,1e-06,22.3313638583649,2.11600028678453e-05,11.5002421318812,0,42.248257429175,0,8.36103812305317,0,1.4947320884045,0,44.4511471540738,0,2.7611055635986,0,32.7056760726023
-9.299825,10.383689,GIN,"Kankan - Guinea",TRUE,198.013,1153.17201735961,31.112356240142,228343050.673428,6160650.99617924,,,,0,6,281.708273458447,198.013,11800.1363930016,13364.3254413758,3.3090575385603,294.814858959322,198.013,12592.1816371503,14201.0328663941,3.2451900302341,198.013,5897.18275130332,6160.65099617924,5.03590821306732,0,464.119748743838,0,17.950852370599,0,136.613244829535,0,33.086718499095,0,83.6011149141716,0,42.2954904671884
-11.3188601,7.3100801,SLE,"",FALSE,0,1344.94827331861,15.4784810906556,0,0,,,,0,7,114.758913134559,1e-06,1.65208217073354e-05,1684.92286528297,5.41296135750187,145.835631362656,1e-06,2.32655533752499e-05,2093.43115708444,4.74066814595987,1e-06,273.010354984369,1.54784810906556e-05,13.1274186776014,0,149.385083332982,0,17.7466048763674,0,14.0189255150318,0,57.9310681251623,0,175.946940103171,0,16.3522695528329
-11.1890097,7.8601699,SLE,"Khartoum North - Sudan",FALSE,188.463,1485.97140072144,26.5325861186727,280050628.094164,5000410.77768342,,,,0,7,243.567849686502,188.463,9123.52770463293,11455.3018782926,3.52193476435943,253.839309235051,188.463,9678.09357667891,12209.2886404626,3.46013625387383,188.463,3067.49974033018,5000.41077768341,6.90313098156118,0,1027.7560587054,0,11.9259602778011,0,54.6741148188178,0,51.7067810597278,0,245.16691450944,0,24.4178516562392
-2.216954,31.616774,DZA,"Béchar - Algeria",TRUE,179.119,13194.7313701357,47.9612505819522,2363427088.28733,8590771.24298869,,,,0,10,332.630340218649,179.119,13533.9298049641,14016.4497766955,3.08160973059487,341.795481711586,179.119,14069.7839994809,14575.1771455985,3.0459206386598,179.119,8461.44900578046,8590.7712429887,3.99763495217454,0,214.25871590726,0,25.1221182808782,0,31.7690322611276,0,65.2414362594819,0,71.6999476927938,0,43.4276257030338
-10.0955496,9.1883497,GIN,"Mongu - Zambia",FALSE,66.815,1121.84293071791,25.8338628216588,74955935.4159169,1726089.54442914,,,,0,6,220.625893446704,66.815,2808.24029751785,3889.03068065206,3.67446596141253,239.328950643798,66.815,3154.41045151346,4204.95503223493,3.54853462933934,66.815,1085.73862938912,1726.08954442913,6.98340259932667,0,389.715865620519,0,11.6561648840804,0,33.2022209081221,0,39.9343077263996,0,40.8540468103061,0,36.0008028654882
-10.3059597,14.7111797,MLI,"Ikot Abasi - Nigeria",FALSE,18.328,2285.3071,26.3038363987401,41885108.5288,482096.713516109,,,,0,9,150.634963460112,18.328,446.598473995297,1054.33213048046,4.32734651865367,160.531709511257,18.328,489.097980046211,1276.29732951999,4.21093058522638,18.328,523.542175030802,482.096713516109,6.57473381118745,0,17.2706488550894,0,36.1992596927327,0,27.721167296737,0,28.5725010793978,0,11.7194844483203,0,43.9440179946727
-9.6050797,16.6627998,MRT,"Abū Ḩamad - Sudan",FALSE,24.199,3760.08548182476,19.5791653774687,90990308.5746773,473796.222969366,,,,0,2,132.634844174603,24.199,491.637578660345,1266.98120659729,4.56991397042813,134.302037591134,24.199,500.489566704224,1470.67902291528,4.5455143886314,24.199,473.796238583321,473.796222969365,8.00840780404712,0,43.3434127955328,0,26.4777108324659,0,27.696288625738,0,33.1231170679563,0,22.4322947274259,0,36.8048572008543
-10.801398,6.313299,LBR,"Monrovia - Liberia",TRUE,1110.25,967.725459213548,41.2600904571139,1074417191.09184,45809015.4300107,LRMLW,Monrovia,AI,467.27200002,11,350.107971403264,1110.25,90255.7070521581,93357.226111046,3.01471421144367,362.530432067182,1110.25,94865.1662470114,98944.283181891,2.97000047253025,0,844.265398305299,0,32.1523245182648,0,645.477038169182,0,36.7715107413927,0,163.116747375083,0,73.1480234684877,1110.25,61167.1328807713,63098.0794307507,3.77739855293605
-10.132382,8.567176,GIN,"Guéckédou - Guinea",TRUE,221.715,1099.39487496181,19.6079430369351,243752334.702158,4347375.09043406,,,,0,6,229.289575502122,221.715,9845.82854437545,10655.8892496115,3.61430799293852,244.557408973312,221.715,10795.61253733,11522.974240575,3.5158201596151,0,807.596932341329,0,13.2804141043664,221.715,3423.19270316224,4347.37509043407,6.45049842418974,0,66.6415860660072,0,46.2313191991162,0,150.194361704597,0,30.7951364854066
-10.066664,28.983267,MAR,"Guelmim - Morocco",TRUE,118.318,6238.3237,43.0273185293868,738105983.5366,5090906.27375998,,,,0,8,352.600866806254,118.318,9716.42890524883,9925.17024216956,3.0055610842347,367.133402929966,118.318,10293.5355547396,10537.0395639931,2.95398435842848,118.318,5090.90626578511,5090.90627375999,4.24981422613066,0,209.044001143273,0,20.9724246377682,0,23.1381833748043,0,63.0380644077173,0,144.743168995515,0,25.203941266797
-10.4223099,8.6459198,GIN,"",FALSE,0,1227.60079775481,18.0701264188066,0,0,,,,0,6,202.89582681076,1e-06,3.7289284975341e-05,204.546616424269,4.0526594616165,231.828583827034,1e-06,4.51117402723934e-05,163.324482572796,3.77917193354186,1e-06,15.4581634593339,1.80701264188066e-05,12.2841000119729,0,39.3533826463898,0,7.69894557156917,0,1.13997520492742,0,45.2350051842677,0,2.271760268883,0,32.0435832530659
-9.4627399,13.0295696,MLI,"Ghardaïa - Algeria",FALSE,57.187,2269.38964058337,35.3665191502151,129779585.376041,2022505.13064335,,,,0,9,107.229970936845,57.187,857.489120053991,4382.91351877166,5.00590871576353,103.380716089284,57.187,813.856219363761,4576.45689534025,5.08495607057653,57.187,748.675122975023,2022.50513064335,12.572023724502,0,60.967868590315,0,44.0556271496245,0,672.368441864973,0,13.2662516903399,0,42.8936719390035,0,52.5236963103766
-9.4801102,7.0074396,LBR,"Zuwārah - Libya",FALSE,34.046,786.9167,15.4325262289124,26791365.9682,525415.787989552,,,,0,11,89.5724969474748,34.046,394.790482298878,2046.86362485329,5.40719640811511,104.989166731946,34.046,495.330386680746,2664.84916612584,5.05142204578186,34.046,349.078316603361,525.415787989552,13.9568861115917,0,197.057092039835,0,18.5760741765096,0,22.517682539609,0,54.9525851026064,0,200.379789975403,0,18.4214161180361
-9.544252,15.181505,MLI,"Nioro - Mali",TRUE,116.376,2301.37386339613,31.0032048103123,267824684.726588,3608028.96300491,,,,0,9,257.034979136943,116.376,6083.99816086281,6568.03429981634,3.44163351159081,266.084888007589,116.376,6392.30690595203,7072.14393687074,3.39097086690376,116.376,3463.08345228372,3608.0289630049,4.84582945206993,0,68.4396345805499,0,34.470355640648,0,112.562576387382,0,26.8783492278472,0,40.5220694314521,0,44.7975019998231
-9.5260296,14.5371294,MLI,"Rundu - Namibia",FALSE,52.399,2258.05105134941,26.6645356098404,118319617.039658,1397195.00142003,,,,0,9,126.378558917154,52.399,993.557886884874,2779.09169226685,4.66553298940054,119.244821066151,52.399,914.418040642312,3062.99318793088,4.78316961263634,52.399,819.761475684006,1397.19500142003,9.24581168755619,0,42.2436316274928,0,40.7294152163199,0,218.752651249889,0,17.8983144625615,0,29.4093483540024,0,48.8141911770454
-9.4735699,8.5450697,GIN,"Manzini - Eswatini",FALSE,43.102,1096.84397846855,22.3680314344588,47276169.1599514,964106.890888042,,,,0,6,208.31459760941,43.102,1668.91319855669,2255.48765932283,3.76600957538264,211.715962557518,43.102,1707.97762404468,2442.73215606235,3.73995943344929,43.102,548.243448832922,964.106890888043,7.89438113583719,0,265.492476330141,0,11.344326220076,0,20.4362861860008,0,40.888749746203,0,26.9860908990288,0,35.5823665483475
-9.716798,29.717562,MAR,"Tiznit - Morocco",TRUE,108.998,6238.3237,44.8746618567915,679964806.6526,4891248.39306656,,,,0,8,270.882058030273,108.998,6141.83972432254,9854.12579115456,3.36510276269107,271.723688572921,108.998,6169.11885751618,10700.8986362528,3.36063180716892,108.998,3489.73891985167,4891.24839306656,5.88483905630404,0,197.192279366244,0,24.7563210101518,0,43.8500586207339,0,52.4983882995952,0,562.006734167788,0,14.6642649567049
-9.599649,30.433289,MAR,"Agadir - Morocco",TRUE,1070.86,6374.8461531175,58.0517269919173,6826567751.5274,62165272.3665645,MAAGA,Agadir,AI,593.66057139,8,453.802498577817,1070.86,126106.194821106,130659.430693612,2.69749841439801,472.629274454504,1070.86,133646.024127559,138716.883761475,2.65091200235184,0,1401.50947628407,0,26.373146923282,0,610.872711825281,0,39.9470405952952,0,572.010092327767,0,41.2817527010137,1070.86,82012.2696703281,84130.7135079945,3.44762925967679
-5.986109,14.249942,MLI,"Niono - Mali",TRUE,128.619,2285.3071,33.8806562465947,293933913.8949,4357696.12578076,,,,0,9,284.123757465438,128.619,7758.81720490986,8750.7959055969,3.29697154326567,292.16488336924,128.619,8074.40391401336,9434.70470943392,3.25777220384859,128.619,3826.45439573547,4357.69612578076,5.11548244134702,0,318.379485675122,0,17.7342297797511,0,107.558050682443,0,30.5114894577809,0,49.8415588791739,0,44.8217761348627
-8.8621101,31.2670689,MAR,"Dayr Mawās - Egypt",FALSE,41.579,6727.27118707371,36.8417125347524,279713208.687338,1531841.56548247,,,,0,8,201.516285240392,41.579,1535.41326281096,6688.79721344278,3.81994352677584,227.440448450163,41.579,1825.18759343236,7529.93727553237,3.62687239709005,41.579,1214.71317025726,1531.84156548247,9.03006933930654,0,328.501852641678,0,17.3643705121201,0,283.279606496185,0,18.6990826168121,0,287.877168501433,0,18.5491641478026
-9.551909,13.355745,MLI,"Balandougou - Mali",TRUE,1631.251,2258.59960670909,27.9096560141396,3684342867.04381,45527654.2827213,,,,0,9,217.350143686944,1631.251,67112.0182954334,68474.377871045,3.69809840043455,233.624031083449,1631.251,74404.096082777,76595.3387288592,3.58541556332889,0,1269.85054184732,0,27.8460991777473,0,279.728681129462,0,59.3297025743482,1631.251,43965.3937533834,45527.6542827212,4.73244076061113,0,216.658124699355,0,67.4144786410204
-9.1929197,14.5529394,MLI,"Cahama - Angola",FALSE,43.276,2285.3071,27.938885275401,98898950.0596,1209083.19917825,,,,0,9,103.219030080074,43.276,614.506379007646,2711.68931969864,5.08836823529848,113.905247564843,43.276,707.369509818304,2942.60633846364,4.87800847427817,43.276,712.209083228911,1209.08319917825,9.91527762589563,0,44.7866159275088,0,39.5398038410878,0,242.111121350898,0,17.0059643290346,0,28.157341883762,0,49.8669502097065
-8.816789,7.750291,GIN,"N’Zérékoré - Guinea",TRUE,195.027,1164.86349690503,28.8972795876179,227179833.210898,5635749.74613435,,,,0,6,264.661922583199,195.027,10630.7070658735,11549.5183528939,3.39877247685777,273.044204412806,195.027,11114.9407174104,12509.430253263,3.35365661648291,195.027,4848.58273989117,5635.74974613436,5.38678884384555,0,496.238422817209,0,16.8380643135002,0,65.398326970176,0,46.3824878627948,0,140.433549733721,0,31.6520557148904
-8.1639996,7.2641697,CIV,"",FALSE,0,3149.8581711304,28.2093242708592,0,0,,,,0,12,149.163554496237,1e-06,2.40276927124159e-05,532.063374086698,4.72411449317784,173.561752739128,1e-06,2.98331866648372e-05,599.240511301005,4.34724818807054,1e-06,78.976994368071,2.82093242708592e-05,11.9747020240457,0,90.1375451623686,0,11.2088782741562,0,4.03611540403195,0,52.9703988162101,0,16.7232031846152,0,26.0228757361309
-7.5722198,9.5049696,CIV,"Bariadi - Tanzania",FALSE,86.279,3289.988,39.2309187365728,283856874.652,3384804.43767277,,,,0,12,339.736930825919,86.279,6718.97363008928,7106.12603056555,3.05381670342847,354.612963467012,86.279,7143.17503491748,7697.08825148934,2.99824045334225,86.279,3384.80440769401,3384.80443767276,4.52129561311948,0,264.719775623045,0,16.1672628705108,0,51.7075513651999,0,36.5807586359727,0,37.1243026948253,0,43.1718383047698
-8.002662,12.639193,MLI,"Bamako - Mali",TRUE,4552.105,2286.20141850059,45.3510168389582,10407028908.1636,206442590.507706,,,,0,9,309.559220861784,4552.105,310382.500410761,321011.598012195,3.17802148213038,317.372274272023,4552.105,321633.92804878,332864.326494553,3.14425268429748,0,3325.1084561845,0,31.4592351417304,0,2015.35009005256,0,40.4087873559744,4552.105,201587.047272938,206442.590507706,4.04035713934125,0,645.316883512104,0,71.4109077031912
-9.166742,11.416769,GIN,"Siguiri - Guinea",TRUE,183.875,1135.4866,32.4018248026735,208787598.575,5957885.53559159,,,,0,6,216.165801014417,183.875,7506.06417214326,12502.8838313834,3.70676829502021,221.821941277459,183.875,7788.20357024439,13104.3365560055,3.66596178304386,183.875,4617.25725510252,5957.88553559159,6.17594494785441,0,332.715051168465,0,23.0069595428324,0,377.163575681948,0,21.6087965416766,0,78.5455589643713,0,47.3515975510046
-7.4854398,11.42488,MLI,"Souk Ahras - Algeria",FALSE,95.222,2285.3071,32.0476990885096,217611512.6762,3051646.00260606,,,,0,9,188.337965540647,95.222,3192.47977929315,7934.66569332895,3.93228565873239,192.858581725764,95.222,3302.50895240439,8395.6362718623,3.89251508986489,95.222,2248.95292239541,3051.64600260606,7.52085005245975,0,468.927617411442,0,16.4704022866447,0,226.105871447145,0,23.7192631110689,0,56.445536599795,0,47.4725226542915
-9.233368,32.283274,MAR,"Safi - Morocco",TRUE,395.857,6780.39513730578,50.0776184680819,2684066877.86845,19823575.8139195,,,,0,8,384.896310525097,395.857,36843.9468542881,39998.616564371,2.89476938015327,411.735818523661,395.857,40568.3584679626,44493.0919511308,2.8123384452449,0,1174.07064910689,0,17.3127780684631,395.857,17576.028961383,19823.5758139195,4.47459257376245,0,483.377239142011,0,26.9817913221144,0,488.793912752299,0,26.8318725988639
-8.500158,33.233179,MAR,"El Jadid - Morocco",TRUE,467.017,7268.41013196153,54.5650407804857,3394471094.59828,25482801.6501801,,,,0,8,351.449776242282,467.017,38173.3106409888,51810.4790961006,3.00977599822792,372.186453115024,467.017,41431.1877865238,56162.8369759816,2.93672923893093,0,1082.34982214765,0,21.1545894295269,467.017,22407.0827109518,25482.8016501801,4.64938775195795,0,459.64837128124,0,32.4620216665276,0,1086.26569772336,0,21.1164249494138
-8.3035603,32.2542381,MAR,"Funtua - Nigeria",FALSE,139.815,6725.98050128035,37.1479411148004,940392963.786512,5193839.38696582,,,,0,8,328.302364289191,139.815,10368.3710597796,13820.7511253872,3.09895511984837,345.564480914799,139.815,11155.8717247177,15086.7232123232,3.03163835149647,139.815,3025.32868281101,5193.83938696582,6.7699984797343,0,1006.63302421244,0,11.7365179343844,0,394.27421990585,0,18.753212006692,0,263.777059592398,0,22.9274810259424
-8.2107401,31.9539585,MAR,"Ouled Fayet - Algeria",FALSE,38.613,6720.5864,38.3004049757337,259502002.6632,1478893.53732801,,,,0,8,257.113465122864,38.613,2019.52210278507,4459.61181379562,3.44118322649936,265.809801133259,38.613,2117.80512609342,5405.58776938254,3.39247442107309,38.613,726.087227451544,1478.89353732801,9.25643262952224,0,463.092400971995,0,11.5905545702363,0,232.338484986781,0,16.363547710635,0,96.3236515916202,0,25.4139151221861
-8.008349,31.630015,MAR,"Marrakech - Morocco",TRUE,1132.514,6720.5864,58.6646890573813,7611158186.2096,66438581.6631311,,,,0,8,406.865513402369,1132.514,114106.440306316,122474.471351239,2.82671707401633,429.120496434351,1132.514,123126.262943909,132771.764423089,2.76293189472805,0,1980.04780462771,0,22.6248237886758,0,1627.02270867664,0,24.9589456880909,1132.514,61880.758267142,66438.5816631311,4.04711206088987,0,947.782056480707,0,32.7015849476948
-7.6750998,8.2902699,CIV,"Krugersdorp - South Africa",FALSE,55.013,3186.43542100719,24.1835686231057,175295371.815869,1330410.66066291,,,,0,12,208.189984274856,55.013,2128.28806769382,3132.88873477168,3.76697547613419,214.46506303874,55.013,2220.51800445217,3369.69901937497,3.71933781914067,55.013,808.578365094138,1330.41066066291,7.59276787457442,0,351.568227932284,0,11.5147992718387,0,27.6503680180425,0,41.0592229582358,0,31.4169422697212,0,38.51937456561
-7.583329,33.53329,MAR,"Casablanca - Morocco",TRUE,4219.891,9656.635,70.9405986874118,40749947126.785,299361593.935621,MACAS,Casablanca,AI,2434.0279715,8,499.125411377866,4219.891,569332.660742258,588781.169107015,2.58966063887669,506.175629834333,4219.891,580855.778212635,602889.752302971,2.57414016598202,0,3147.23951026138,0,35.627573514246,0,2493.01747722189,0,40.0302664325991,0,2643.86546556473,0,38.8715148932266,4219.891,383174.413195492,389420.628881121,3.22888733637161
-7.9837198,32.2262306,MAR,"Qillīn - Egypt",FALSE,132.168,6742.80992422409,43.2105007592418,891183702.06485,5711045.46434747,,,,0,8,275.963578716814,132.168,7647.8088086568,17069.8961593352,3.33840563411674,294.338315964821,132.168,8385.51858506906,18162.6188864554,3.24744073136529,132.168,2488.08372124179,5711.04546434747,8.77400694055233,0,1014.50481059072,0,13.7405277406678,0,889.233847600247,0,14.6764992262737,0,539.017458019944,0,18.8507681910166
-7.59407,7.3604698,CIV,"Pikine - Senegal",FALSE,241.969,3331.50044575431,31.6783867627629,806119831.358724,7665187.56659899,,,,0,12,266.159231093044,241.969,13296.1908673673,14421.5016605722,3.39056490565861,280.552093304053,241.969,14335.1254630896,15627.8454500925,3.31489506593167,0,515.355319739498,0,18.2543325253387,241.969,6637.19532593869,7665.18756659898,5.0865935886991,0,64.19606690027,0,51.7207875766795,0,164.575901069911,0,32.3025062150412
-7.408295,32.048099,MAR,"El Kelaa des Srarhna - Morocco",TRUE,223.364,6725.77294838356,38.3125407240053,1502295548.84275,8557642.34627671,,,,0,8,296.02750218408,223.364,14287.8590521039,18922.5838826658,3.23948610954803,325.334459414292,223.364,16350.6768955779,21869.0743483719,3.11103966492732,0,605.48884435976,0,18.69681694106,223.364,6489.68705394239,8557.64234627672,5.7109567516192,0,714.358123201768,0,17.2132451940041,0,255.654683573273,0,28.7735781709791
-6.26652,13.449454,MLI,"Ségou - Mali",TRUE,240.936,2285.3071,34.5068161376911,550612751.4456,8313934.25295074,,,,0,9,236.702043936539,240.936,11196.9169486899,20003.1136194981,3.56535917632655,244.302685607424,240.936,11714.0577646784,21118.9387026082,3.51739074181205,0,1243.84961601948,0,14.4934815752616,240.936,5562.97742759919,8313.93425295074,6.85335158147158,0,678.02494659051,0,19.6306113301174,0,88.94434721269,0,54.19977523674
-7.350092,6.733084,CIV,"Duekoué - Côte d’Ivoire",TRUE,284.596,3302.72447034709,26.4823462879371,939942173.3629,7536769.82416175,,,,0,12,248.388738311099,284.596,14168.5497821608,14190.3706025911,3.49247521894218,262.488209399371,284.596,15331.3197567258,15339.5370053701,3.41080657008129,0,282.538850443789,0,25.1318309609088,284.596,7511.82260741306,7536.76982416175,4.87405644907953,0,51.9704658216207,0,58.5982859677516,0,173.295285735297,0,32.090009286676
-6.841593,34.020894,MAR,"Rabat - Morocco",TRUE,1891.455,7891.94605770258,67.9275739994679,14927260830.5718,128481949.479164,,,,0,8,410.491962753979,1891.455,193004.746156751,212597.096436348,2.81598750104132,441.81782814247,1891.455,214385.0659309,237814.738235457,2.72861813196582,0,1485.4460597617,0,34.5250010689176,0,2799.23024603055,0,25.1502804764119,1891.455,122560.761858276,128481.949479164,3.80089977285645,0,2127.65362421841,0,28.8477323490433
-6.5227799,32.8590393,MAR,"Randburg - South Africa",FALSE,178.623,9675.0688844993,45.6605596927238,1728189829.35592,8156026.1539934,,,,0,8,261.010741215967,178.623,9545.22345839777,20941.3083382941,3.41906769468108,259.915028909397,178.623,9488.0314885183,24930.8117620396,3.42523753301574,178.623,3444.50323516454,8156.0261539934,9.21500564365708,0,1577.28565635534,0,13.6176988949794,0,1027.81268741888,0,16.8694885939156,0,752.430954340392,0,19.7163072464845
-6.4903197,9.5225697,CIV,"Kikuyu - Kenya",FALSE,92.792,3289.988,40.8585933304043,305284566.496,3791350.59231487,,,,0,12,306.988856092438,92.792,6252.05000288367,7738.26732235948,3.18939819470032,308.608735139294,92.792,6299.23182120492,8160.55775211386,3.18221266205371,92.792,2597.50562479315,3791.35059231488,5.64041257429684,0,676.740481934059,0,11.0504011129131,0,51.6413585575793,0,40.0027909480192,0,38.0645468383505,0,46.5938707341282
-5.666994,11.316457,MLI,"Sikasso - Mali",TRUE,315.73,2285.3071,34.5993127669643,721540010.683,10924041.0199136,,,,0,9,294.237167352626,315.73,20021.9427204686,22362.4722836181,3.24791912265658,303.266224153754,315.73,20905.3949244854,23333.5950468663,3.20611840863805,0,1083.04887888041,0,14.8814879629954,315.73,9285.40287929034,10924.0410199136,5.08241366349927,0,220.530871429786,0,32.9788638291838,0,74.5216902320309,0,56.7321233333676
-6.36073,32.339077,MAR,"Béni Mellal - Morocco",TRUE,559.315,9578.10692231839,51.2521768542167,5357178873.25651,28666111.2972162,,,,0,8,388.277607128556,559.315,52712.164639703,54374.0183928683,2.88393853605912,405.295821191665,559.315,56043.4451215817,57492.6552135224,2.83140378430593,0,747.313559016943,0,24.8345651792606,559.315,27630.592372725,28666.1112972162,4.08425541358123,0,729.098846161648,0,25.1428663025097,0,369.134371205916,0,35.3358667709141
-6.9510198,6.7373199,CIV,"",FALSE,0,3289.988,26.0983083598812,0,0,,,,0,12,211.983702374071,1e-06,3.96980206836146e-05,90.3235925504618,3.96699855757064,239.564409334622,1e-06,4.72774798160483e-05,68.7813934681776,3.72064630874496,1e-06,1.66090826351594,2.60983083598812e-05,23.9431390046664,0,29.6310969830874,0,5.66865425409741,0,0.269922608576648,0,59.3928855534168,0,1.08515236596976,0,29.6216040550243
-6.59448,6.48704,CIV,"",FALSE,0,3289.988,30.2351215412896,0,0,,,,0,12,164.979782950319,1e-06,2.7748389963643e-05,288.963924203318,4.48965199395552,196.38164023574,1e-06,3.55908213760516e-05,340.868475925515,4.09277349271562,1e-06,9.09801605733177,3.02351215412896e-05,25.0517336694322,0,124.312666793324,0,6.77724882961768,0,1.80761929909381,0,56.2027637403793,0,8.71604936435854,0,25.5947737701939
-6.450154,6.883246,CIV,"Daloa - Côte d’Ivoire",TRUE,466.205,3289.988,31.5809428623859,1533808855.54,14723193.4671586,,,,0,12,275.538644061312,466.205,26917.3038911117,27214.9383604937,3.34061115094107,290.405237548352,466.205,29015.7841401851,29382.4530197111,3.26621749133542,0,594.311951850224,0,22.965816660882,466.205,14242.4905869545,14723.1934671586,4.69133185133746,0,86.4673638629824,0,60.2092221620915,0,338.335667891223,0,30.4379383834846
-5.51861,33.8304405,MAR,"Ibadan - Nigeria",FALSE,713.763,5725.32862494757,52.8535171786926,4086527735.32846,37724884.9820151,,,,0,8,373.305115350155,713.763,63593.2025302922,72389.0986321481,2.93295443459611,392.066493267484,713.763,68207.6755759335,76831.6987052003,2.87196107898561,0,477.998019826772,0,36.4112609449417,713.763,34840.1887229195,37724.8849820152,4.2648967158563,0,2087.45412007438,0,17.4236965261308,0,527.998444177797,0,34.6443523077052
-6.633194,4.750108,CIV,"San-Pédro - Côte d’Ivoire",TRUE,390.654,3573.43717303907,31.4114659961222,1395977525.39641,12271014.8372491,CISPY,San-Pdro,AI,2312.50202864,12,821.743186997909,390.654,107443.615393551,117607.187365102,2.09144194648117,826.370241656634,390.654,108308.930395421,120362.283612167,2.08641510425555,0,135.419937738383,0,62.2020392642066,0,301.185443090895,0,41.7089194690171,0,60.6560160187005,0,92.941352323618,390.654,96194.7464351526,97833.5898969291,2.3338355471589
-6.600167,5.783308,CIV,"Soubré - Côte d’Ivoire",TRUE,310.768,3216.67761193904,26.8544558285881,999640468.107073,8345505.52893867,,,,0,12,192.150576565513,310.768,10721.6388325451,17344.3899176568,3.89865541533772,194.458455979205,310.768,10906.0759564503,19073.674141113,3.87875767707971,0,390.130452323421,0,27.1209502529788,310.768,6532.46440789347,8345.50552893867,6.62782909769543,0,85.7153976619962,0,57.860263349104,0,799.409431326285,0,18.9463342033662
-4.034,5.317569,CIV,"Abidjan - Côte d’Ivoire",TRUE,9022.419,3473.84868051719,53.7001420652593,31342518338.2232,484505182.072294,CIABJ,Abidjan,AI,3248.84543344,12,359.760296212732,9022.419,762517.952131237,768607.464626374,2.9797799330975,368.945264483277,9022.419,790480.361077202,796987.686247394,2.94775841335116,0,1919.73384547325,0,60.0616394376384,0,1928.82531515974,0,59.9199227312337,0,839.95221026859,0,90.8009525942653,9022.419,602217.249732664,604712.463109575,3.39110391086287
-5.93669,6.13259,CIV,"Gagnoa - Côte d’Ivoire",TRUE,277.044,3292.32142843847,37.4502145097444,912117897.820308,10375357.2286376,,,,0,12,277.25852924578,277.044,16138.5290595991,18595.7518350731,3.33171432320474,288.687743741165,277.044,17097.2394082838,20016.628336675,3.27453127352189,0,385.597086569,0,23.5927047884731,277.044,8796.32444544871,10375.3572286376,4.93962506028311,0,72.707220269146,0,54.3320179428471,0,381.340153503761,0,23.7240230269707
-5.900032,35.008948,MAR,"Ksar El Kebir - Morocco",TRUE,481.749,7708.3994,48.126429375983,3713513702.5506,23184859.2254504,,,,0,8,313.786440650359,481.749,33490.4262741946,51099.3755338231,3.15960185048085,347.296477282009,481.749,38714.3879010103,59394.7556979922,3.02514950707098,0,861.596181474398,0,25.1170719954829,481.749,19716.4329899487,23184.8592254504,5.2505732245429,0,1430.90229702323,0,19.4901823661055,0,1304.2895293658,0,20.4142716353954
-5.667584,32.939324,MAR,"Khénifra - Morocco",TRUE,381.704,5810.59514758978,38.7930319415803,2217927410.21561,14807455.4642289,,,,0,8,313.676817756564,381.704,26522.2142869849,29654.013189682,3.1600750361549,329.392345708503,381.704,28440.6745909045,32741.3386969546,3.09455610508212,0,472.975946684702,0,25.7470247091354,381.704,13069.5517047114,14807.455464229,4.89797124900309,0,866.007999711512,0,19.0276706400141,0,238.625712684314,0,36.2483262706228
-5.759602,10.555472,MLI,"Kadiolo - Mali",TRUE,317.492,2328.09481993824,27.1998768923998,739151480.571833,8635743.31432181,,,,0,9,267.849941842036,317.492,17604.7110919527,18135.1899412066,3.38137611843731,284.767440705752,317.492,19214.4144170042,19760.9826048866,3.2937755827115,0,918.583739806106,0,15.2770287851959,317.492,7895.65480230742,8635.7433143218,5.21079751237355,0,173.54962285043,0,35.1468523511242,0,67.8036168401305,0,56.2304868836099
-5.6370897,9.4510393,CIV,"Nneyi-Umuleri - Nigeria",FALSE,286.071,3289.988,35.5292803371237,941170157.148,10163896.7553213,,,,0,12,305.749655330412,286.071,19163.5632166415,20300.0166646194,3.19493176218874,324.905489043237,286.071,20901.5164206424,22123.5788649292,3.11279935113085,0,1177.80525826222,0,13.4909357587212,286.071,8783.72131285307,10163.8967553213,4.94014327338593,0,131.350550651082,0,40.3982795679929,0,85.3492725888163,0,50.1162892735049
-5.30024,6.8373399,CIV,"Arzew - Algeria",FALSE,37.253,3289.988,41.8178867554655,122561922.964,1557841.73530136,,,,0,12,179.768611504727,37.253,1168.58596146935,3227.93319847302,4.01155262501182,192.424949235236,37.253,1287.86814957695,3360.19059403583,3.8962720433261,37.253,552.163724430218,1557.84173530136,9.61163548465391,0,541.839998000663,0,9.70276911829998,0,23.2353815754549,0,46.8550414255065,0,40.5924515305963,0,35.4493755499444
-5.7609501,12.9448795,MLI,"Béni Mellal - Morocco",FALSE,89.799,2275.85166218126,32.5280080868355,204369203.412215,2920982.59818974,,,,0,9,256.549570375297,89.799,4681.92422783746,5712.83880654118,3.44442277640884,269.489868266464,89.799,5022.90073672715,6006.27189338969,3.37254216308804,89.799,2244.27591881792,2920.98259818974,5.51723848200581,0,280.933808333267,0,15.5940125271008,0,84.8715517837018,0,28.3712722555079,0,17.2448838631372,0,62.9404361120913
-5.0414901,6.5430398,CIV,"Chipata - Zambia",FALSE,39.005,3289.988,39.0763581540411,128325981.94,1524173.34979837,,,,0,12,138.661936102297,39.005,844.381736932555,3068.83286495948,4.48370212883948,154.299897503071,39.005,983.640753632525,3309.25564461305,4.28299382247636,39.005,558.717024169375,1524.17334979837,10.4235740121136,0,385.083301328575,0,12.5555361748034,0,35.8272570204234,0,41.1628872112238,0,68.5552108300392,0,29.7572211499733
-4.6909499,5.9060397,CIV,"",FALSE,0,3289.988,32.1998889870533,0,0,,,,0,12,74.572605476225,1e-06,8.9246854144941e-06,3957.78532807413,6.86804871667724,94.2106735300977,1e-06,1.24630006853451e-05,5069.01117688247,5.95537766112994,1e-06,439.127192578252,3.21998889870533e-05,20.233721417933,0,445.343707845582,0,20.0920047213241,0,69.1927969677589,0,50.9730345954981,0,433.482296090815,0,20.365039150445
-5.803895,35.77671,MAR,"Tangier - Morocco",TRUE,1007.037,7897.3692983517,60.3686019577755,7952943086.1042,60793415.8097524,MAPTM,Tanger Med,AI,29213.26830742,8,2442.87157894778,1007.037,1313357.88745983,1334414.01960085,1.31117607984785,2489.05291240693,1007.037,1348970.21634898,1373697.67041616,1.30069429488054,0,1514.96604078099,0,39.1669151685408,0,1474.71375224092,0,39.6978467814122,0,798.841680132081,0,53.9374559177593,1007.037,1137337.22842451,1141684.34318429,1.42947376316902
-5.003295,34.043295,MAR,"Fès - Morocco",TRUE,1380.105,4852.60936283408,54.7499901257426,6697110444.69412,75560735.122488,,,,0,8,371.432805767033,1380.105,122081.329044221,132036.845540102,2.93928148987108,390.173730085611,1380.105,130975.153213891,143269.347218713,2.8779237268947,0,797.182917753037,0,38.5813063745988,0,2875.16499054503,0,20.3153605765756,1380.105,70730.0244632516,75560.735122488,4.09594405939243,0,942.687297095325,0,35.4790590613366
-4.31988,35.1186104,MAR,"Niangoloko - Burkina Faso",FALSE,87.889,5072.45692357448,40.7110698682004,445813166.556038,3578055.21964627,,,,0,8,178.14039924706,87.889,2721.37892530366,10041.7947360615,4.02722568384655,233.06137194668,87.889,3994.97951094819,11801.6109302663,3.58912270396231,87.889,1600.39499682013,3578.05521964626,9.74642533174544,0,581.080994958744,0,16.1748632231431,0,164.345317163901,0,30.4144723250346,0,1005.20303075802,0,12.2979311655716
-5.466706,12.38318,MLI,"Koutiala - Mali",TRUE,173.39,2285.3071,34.2337289247921,396249398.069,5935786.2582697,,,,0,9,298.865537818931,173.39,11243.4012396851,12216.3360349016,3.22626633973698,310.741415174452,173.39,11887.0435026162,12965.4667830357,3.17283417172618,173.39,5185.40832920382,5935.7862582697,5.01706782240938,0,596.443434224296,0,14.7930192266759,0,141.020984340795,0,30.422828019189,0,30.9003369078826,0,64.9919918116067
-4.88414,13.22997,MLI,"Techiman - Ghana",FALSE,62.939,2285.3071,27.7750123769379,143834943.5669,1748131.5039921,,,,0,9,261.53847114813,62.939,3373.04164381306,3625.2694161795,3.41610929969319,271.050881023724,62.939,3549.65655585747,3847.74536193925,3.36420434909441,62.939,1612.86514728042,1748.13150399209,5.19620767707929,0,135.592194731808,0,17.9212453187536,0,49.3923460925359,0,29.693111113593,0,10.2229178997322,0,65.2676683127428
-5.1606898,9.9698601,CIV,"",FALSE,0,3219.81194498956,23.6325528252283,0,0,,,,0,12,192.27660836043,1e-06,3.45327911445934e-05,428.757978229424,4.16090462549879,223.616223109297,1e-06,4.2846258494106e-05,340.326267433021,3.84476896175657,1e-06,61.6685134679358,2.36325528252283e-05,9.03204801972216,0,53.483020886101,0,9.69862156050812,0,4.00993686563711,0,35.4200549843506,0,1.63664016471163,0,55.44232211481
-5.31213,8.7883997,CIV,"",FALSE,0,3289.988,26.5663110545579,0,0,,,,0,12,185.930361920201,1e-06,3.29161192838911e-05,478.073345476803,4.23031239970107,211.315927350241,1e-06,3.951949320286e-05,510.849305809893,3.95047975043871,1e-06,52.1278979166603,2.65663110545579e-05,12.3669081715658,0,127.100932644469,0,7.91993963063569,0,5.16864499287808,0,39.2742502921873,0,3.36590436705897,0,48.6682100523398
-5.199932,9.583411,CIV,"Ferkessédougou - Côte d’Ivoire",TRUE,160.267,3267.52578171889,28.1654532445121,523676554.458741,4513992.69513822,,,,0,12,258.348353229042,160.267,8439.79413780821,9790.44241533698,3.43412415465621,275.069388965138,160.267,9230.84018975231,10624.477453313,3.34305235914461,160.267,3215.7662605852,4513.99269513822,6.07651718959324,0,861.72196834557,0,11.73852112222,0,109.141760081469,0,32.9838610511241,0,43.1016492875589,0,52.4867914778871
-4.93154,12.8220196,MLI,"Siliana - Tunisia",FALSE,24.889,2270.88540033439,28.0674148072147,56520066.7289225,698569.887136766,,,,0,9,283.529855335468,24.889,1496.92354827598,1520.70555254466,3.29992954490778,293.477823202384,24.889,1572.51432416322,1610.90999187101,3.25151805940792,24.889,662.93113261239,698.569887136767,5.06859509368443,0,65.2810026766769,0,16.1520779078293,0,18.6995371481205,0,30.1791069143338,0,3.93916117331491,0,65.7536620277147
-4.805582,12.183353,MLI,"Kouri - Mali",TRUE,137.964,2215.83852651061,27.169998873553,305705946.47151,3748481.72459086,,,,0,9,261.839891979403,137.964,7405.97530966336,8066.06635697765,3.4144233790646,268.468829374827,137.964,7675.27188046246,8669.93483861561,3.37803324076183,137.964,3074.38773505119,3748.48172459087,5.67273525697915,0,512.940593588934,0,13.8879549972178,0,104.567801942372,0,30.759044946227,0,22.9564739176429,0,65.6476594514045
-4.8452396,10.9798899,BFA,"Tiko - Cameroon",FALSE,33.422,1561.522,23.9344297130372,52189188.284,799936.50986913,,,,0,13,186.616853997936,33.422,1105.92980134773,1770.29309099721,3.94778761949496,207.257285584793,33.422,1284.72970027822,1846.29948681576,3.77423136747649,33.422,280.515327850193,799.936509869129,9.68280743437039,0,362.097832980659,0,8.5224925516959,0,20.2137669721389,0,36.070816237218,0,7.26385873314691,0,60.1722022018035
-5.016623,7.683365,CIV,"Bouaké - Côte d’Ivoire",TRUE,659.233,3289.988,40.2539059826232,2168868659.204,26536703.2026426,,,,0,12,315.58229865887,659.233,46203.9870190219,47683.2717151356,3.15188353390901,330.337336003468,659.233,49320.7295031574,51109.3219257468,3.09075905193079,0,1308.36045822149,0,19.317525951605,659.233,25138.8368958271,26536.7032026426,4.40699562370216,0,252.04665784434,0,44.0123682629522,0,239.449320411162,0,45.1552660344544
-3.2846298,9.6600199,CIV,"",FALSE,0,3217.02361233922,19.5825015048918,0,0,,,,0,12,137.462025516846,1e-06,2.13809194084055e-05,399.513840071887,4.92582489740787,161.290174077781,1e-06,2.68661350277596e-05,439.077769495056,4.50772858222588,1e-06,92.1980159385246,1.95825015048918e-05,9.83711371889969,0,29.6227086322564,0,17.354659592516,0,16.6882752404002,0,23.121859533993,0,3.3284336016467,0,51.7736220873271
-4.758877,10.630955,BFA,"Banfora - Burkina Faso",TRUE,126.236,1561.522,24.6889188876878,197120291.192,3116630.36470615,,,,0,13,243.839383380591,126.236,6120.84230200183,7051.04991425019,3.52025339938571,255.362803873737,126.236,6538.2189092946,7530.65912677725,3.45127405342951,126.236,2103.73006010321,3116.63036470616,6.52981586504251,0,705.53627971188,0,11.2755118541815,0,82.7807999891863,0,32.9178250441613,0,27.5898576520168,0,57.0192122980582
-4.1257401,6.7047696,CIV,"Cidade de Nacala - Mozambique",FALSE,74.281,3289.988,36.3507584903294,244383598.628,2700170.69142016,,,,0,12,301.580574118513,74.281,4879.35204406212,5325.5451405833,3.21378628531559,316.145709188692,74.281,5219.45200042353,5844.5281332426,3.14947500943935,74.281,2576.89213571171,2700.17069142016,4.74312721302392,0,145.690100362183,0,19.9479317044866,0,46.046733890709,0,35.4824401966526,0,46.6547146220379,0,35.2504874039349
-3.98735,7.06142,CIV,"Ilesa - Nigeria",FALSE,101.136,3289.988,30.9159129234854,332736226.368,3126711.76942962,,,,0,12,252.523043938567,101.136,5155.18165639085,6623.92070866477,3.46785440921405,263.602139486678,101.136,5481.30353126821,7576.3694558366,3.40462193237917,101.136,2466.39069456123,3126.71176942962,5.96717160937445,0,383.764045059783,0,15.1275056317269,0,93.4109045381142,0,30.6620139422345,0,66.0114812280138,0,36.4745318836354
-4.016502,34.216732,MAR,"Taza - Morocco",TRUE,215.147,4756.2676,43.2527353559962,1023296705.3372,9305696.25363651,,,,0,8,293.640858953368,215.147,13604.0125457599,17613.1794226281,3.25074420540551,329.262566295545,215.147,16021.529921051,20897.7345811106,3.09507878624617,0,375.106589322967,0,23.1017014304066,215.147,8560.79170767223,9305.69625363651,4.83575564825065,0,366.524174684775,0,23.3706074669979,0,182.883736505349,0,33.0852004639981
-4.1851397,14.0335598,MLI,"Rubengera - Rwanda",FALSE,35.513,2285.3071,26.5762081399309,81158111.0423,943800.879673367,,,,0,9,251.37729146376,35.513,1798.47403196315,1913.36690737648,3.47461968221234,259.887330481204,35.513,1886.07943407845,2021.21802967317,3.42539400163374,35.513,943.800895944043,943.800879673366,5.01276009855578,0,44.0972113047343,0,23.190576949198,0,28.8027520340491,0,28.6945966498563,0,4.96943576076847,0,69.0817901997584
-3.4726,12.4589195,BFA,"Al Marj - Libya",FALSE,63.617,1561.522,23.9784948796488,99339345.074,1525439.90875862,,,,0,13,205.442724748651,63.617,2414.88661119644,3257.49001487643,3.78848218701914,216.786377120578,63.617,2607.60223978739,3504.87346664302,3.70221698541464,63.617,1021.6817020795,1525.43990875862,6.85709604374795,0,249.740673342757,0,13.8692635714807,0,66.5119555023236,0,26.8749820892626,0,10.755408709765,0,66.8320196913314
-4.283237,11.183756,BFA,"Bobo-Dioulasso - Burkina Faso",TRUE,903.887,1563.71297280047,35.5323045529694,1413419827.8457,32117188.1654698,,,,0,13,299.662818387055,903.887,58835.6681035785,61657.4097993044,3.22258477380737,313.984145713546,903.887,62893.3567455391,66062.3843586761,3.15874905685655,0,2691.53894310393,0,15.6491918056835,903.887,28936.6626508748,32117.1881654699,4.77274275223688,0,518.142774106283,0,35.6670774332347,0,150.686615036349,0,66.138586527762
-3.4547899,10.1577702,BFA,"",FALSE,0,1561.522,18.5995770061625,0,0,,,,0,13,166.814517287844,1e-06,2.81902795356845e-05,83.6628964814044,4.46483307413958,179.568530273786,1e-06,3.13190444925453e-05,121.910148041008,4.27523462366977,1e-06,26.4298746890123,1.85995770061625e-05,9.18189489232291,0,11.487029658377,0,13.9275910470889,0,2.82035667133396,0,28.1078667128578,0,0.691641121832151,0,56.7596292389707
-3.932213,35.247186,MAR,"Al Hoceïma - Morocco",TRUE,157.146,5081.60594467335,48.3370623895879,798554047.781638,7595976.00627419,,,,0,8,297.631533350833,157.146,10130.0128708225,16533.5891582807,3.23199228929248,342.472233217326,157.146,12378.7364631653,19272.0758040667,3.04333962007979,157.146,4706.38704638929,7595.97600627418,6.15844188373574,0,1124.19398910026,0,12.6006816118499,0,184.126677005327,0,31.1355334033134,0,534.648104431614,0,18.2717713543172
-3.8383498,11.7186594,BFA,"",FALSE,0,1561.522,21.1535394343159,0,0,,,,0,13,178.241812282803,1e-06,3.09890020800475e-05,342.354718858197,4.31971638261697,202.775662526495,1e-06,3.72577397830332e-05,363.64943681652,4.02980681871681,1e-06,51.5032121931375,2.11535394343159e-05,10.7080040130117,0,67.1399240274247,0,9.37854053455565,0,6.25521813625307,0,30.7258896981712,0,1.43539993205687,0,64.1415216287482
-3.516123,11.495237,BFA,"Houndé - Burkina Faso",TRUE,102.324,1561.522,23.1279888600729,159781177.128,2366548.3321181,,,,0,13,232.535662445076,102.324,4636.13952115707,5638.5274081721,3.59259796855321,248.424261358412,102.324,5095.21882145261,6052.05101793891,3.49226118573649,102.324,1651.13757477349,2366.5483321181,6.68600006580259,0,504.807764176738,0,12.0919124541039,0,103.506373343504,0,26.7038857923298,0,20.4213737356676,0,60.119523947396
-3.2551699,10.9504795,BFA,"Abū Za‘bal - Egypt",FALSE,25.688,1559.68196236009,20.0266158993534,40065110.249106,514443.709222591,,,,0,13,189.366289874678,25.688,867.959434646378,1399.45381584486,3.9231198759984,207.237728387788,25.688,987.304405834903,1640.1829853518,3.77438401540446,25.688,392.617114208011,514.44370922259,7.7144971144912,0,157.411703064823,0,12.1835465279338,0,30.3815624909394,0,27.7323827127048,0,6.89732088732909,0,58.2038921213389
-4.031478,6.172398,CIV,"Adzopé - Côte d’Ivoire",TRUE,156.488,3289.988,28.5378806552521,514843642.144,4465835.86797909,,,,0,12,221.509008326446,156.488,6614.84662953647,7934.64147940912,3.66818047106885,226.309719769075,156.488,6820.59670164954,8648.00868006528,3.63462757306013,156.488,3597.08703388351,4465.83586797909,5.63563038547673,0,142.092338892694,0,28.355195394511,0,86.343827160379,0,36.3749436112538,0,139.394924356513,0,28.6282298597905
-4.183454,14.484661,MLI,"Mopti - Mali",TRUE,175.604,2287.68401478936,27.9093141499409,401726463.733071,4900987.20198623,,,,0,9,261.764375798078,175.604,9422.62544264187,9436.30401989185,3.41484549652835,270.985326096668,175.604,9900.35645562791,9917.58871048662,3.36455310845821,175.604,4898.37610834527,4900.98720198622,4.78745131375017,0,164.487573813875,0,26.1254565045055,0,141.306475333285,0,28.1870355658201,0,23.8747583452322,0,68.5742307569265
-3.5236499,14.0762997,MLI,"Kamsar - Guinea",FALSE,105,2285.3071,24.7752788915821,239957245.5,2601404.28361612,,,,0,9,246.528624131507,105,5171.56830948929,5191.94248243326,3.50374448027209,255.389306795332,105,5439.13601075882,5463.09426612233,3.45112055616284,105,2581.62169857109,2601.40428361612,5.02034052405746,0,99.7624335222142,0,25.5385338578857,0,88.5061552525236,0,27.1139468832863,0,13.7433360755409,0,68.8071227493039
-0.04122,16.2347698,MLI,"Catabola - Angola",FALSE,49.483,2285.3071,23.3834754351307,113083851.2293,1157084.51495657,,,,0,9,203.600999308554,49.483,1854.35395854221,2181.9777973982,3.80313142567525,208.144916469185,49.483,1913.75696059691,2261.11873749191,3.76732501533885,49.483,935.957216935774,1157.08451495657,5.85553759927262,0,42.3647998496393,0,27.5227734859921,0,58.4055001942962,0,23.440555582965,0,7.87717468274896,0,63.8277509233704
-3.7660499,6.5562596,CIV,"",FALSE,0,3330.13071312614,26.749789223801,0,0,,,,0,12,123.213316047708,1e-06,1.82866177336935e-05,324.011793119164,5.21390365947735,166.800832233727,1e-06,2.81869757917137e-05,388.449293570907,4.43329168571552,1e-06,109.175188701902,2.6749789223801e-05,8.36241071579947,0,13.7458124090364,0,23.5672153899003,0,7.65193406999114,0,31.5869630096547,0,7.76556516702826,0,31.3550102534106
-3.199681,5.466835,CIV,"Aboisso - Côte d’Ivoire",TRUE,115.831,3283.31415970208,30.802133925745,380309562.432452,3567841.97475296,,,,0,12,91.2767677880322,115.831,1379.80927262311,8775.35907129599,5.36369458037439,95.1063664760957,115.831,1463.24858240708,9889.09362663817,5.27004500933485,115.831,2276.51110322603,3567.84197475297,10.9839281191016,0,153.261604303762,0,42.3326918579105,0,157.77168333883,0,41.7232412833946,0,717.731799365443,0,19.5619198228054
-2.884658,34.416684,MAR,"Taourirt - Morocco",TRUE,321.876,5909.4069394727,41.5215982796711,1902096268.04972,13364805.9678674,,,,0,8,308.060701323841,321.876,21795.3032595632,22100.1105450061,3.1846376086911,344.536341786476,321.876,25573.4714669217,26246.3983502801,3.03551224275052,0,280.909764550305,0,29.3415754707293,321.876,13364.8058901166,13364.8059678674,4.25388278597282,0,193.810572785874,0,35.3246701007643,0,247.093216877165,0,31.2850198865299
-3.3598599,7.0014696,CIV,"",FALSE,0,3315.53558628181,33.597304142047,0,0,,,,0,12,119.776123297795,1e-06,1.7562242404322e-05,1118.27596844479,5.29195689790368,149.88299958005,1e-06,2.4193421202348e-05,1987.04173065467,4.675863571652,1e-06,349.983016980429,3.3597304142047e-05,11.1414531707202,0,105.405216463998,0,20.3017872863333,0,109.145454114386,0,19.9509003412019,0,26.5682391572817,0,40.4374667764879
-2.933289,35.166696,MAR,"Nador - Morocco",TRUE,398.424,7606.25038889618,51.3612061101847,3030512704.94557,20463537.1832442,,,,0,8,340.29862283419,398.424,31100.5613988847,32647.5642705154,3.05165542761591,383.389912288687,398.424,36875.7071392783,38715.6977187068,2.89963848903703,0,535.522094938915,0,24.6546421980831,398.424,19750.8934300724,20463.5371832442,4.05970080767503,0,215.041636558831,0,38.9068546989295,0,339.279065372588,0,30.9748255922451
-3.483656,6.733739,CIV,"Abengourou - Côte d’Ivoire",TRUE,164.424,3393.50643563291,31.3151713379485,557973902.172505,5148965.73207084,,,,0,12,256.821008510194,164.424,8585.66954257782,9355.40222770054,3.44286210268693,265.646296768757,164.424,9010.23068313731,10280.2612586873,3.3933691384539,164.424,4389.12940190771,5148.96573207084,5.19330690877234,0,156.29802228431,0,27.5205076521059,0,160.361166079842,0,27.1696209378289,0,99.5169571287548,0,34.4893205063253
-2.416466,13.583359,BFA,"Ouahigouya - Burkina Faso",TRUE,124.58,1563.41905949248,24.9678181813964,194770746.431573,3110490.78903837,,,,0,13,249.889276313272,124.58,6255.78299149085,6541.39079444754,3.48347190166214,260.144617160083,124.58,6625.74706875487,7074.36861822777,3.42394167654133,124.58,2863.9093356695,3110.49078903836,5.38134168344501,0,167.667284511225,0,22.2405762776647,0,172.137447007922,0,21.9498988183567,0,20.4756612633591,0,63.643086767489
-3.0625598,11.1466293,BFA,"Hohoe - Ghana",FALSE,25.922,1561.522,20.2432159885365,40477773.284,524744.644854843,,,,0,13,245.004883718295,25.922,1265.47883524709,1312.78195600022,3.51306678332935,257.557942180029,25.922,1359.11178810964,1405.64193203022,3.43863688705885,25.922,435.248265838989,524.744644854843,6.17952570674961,0,91.0597376597361,0,13.5101593757262,0,24.2175715222595,0,26.1974112165789,0,4.68995016055491,0,59.5305050197229
-2.7472,11.7775002,BFA,"Sébékoro - Mali",FALSE,40.627,1561.522,21.1605772475616,63439954.294,859690.771836685,,,,0,13,230.59466545611,40.627,1818.8349801027,2009.22276187477,3.60552702423104,230.111081266643,40.627,1813.38841362168,2056.57151408903,3.6087724069289,40.627,579.01810603645,859.690771836685,6.80119658543851,0,134.111481280498,0,14.1318305630181,0,50.0294881962457,0,23.1376034063593,0,6.93184122839426,0,62.1594417013057
-3.03983,6.1229501,GHA,"",FALSE,0,3802.82235998441,26.9757504642009,0,0,,,,0,14,95.8818220920933,1e-06,1.27800170450439e-05,588.9481837849,5.96340048705548,128.659219072852,1e-06,1.94521057662582e-05,841.035515426845,5.05261866988583,1e-06,209.51490020703,2.69757504642009e-05,10.1231630348692,0,20.3895783966928,0,32.4503637746462,0,21.1775813106759,0,31.8409131034714,0,29.2528468606766,0,27.0919099118071
-2.75492,6.4242897,GHA,"",FALSE,0,3953.2102,29.0369393929079,0,0,,,,0,14,119.024503058553,1e-06,1.74050161541643e-05,571.936118051631,5.30953231814461,124.158749347953,1e-06,1.8487398014229e-05,619.552236469801,5.14612114061557,1e-06,130.469059429758,2.90369393929079e-05,11.2141200722208,0,14.5840330612746,0,33.5413202234619,0,30.0056436185752,0,23.3839297240317,0,17.4043781721002,0,30.7036294899431
-2.366508,12.250045,BFA,"Koudougou - Burkina Faso",TRUE,252.816,1560.77676867213,26.6972220059627,394589339.548613,6749484.87865947,,,,0,13,232.824987510857,252.816,11475.0609964976,14535.007615486,3.59068396060957,245.776424005909,252.816,12397.7142114639,15448.8009546675,3.50833613229062,0,1084.60721919215,0,13.2407425004696,252.816,4059.08930038232,6749.48487865947,6.8443826541804,0,453.35606713592,0,20.479948922867,0,40.4074797242667,0,68.5989872950661
-2.883702,7.283584,GHA,"Domaa-Ahenkro - Ghana",TRUE,1000,3838.14915389001,37.1443756204362,3838149153.89001,37144375.6204362,,,,0,14,290.235935639318,1000,62186.4239474501,65321.8736241723,3.26703389729713,309.708218735651,1000,68231.2781925546,72648.4481846018,3.17736614200922,0,1436.38779574908,0,22.5966771759834,0,727.246471213021,0,31.7570112698679,1000,34456.0252081959,37144.3756204362,4.61368400556431,0,362.643606636021,0,44.9718156672516
-2.800007,8.033291,CIV,"Bondoukou - Côte d’Ivoire",TRUE,141.568,3415.9826182662,35.1347520530404,483593827.30271,4973956.57864482,,,,0,12,313.017992446581,141.568,9807.17004769842,10300.6912929221,3.16292383028848,328.995633098353,141.568,10530.0542349247,11173.9540704519,3.09615477433433,141.568,4260.72417941762,4973.95657864482,5.01400073022387,0,225.869811952131,0,21.7769477317944,0,334.152992196681,0,17.9041384095285,0,50.7497315965969,0,45.9419293830672
-3.0037599,9.2666302,CIV,"Birkat as Sab‘ - Egypt",FALSE,94.883,3281.84616266209,23.3886063445532,311391409.451867,2219181.13579024,,,,0,12,252.270868147042,94.883,4829.55071599765,5036.84009692615,3.46933965015156,261.128785260703,94.883,5073.61670846193,5413.81039779329,3.41840521503638,94.883,1833.49774554234,2219.18113579024,5.87401258494889,0,153.02097239971,0,20.3329121844925,0,172.351635160906,0,19.1587583460351,0,27.675990888192,0,47.8105209605131
-2.500115,10.066876,GHA,"Wa - Ghana",TRUE,107.214,3936.48868750266,37.1891567694194,422046698.141911,3987198.25387653,,,,0,14,266.382023571826,107.214,5898.45302876034,8246.70689248657,3.38934929718594,267.417203666316,107.214,5931.22573585068,9014.13440630642,3.38372009063685,107.214,3016.20272796067,3987.19825387653,5.84960014085605,0,251.341758344317,0,20.2639507110125,0,334.568188414502,0,17.5636236455118,0,34.5492617583682,0,54.655901287153
-2.7890699,11.0427799,BFA,"",FALSE,0,2197.95807905528,23.1288106598402,0,0,,,,0,13,179.951188041257,1e-06,3.1414431441891e-05,269.974768733767,4.29930486978261,202.718384280922,1e-06,3.72427060770169e-05,330.13955366214,4.03035301720337,1e-06,83.5834001990764,2.31288106598402e-05,8.0099876082909,0,22.7875607775274,0,15.3406212224499,0,9.33013239524944,0,23.9744123088134,0,1.43805349995279,0,61.0666897571694
-2.75752,5.2915597,GHA,"Kolda - Senegal",FALSE,27.938,3680.15963132643,31.4353166300399,102816299.779998,878239.876010055,,,,0,14,159.802313797592,27.938,740.714291593985,1292.70263687902,4.21915709656824,168.370161991712,27.938,798.093320945868,1536.06220417928,4.12576806689427,27.938,513.881076006935,878.239876010055,7.13309319044995,0,19.9917086643387,0,36.164649267128,0,20.6829371200921,0,35.555198598841,0,56.3194067260093,0,21.5466708251187
-2.49212,9.0273695,GHA,"Mesra - Algeria",FALSE,10.555,3903.89231157778,29.1246396378985,41205583.3487034,307410.571378019,,,,0,14,154.840100981133,10.555,267.51169113497,1207.92102341036,4.27658357052997,172.572702447618,10.555,312.32897281706,1376.96006477917,4.08240522120071,10.555,287.770835746033,307.410571378019,8.9300397668228,0,42.1103162158042,0,23.3443901596254,0,112.698945749798,0,14.2697661523573,0,9.23175774943003,0,49.857969677563
-1.911082,34.686468,MAR,"Oujda-Angad - Morocco",TRUE,619.82,7265.94785567517,64.1855171619656,4503579799.90458,39783467.2473295,,,,0,8,392.368598193281,619.82,59295.6292367963,59302.9304391834,2.87101318268227,417.80842341833,619.82,64863.1928865101,70195.7923614369,2.79474697242682,0,501.966289871001,0,33.0491853348627,619.82,38558.1135217452,39783.4672473295,3.7708577170498,0,308.339843415981,0,42.1680201904404,0,819.017007310031,0,25.8732851372505
-2.63341,7.4203897,GHA,"Béchar - Algeria",FALSE,96.471,3953.2102,36.4293790503192,381370141.2042,3514378.62636334,,,,0,14,263.884459158808,96.471,5236.47432726781,8546.30700339028,3.4030603950554,277.885235936124,96.471,5637.84039893917,9280.95562634093,3.32849199699435,96.471,1975.46517688349,3514.37862636334,7.21454880623397,0,383.469938637487,0,16.374882914466,0,657.845077413621,0,12.5020735787778,0,44.364017021791,0,48.1424773680143
-2.42713,6.64852,GHA,"",FALSE,0,3953.2102,30.0019266172557,0,0,,,,0,14,119.383027731663,1e-06,1.74799605452304e-05,2278.67905596033,5.30112540566931,142.104549945645,1e-06,2.24199101974681e-05,3169.4071534191,4.80309137501289,1e-06,255.683200717085,3.00019266172557e-05,16.9105903243165,0,136.017398636212,0,23.1852954052043,0,450.12442028466,0,12.7451096988608,0,55.1841789898808,0,36.4000997537912
-1.9408599,7.58079,GHA,"Nnewi - Nigeria",FALSE,104.212,3953.2102,38.4258396252504,411971941.3624,4004433.5990266,,,,0,14,197.182044493601,104.212,3730.605170213,9573.13050186175,3.85570544761055,219.674176665961,104.212,4353.07268959144,10387.9500640985,3.68128006950203,104.212,2099.96428419733,4004.43359902659,8.18762289619392,0,438.444932402571,0,17.9186901154525,0,713.558577289817,0,14.0458805492359,0,71.3067479316703,0,44.4322669797379
-2.3793299,11.9639797,BFA,"Gīnīr - Ethiopia",FALSE,8.983,1555.86958355345,20.7091832742223,13976376.4690606,186030.593352339,,,,0,13,153.384672973282,8.983,224.619093441449,675.750829407787,4.29392786033755,186.116729877829,8.983,296.108992465272,814.986540589863,3.95233059858304,8.983,132.878096702065,186.030593352339,9.78817626735883,0,91.3217442284025,0,11.8070494656338,0,32.8614586605979,0,19.6827177865758,0,2.99968650897193,0,65.1464212565921
-2.3323998,7.3266597,GHA,"Matola - Mozambique",FALSE,225.038,3934.99061586051,37.6600902235125,885522418.212017,8474951.38371881,,,,0,14,265.304520108816,225.038,12309.1431428632,17815.8681742166,3.39524194057098,268.072188987297,225.038,12492.9946105285,18912.0314995373,3.38017439652575,0,1128.62797379619,0,13.836708571471,225.038,4608.88965518759,8474.95138371881,6.8471531800833,0,626.450092227789,0,18.5722687901487,0,121.179908205724,0,42.2272588098602
-1.527486,12.368619,BFA,"Ouagadougou - Burkina Faso",TRUE,2497.171,1561.522,38.4954008979503,3899387454.262,96129598.7557355,,,,0,13,292.129879748012,2497.171,156739.800334933,162188.552946359,3.2579394876266,306.098371401684,2497.171,167555.202252154,174207.248623069,3.19337135577816,0,3088.32416894475,0,23.9839713197134,0,1629.7495634781,0,33.0158208715319,2497.171,91886.3965607692,96129.5987557354,4.3970046609827,0,335.28828783488,0,72.7902724357804
-0.85435,10.77911,GHA,"Calabar - Nigeria",FALSE,93.991,3844.83852701892,32.5092252880077,361380217.993035,3055574.59404513,,,,0,14,224.714413796434,93.991,4055.4461041197,6493.50185056623,3.64566372701313,233.989258766202,93.991,4296.66485114657,6837.14196932105,3.58301605073314,93.991,1918.81117893201,3055.57459404513,6.76347567267941,0,173.361608914258,0,22.5014025124582,0,415.532497163389,0,14.5339464481081,0,28.4246288870814,0,55.5697768548906
-2.02933,8.1420498,GHA,"",FALSE,0,3909.39329504001,30.4736731110018,0,0,,,,0,14,230.190180078171,1e-06,4.4656975936351e-05,49.505004240444,3.81185461431465,243.854726191229,1e-06,4.84916545308799e-05,72.8476883074324,3.68945042191485,1e-06,16.7753506701912,3.04736731110018e-05,7.68836042039452,0,2.33991720335262,0,20.5858756065052,0,5.02232278381064,0,14.0513241504562,0,0.44700014631828,0,47.0994528806501
-0.852935,9.408997,GHA,"Tamale - Ghana",TRUE,1146.388,3953.2102,39.9885546755501,4531912734.7576,45842399.2173945,,,,0,14,308.920429276181,1146.388,77935.4405232754,81667.4349032507,3.18083620916605,321.093835635866,1146.388,82359.566000311,86838.6549287786,3.12858234429582,0,2050.64255266049,0,20.3591270011677,0,702.93005694663,0,34.7734737358105,1146.388,42955.8876103861,45842.3992173945,4.44828685130411,0,244.2694143493,0,58.988803697022
-2.0349898,7.0902801,GHA,"El Wak - Kenya",FALSE,45.153,3953.2102,34.7409805927437,178499300.1606,1568659.49670415,,,,0,14,156.070153255392,45.153,1157.39152573977,4601.18974666721,4.2621056483104,165.162694067035,45.153,1254.9079531491,5446.7174232755,4.15991769912655,45.153,715.373773333492,1568.65949670416,11.4785136094532,0,299.054341752318,0,17.7532187703997,0,497.298511163051,0,13.7671353191016,0,55.6818739948101,0,41.1429322196946
-1.89963,5.9580197,GHA,"",FALSE,0,3910.51913372888,33.3768235924992,0,0,,,,0,14,94.2414034260015,1e-06,1.24688085423085e-05,1219.41715229344,6.02014460707581,106.557094487654,1e-06,1.48602408842514e-05,3730.13956645578,5.5746746538656,1e-06,232.361930452868,3.33768235924992e-05,22.3357005893716,0,141.61723229871,0,28.6104056982442,0,351.110458020312,0,18.1702199470819,0,230.83334019555,0,22.4095326406406
-1.625058,6.70004,GHA,"Kumasi - Ghana",TRUE,6898.949,3953.2102,55.7015155157662,27272995556.0798,384281914.76598,,,,0,14,352.29406472502,6898.949,565846.614301996,578968.338534153,3.00668256535811,366.222600915551,6898.949,598074.935290951,614038.527668014,2.95713066725405,0,4328.17908324671,0,35.2221380655532,0,3118.21841600827,0,41.4968432215825,6898.949,377199.061175296,384281.91476598,3.77296715437228,0,2285.87832270787,0,48.4665126246174
-2.26566,12.9614601,BFA,"Zomba - Malawi",FALSE,78.833,1627.34871682273,19.3775853082574,128288781.393286,1527593.18260586,,,,0,13,172.736475233859,78.833,2335.88035347018,4101.7032311806,4.08074591750211,190.013180923364,78.833,2676.65863093902,4958.59664736439,3.91739023857866,78.833,1077.43451332248,1527.59318260586,8.40389826009009,0,250.306022328278,0,17.4357478077048,0,310.961445663228,0,15.6431047944297,0,17.1217565932654,0,66.6656428469766
-1.083295,13.083043,BFA,"Kaya - Burkina Faso",TRUE,141.824,1561.522,20.6131088024861,221461296.128,2923433.54280379,,,,0,13,216.778004260744,141.824,5812.91439875793,6319.44725816093,3.7022782617085,227.144876036248,141.824,6214.07370327676,6747.26007028274,3.62889427264576,141.824,2318.97188674352,2923.43354280379,6.18999499923502,0,133.575665483711,0,25.7913673721172,0,301.515637836036,0,17.1665538345137,0,25.6471656837228,0,58.8597419333565
-2.0190399,12.1964092,BFA,"Sakouéba - Mali",FALSE,41.911,1578.17761345313,20.6985723020877,66143001.9574339,867497.863752799,,,,0,13,153.00400633431,41.911,1044.26719162698,3123.84625674717,4.29850300175733,188.336226252047,41.911,1405.11914097159,3886.79251227484,3.93230123054568,41.911,828.142195948079,867.497863752798,8.51902711620198,0,210.783010953799,0,16.8859172239132,0,242.030368639514,0,15.7582333309434,0,12.1870294733695,0,70.2252882905311
-1.9836799,4.92097,GHA,"Bocaranga - Central African Republic",FALSE,27.719,3953.2102,37.6841551729159,109579033.5338,1044567.09723805,,,,0,14,116.803840569352,27.719,469.642445125706,3156.61534988691,4.82575626996207,151.533953740507,27.719,681.19489728379,3002.15188413232,4.31632531843549,27.719,360.765230027603,1044.56709723806,12.4513993495644,0,64.0489102957374,0,29.5511664463865,0,79.4444269142513,0,26.5337591206593,0,356.524587391343,0,12.5252313545931
-0.78598,32.4087105,DZA,"",FALSE,0,13888.5151898265,38.4111599953153,0,0,,,,0,10,136.72852455082,1e-06,2.12181214665779e-05,398.557640617717,4.93942046941096,155.299571545914,1e-06,2.54520537444427e-05,430.823248587751,4.59350556435164,1e-06,106.850707506768,3.84111599953153e-05,9.22369868724664,0,38.8085792518006,0,15.3048803629343,0,1.83066948032324,0,70.4675000295867,0,8.04712212463202,0,33.6103877543171
-0.29448,27.9394188,DZA,"Cuango - Angola",FALSE,77.757,13747.3943974488,41.9438900722357,1068956146.16242,3261431.06034683,,,,0,10,307.20859274096,77.757,5244.39421862515,5527.49770560498,3.1884203071426,314.811443284839,77.757,5430.78599369375,5728.89966327152,3.15518885111846,77.757,3261.43104748358,3261.43106034683,4.18173844478617,0,94.7914376624589,0,24.5288062323652,0,16.3977942866982,0,58.9750412066347,0,22.9924704014914,0,49.804450317321
-1.735029,8.052471,GHA,"Kintampo - Ghana",TRUE,111,3953.2102,31.8375771190788,438806332.2,3533971.06021775,,,,0,14,277.481415890103,111,6473.46390622446,8128.39913618545,3.33056712214627,292.11857097959,111,6966.74584697754,8831.24144280287,3.25799354550761,111,2341.79815303765,3533.97106021775,6.32683296694173,0,217.899017959279,0,20.7411801019214,0,582.120313801471,0,12.6897983635676,0,44.8094147958339,0,45.7379256400634
-1.704435,4.940486,GHA,"Sekondi - Ghana",TRUE,345.041,3953.2102,55.5145875968161,1364019600.6182,19154808.818993,GHTKD,Takoradi,AI,343.8114,14,528.237837630993,345.041,50478.5356890622,54764.1164030327,2.52750196716622,532.835498881733,345.041,51107.3524096193,60191.6991897121,2.51813211462955,0,614.604982327999,0,24.9200423122763,0,892.309801224662,0,20.6818308546753,0,470.468645056348,0,28.4827207103674,345.041,28556.570473909,31875.830618993,3.65589562987438
-1.66741,7.6862698,GHA,"",FALSE,0,3953.2102,34.7148244506919,0,0,,,,0,14,245.806312073845,1e-06,4.90470067040911e-05,74.4332148868449,3.69353036560362,249.142429455358,1e-06,5.00007264041298e-05,114.565200464507,3.65216201785056,1e-06,27.2496954377502,3.47148244506919e-05,7.48851234888087,0,3.18541276754473,0,21.9024933018183,0,7.96453881260677,0,13.8514767322953,0,0.768191703466484,0,44.6006991607793
-1.2003399,5.16293,GHA,"Lubango - Angola",FALSE,242.548,3953.2102,47.126908309488,958843227.5896,11430537.3566497,,,,0,14,225.130288404321,242.548,10492.9402806057,28273.8174853898,3.6427759840785,239.809354668909,242.548,11483.8113050091,30284.0117088398,3.5454862928769,0,299.816907799228,0,35.6331694657384,242.548,6953.08452986942,11430.5373566497,7.39935320589374,0,923.145495235213,0,20.3070779597325,0,1843.78619488064,0,14.3690228017843
-0.983493,7.750098,GHA,"Atebubu - Ghana",TRUE,105.938,3953.2102,32.7029046576606,418795182.1676,3464480.31362325,,,,0,14,197.558993239738,105.938,3802.75406725756,7827.71230967834,3.85255081069835,193.439450578884,105.938,3689.98248523726,8481.60214676124,3.88750137510238,105.938,2030.42791724623,3464.48031362325,7.94539908048817,0,186.94924241169,0,26.1847028367672,0,628.177711527887,0,14.2846052230954,0,68.8722781241198,0,43.1407092318481
-0.47613,6.2894998,GHA,"Benguela - Angola",FALSE,186.596,3915.11583355947,41.0997756355816,730544954.078863,7669053.73449698,,,,0,14,192.954546639635,186.596,6476.16155182224,17944.494956062,3.89168528759215,214.230464450029,186.596,7519.90343672653,19656.3165104447,3.72108281433938,186.596,6375.2450410883,7669.05373449698,6.53389216582108,0,205.454042148667,0,36.3967880070253,0,385.9171796518,0,26.556653548348,0,695.767838370912,0,19.7782667098488
-1.26867,12.4855795,BFA,"Kuvango - Angola",FALSE,33.296,1548.55313505811,24.8504324087384,51560625.1848949,827419.997481354,,,,0,13,124.613100616463,33.296,618.776912546823,2264.32425103729,4.69374732444558,141.508167616098,33.296,742.021825966753,2515.61400530202,4.44482772424843,33.296,471.560633546499,827.419997481354,10.2661631798856,0,61.215029853162,0,28.4936380315955,0,288.835115847603,0,13.1175261386435,0,13.1137913137715,0,61.5620118652741
-0.433167,12.249994,BFA,"Pouytenga - Burkina Faso",TRUE,181.256,1596.38093961074,25.259614458178,289353623.590084,4578456.67823152,,,,0,13,261.115407088221,181.256,9691.47439274034,9984.81239127495,3.41848027043377,274.688225321139,181.256,10419.0759350088,10764.8638124497,3.34503966948975,181.256,4132.03042245468,4578.45667823151,5.39913003085041,0,215.778636369729,0,23.6266050035296,0,348.271781880931,0,18.5971502002329,0,37.47329520792,0,56.6949793819332
-0.199998,5.549954,GHA,"Accra - Ghana",TRUE,3048.022,3953.2102,68.5172293751128,12049471660.2244,208842022.51439,GHTEM,Tema,QQ,7407.89336449,14,674.167344654177,3048.022,631821.551637213,641591.310666536,2.2766140613683,693.606580069273,3048.022,658007.514298336,668351.760097501,2.24904677928598,0,2553.4087371229,0,36.3865489051786,0,1786.45425629313,0,43.5015855737864,0,1062.43041300204,0,56.4093102872972,3048.022,479051.076426271,482934.07700052,2.65650187356493
1.65764,13.7969694,NER,"",FALSE,0,908.340884736449,18.21835659222,0,0,,,,0,15,122.828808107608,1e-06,1.82051487452972e-05,535.21636420246,5.22245159323823,142.219877163984,1e-06,2.24459079120119e-05,530.019441238683,4.8011215754331,1e-06,66.1749669426373,1.821835659222e-05,13.5875681413575,0,11.0915044820632,0,33.1889397290886,0,97.7870722674489,0,11.1775823711256,0,2.78297697497886,0,66.257311843385
0.05265,8.85392,GHA,"Chinde - Mozambique",FALSE,8.6,3953.2102,29.5972745903776,33997607.72,254536.561477247,,,,0,14,136.800672228717,8.6,182.613413324794,864.249935701643,4.50974574424342,143.975385720554,8.6,196.447717588355,1044.84361519079,4.41202294736597,8.6,254.536575288773,254.536561477247,8.93898707289339,0,35.4098116638799,0,23.966333697813,0,42.552201593454,0,21.8626293800392,0,15.1789651444954,0,36.6051618144426
-0.233454,11.049927,GHA,"Bawku - Ghana",TRUE,100.737,3443.348943435,35.8736219329596,346872642.514812,3613801.05266056,,,,0,14,330.843842516503,100.737,7553.18511485799,7802.65649085479,3.08873025136954,349.035775649108,100.737,8153.42288477712,8454.74716318225,3.01867966910669,100.737,3458.4334106272,3613.80105266055,4.71984387053893,0,185.32538780289,0,20.3891858133132,0,205.507830573412,0,19.3621310450967,0,26.9597848461887,0,53.4575601455608
-0.82513,9.98067,GHA,"Aioun - Mauritania",FALSE,12.666,3608.44598300667,29.1684758976839,45704576.8207625,369447.915720064,,,,0,14,148.473790913816,12.666,302.326310109426,1106.02528326486,4.3542301811013,161.082846083148,12.666,339.661758357498,1246.43440051065,4.20474991307974,12.666,190.667410687931,369.447915720064,10.7506976517768,0,31.5706013362917,0,26.4200392360853,0,170.190147527182,0,11.3790937431728,0,8.02120941727868,0,52.4149242457317
-0.01374,9.4424696,GHA,"Luuq - Somalia",FALSE,52.008,3953.2102,30.0437969546538,205598556.0816,1562517.79201763,,,,0,14,198.447700315117,52.008,1878.88971393026,4186.42266981674,3.8451472539169,225.723916462593,52.008,2258.41339463863,5121.06076231831,3.63866715355265,52.008,1562.51764071032,1562.51779201763,6.58733620782731,0,154.706288890788,0,20.9347756465189,0,191.202930123149,0,18.8310711099749,0,33.2603681331576,0,45.1501056315451
-0.22433,9.9239798,GHA,"Diallassagou - Mali",FALSE,10,3953.2102,25.3205514237845,39532102,253205.514237845,,,,0,14,222.240414068045,10,424.70164768202,684.345830934241,3.66300187109121,206.789637022003,10,383.157958533974,767.51408071305,3.77788704147171,10,205.285260224886,253.205514237845,7.30488288773824,0,20.7540359601173,0,22.9742247152837,0,44.6662773344703,0,15.6603788955293,0,4.56814518928027,0,48.9691095783839
-0.23763,32.7311096,DZA,"",FALSE,0,13822.566,39.9593271920494,0,0,,,,0,10,162.319886351887,1e-06,2.7111497501652e-05,303.635725256463,4.52644662123119,191.006616238122,1e-06,3.42074100467903e-05,285.408080901293,4.14829305044353,1e-06,60.1380891299717,3.99593271920494e-05,9.03707201945785,0,38.9673647121116,0,11.22669797266,0,0.920780933167047,0,73.0338925368944,0,3.75271275205843,0,36.1767805842196
0.062,34.1462479,DZA,"Magu - Tanzania",FALSE,18.568,13822.566,39.034247987274,256657405.488,724787.916627704,,,,0,10,329.63983602288,18.568,1384.98251409883,1720.69394965683,3.09356019109864,361.926727346944,18.568,1582.76741031143,1943.18589360482,2.97212265008487,18.568,724.787703790892,724.787916627704,4.86651976908202,0,114.689729344092,0,12.233807374924,0,3.09646296179483,0,74.4545034454707,0,22.0026169166616,0,27.9310162156878
-0.633443,35.696881,DZA,"Oran - Algeria",TRUE,725.418,13680.5691624158,63.5150657543658,9924131120.66136,46074971.9694005,DZORN,Oran,AI,255.6159,10,431.051269931871,725.418,79374.4428307081,83285.2704810643,2.7576211854208,467.223451620921,725.418,89058.3312933874,99126.4374939961,2.66401366240753,0,1397.96607075022,0,22.4327688591639,0,1225.3537225215,0,23.9607528656851,0,180.916933946338,0,62.3579152962456,725.418,52440.3308000456,55532.7602694005,3.66267585578358
-0.34739,35.5365906,DZA,"Kouribga - Morocco",FALSE,90.859,13775.9879587745,55.3395627750259,1251672489.94629,5028097.33417608,,,,0,10,268.364228500655,90.859,5051.8932855607,11125.9428083155,3.37859746173254,318.375250507548,90.859,6448.74390110845,12039.2077466383,3.14000372149401,90.859,3518.03380997535,5028.09733417608,5.80870220999873,0,772.637919854629,0,12.3948452139675,0,20.3889762932133,0,76.3012071264207,0,327.556696541362,0,19.0364462121695
0.05872,6.15661,GHA,"Zagora - Morocco",FALSE,34.381,3953.2102,38.8969776080709,135915319.8862,1337316.98714309,,,,0,14,305.533448244415,34.381,2300.81688527894,2853.69606026722,3.19590051873248,292.264643840988,34.381,2159.41271665819,2933.10272506467,3.25729559960725,34.381,963.559923300325,1337.31698714309,5.68304956986014,0,31.2588472836477,0,31.5525404573232,0,32.6422779119607,0,30.8766789820454,0,139.536623615518,0,14.9340191701052
0.36174,12.0579901,BFA,"Mazabuka - Zambia",FALSE,73.2,1564.24563399205,22.6391773750371,114502780.408218,1657187.78385272,,,,0,13,201.985268750882,73.2,2712.09276247827,4093.1795403038,3.81613982643516,209.123575934781,73.2,2850.04758581997,4439.7166234481,3.75975900070902,73.2,1181.77886254231,1657.18778385272,7.28734824260961,0,149.8751744532,0,20.4631638988935,0,247.608216362612,0,15.920441504159,0,18.2864384594684,0,58.5831974399407
0.3068,35.7280197,DZA,"Kassala - Sudan",FALSE,468.678,13822.566,55.9459393267844,6478332587.748,26220630.9517987,,,,0,10,379.187334912591,468.678,42700.3136221138,45125.0033156921,2.91336813983777,405.635978527287,468.678,47017.9202695086,48865.9477050675,2.83038596092462,0,1285.28041412866,0,17.4521878779566,468.678,24868.5291931662,26220.6309517987,3.96756247496224,0,50.614899393732,0,87.9446927913096,0,415.899947162845,0,30.6799319484367
0.17407,26.7181301,DZA,"Asamankese - Ghana",FALSE,20.402,13754.6295522982,35.5508752420232,280621952.125989,725308.956687758,,,,0,10,237.17140906624,20.402,950.82050921333,1255.03932405587,3.56233354792509,248.719423258535,20.402,1017.64143371949,1325.88026801151,3.49048445805448,20.402,682.680747460912,725.308956687757,4.86439722891057,0,30.2076236916471,0,23.1248850863639,0,5.3469686851103,0,54.9647240572692,0,6.13048296095972,0,51.3322766963808
1.0877,26.958849,DZA,"Kherrata - Algeria",FALSE,18.598,13747.3415581596,37.6662944731761,255673058.298652,700517.744612129,,,,0,10,283.666429867144,18.598,1119.32755933398,1267.72427368949,3.29924854811866,291.444722926517,18.598,1163.43042208876,1318.07241854716,3.26121978502368,18.598,700.517738711495,700.517744612129,4.47342472276455,0,29.717187482634,0,21.7193015405592,0,4.44385223847542,0,56.1655365106543,0,5.19192449148779,0,51.9619608864718
2.101906,34.108919,DZA,"Aflou - Algeria",TRUE,114.592,13822.566,42.5694418617965,1583955483.072,4878117.48182698,,,,0,10,326.951728214307,114.592,8447.98993453616,9382.36357050591,3.10443513218402,349.051356309981,114.592,9275.40642844112,10196.8894794156,3.0186219195208,114.592,4074.2977532768,4878.11748182698,4.77547081081926,0,633.055670127395,0,12.1149499947725,0,15.9761081921483,0,76.261805615694,0,63.8690725081325,0,38.141456537973
3.666624,32.483817,DZA,"Ghardaïa - Algeria",TRUE,210.733,13822.566,54.3332823474776,2912870800.878,11449815.588931,,,,0,10,370.260615383254,210.733,18557.0360533637,19656.3030382781,2.94326588947032,385.853502499455,210.733,19683.4565596408,20856.939290826,2.89168958559303,0,685.72805979553,0,15.9478080201903,210.733,10445.4292958099,11449.815588931,4.0861453624463,0,40.1671370792286,0,65.8933399718472,0,93.9400948029891,0,43.087516532189
0.20933,10.8734493,TGO,"Al Manāqil - Sudan",FALSE,58.071,1468.95664149522,31.2532292472104,85303781.1282692,1814906.27561475,,,,0,16,279.853582742423,58.071,3428.1075738425,4001.54309641116,3.31843851963903,286.337853662177,58.071,3542.13997140615,4259.24051210361,3.286021439913,58.071,1310.78318465905,1814.90627561476,5.92339976377335,0,214.001743442291,0,14.6597923721537,0,102.888893204511,0,21.1422998536896,0,18.3689609017878,0,50.0373364164897
0.05048,5.7687697,GHA,"Ténès - Algeria",FALSE,37.402,3953.2102,53.4407004820401,147857967.9004,1998789.07942926,,,,0,14,151.185372782733,37.402,916.135738741813,5155.18851840923,4.32058762376598,167.644754431824,37.402,1061.87742528731,5797.65998728485,4.1334096430317,37.402,716.137728929191,1998.78907942926,11.7607912578237,0,132.512676695233,0,27.3404782030413,0,72.5332010037458,0,36.9544206539663,0,861.63143416374,0,10.7219567674625
0.77777,18.9019699,MLI,"",FALSE,0,2285.3071,12.4608224567388,0,0,,,,0,9,70.7267646680209,1e-06,8.27450774340488e-06,380.927729148486,7.08234204983723,80.5750269228544,1e-06,9.96834636569542e-06,461.677409123805,6.49167847571736,1e-06,106.021515425231,1.24608224567388e-05,13.5465688119571,0,19.2311680354199,0,31.8070567385467,0,20.0747485035378,0,31.1315868447033,0,5.40183113897958,0,60.0144483718063
1.4786099,14.2064199,NER,"Namakgale - South Africa",FALSE,19.262,902.661251353596,18.3109624941318,17387061.023573,352705.759561966,,,,0,15,107.953522422328,19.262,291.611743912679,699.38565986242,4.99150181313397,124.621706895209,19.262,358.002668718857,724.886183505603,4.69360844655453,19.262,159.327404535973,352.705759561967,10.0114394461719,0,15.9129069794107,0,31.678675041298,0,71.4582154149369,0,14.949121919522,0,3.45521111641751,0,67.9836512438585
0.46922,10.3394394,TGO,"Hamma Bouziane - Algeria",FALSE,34.791,1791.52743346508,23.7423490738048,62329030.9376835,826020.066626741,,,,0,16,210.574902998141,34.791,1368.04006789628,1963.0489558001,3.74863146911436,231.44217353233,34.791,1565.74674422645,2255.12575602201,3.59986269594459,34.791,591.226999152761,826.020066626743,7.03062912260091,0,143.191565262566,0,14.2860643081254,0,59.0338345002951,0,22.2495290778837,0,12.4142688934999,0,48.5188780433186
1.14132,9.47579,TGO,"Cacongo - Angola",FALSE,33.327,1373.44357100469,23.4389778775196,45772753.8908734,781150.815724097,,,,0,16,196.560576468802,33.327,1187.67955671146,2120.1114969992,3.86092531094496,231.30633174064,33.327,1498.60291368224,2596.04823141352,3.6007685980755,33.327,748.595053866015,781.150815724096,6.70545285474837,0,157.799453646195,0,14.6049085978646,0,39.7296147855539,0,29.1067969049107,0,22.3350425569326,0,38.8202387162518
0.59562,6.0068398,GHA,"",FALSE,0,3953.2102,37.1738924725988,0,0,,,,0,14,209.233719697122,1e-06,3.89643750466531e-05,1098.95919227148,3.99228995713817,270.102771257883,1e-06,5.6116751291771e-05,1300.65862582456,3.51574577825918,1e-06,92.977167564333,3.71738924725988e-05,13.1495524151223,0,28.5532840451989,0,23.7285443162692,0,10.5332598717621,0,39.0676900306789,0,318.021328389635,0,7.11002292936734
0.50771,7.5739598,GHA,"Kayanza - Burundi",FALSE,11.503,3218.33666164992,33.5632575458883,37020526.618959,386078.151550353,,,,0,14,138.242464078925,11.503,247.941922180619,1290.44154759053,4.48952783493584,166.45799661887,11.503,323.283174968219,1539.02610519914,4.14601363471364,11.503,386.078154660142,386.078151550353,8.27782238453044,0,47.6894715838808,0,23.5527957074559,0,32.8936956128438,0,28.3594227312135,0,48.1704380727204,0,23.4349171398352
0.470198,6.611847,GHA,"Ho - Ghana",TRUE,183.715,3893.07070546691,38.4335396256206,715215484.654853,7060817.73232089,,,,0,14,295.297211212347,183.715,11710.249432622,15997.9773740379,3.2429171781745,312.303994513287,183.715,12685.4659041638,18118.6738220296,3.16602087648466,183.715,5325.28674353038,7060.81773232089,5.83990091658698,0,250.029311756398,0,26.9514115136731,0,180.072173675059,0,31.7580387673389,0,1049.73721942329,0,13.1533591841179
0.14396,34.7495003,DZA,"Meknès - Morocco",FALSE,128.413,13832.7356266939,48.9472390691589,1776303080.03064,6285461.8105879,,,,0,10,355.486935233707,128.413,10668.9671076661,12653.4462528527,2.99507912872191,364.047045078825,128.413,11037.8640817531,13632.2117864218,2.96469145076567,128.413,4731.38246193098,6285.4618105879,5.0323244674672,0,1018.13044546436,0,10.8482816228564,0,20.4640041912603,0,76.5186602380509,0,133.174960813642,0,29.9951732719374
1.316772,35.366641,DZA,"Tiaret - Algeria",TRUE,273.948,13822.566,52.0993930151733,3786664310.568,14272524.5177207,,,,0,10,371.025525269653,273.948,24194.9417870177,26143.0045185136,2.94066384145301,394.192595609019,273.948,26381.6945010781,28732.1899203242,2.86531220598933,0,1404.82086971835,0,12.958234618628,273.948,12487.2404935921,14272.5245177207,4.34633378749634,0,33.0802804532944,0,84.4445690910297,0,211.031239642689,0,33.4335843845626
0.83412,11.1550198,BFA,"Missour - Morocco",FALSE,13.579,1539.16365357952,21.9358482617815,20900303.2519562,297866.88354673,,,,0,13,193.948237585824,13.579,474.755516571191,1058.4956767891,3.8831275124945,221.737435832893,13.579,574.83869708257,1223.75728260694,3.66656052501215,13.579,297.866902898064,297.866883546731,7.43182331995802,0,87.8682610317476,0,13.6832886041195,0,34.4994602772785,0,21.8373710949717,0,6.13052685470223,0,51.8033222001102
1.064238,10.697912,BEN,"Matéri - Benin",TRUE,260.509,1341.27023884108,22.6149908758556,349412968.65025,5891408.65807827,,,,0,17,232.201142161561,260.509,11779.0036117129,13851.7171863106,3.59481519623885,246.294312682068,260.509,12813.4401061058,14902.1647452893,3.50517263434042,0,1408.79458787324,0,11.4001418496027,260.509,3572.49737553465,5891.40865807827,7.15893028465893,0,258.394554427755,0,26.619041566212,0,75.6114204947592,0,49.20853035417
1.331625,36.164677,DZA,"Chlef - Algeria",TRUE,575.939,13822.566,54.0496792570843,7960954839.474,31129318.2216458,,,,0,10,380.964597817913,575.939,52824.3452141487,53336.1440237994,2.90753549469326,400.104717280262,575.939,56656.1493474142,57212.327627478,2.84708967051463,0,1299.63229006404,0,18.8901631002408,575.939,30516.8704076951,31129.3182216459,3.89830627871572,0,57.3952802018493,0,89.889272304753,0,435.716365369678,0,32.6245115545257
