lon,lat,iso3c,city_country,city_port,population,gdp_cap,IWI,gdp,wealth,port_locode,port_name,port_status,outflows,ctry,uj_orig,Lj_orig,Cj_orig,Dj_orig,PCj_orig,uj,Lj,Cj,Dj,PCj,Lj_1,Dj_1,Yj_1,Pj_1,Lj_2,Dj_2,Yj_2,Pj_2,Lj_3,Dj_3,Yj_3,Pj_3,Lj_4,Dj_4,Yj_4,Pj_4
-17.446713,14.692814,SEN,"Dakar - Senegal",TRUE,3223.755,2287.6685,70.2606002240275,7374882765.2175,226502961.27521,SNDKR,Dakar,AI,2417.263262,1,721.715994806156,3223.755,736583.705275781,751126.092487221,2.21107917325514,737.920643227041,3223.755,760323.287042061,774522.128224097,2.19013777861519,0,582.788977251797,0,264.740125565155,0,909.093267371552,0,196.828671966363,0,190.110863395241,0,558.670878470732,3223.755,315062.640763281,315941.70196921,3.98929406471772
-17.044529,14.7029696,SEN,"Yaoundé - Cameroon",FALSE,505.227,2302.16270413245,52.2935947198641,1163114756.52073,26420135.9795328,,,,0,1,510.998132833601,505.227,70491.4762553799,130062.112191009,2.56370002321648,541.176418263341,505.227,76513.1292139884,140103.636417293,2.5014250355585,0,838.660809569931,0,75.8745620947767,505.227,24666.4526383455,26420.1359795328,7.96310849763867,0,77.9418881386797,0,369.805315025705,0,760.105403366836,0,81.0160783678591
-16.6384888,15.1122198,SEN,"Dzolokpuita - Ghana",FALSE,74.508,2361.8791047779,42.0766985704881,175978888.338792,3135050.65708993,,,,0,1,492.018869622996,74.508,9848.51474408422,16930.1485037226,2.60562520107522,514.707324255304,74.508,10503.6478464077,18320.7489145867,2.55576631504254,74.508,2499.81383545048,3135.05065708993,9.64298545855264,0,268.770314124122,0,42.6477140807552,0,14.1523522670485,0,303.573742149483,0,60.1479801735405,0,115.700683709586
-16.4633198,14.7565098,SEN,"Gusau - Nigeria",FALSE,113.325,2297.65604456748,38.0772661124075,260381871.25061,4315106.18218858,,,,0,1,469.0753632026,113.325,13991.5627641386,25045.3269557089,2.65950097450233,527.28177010357,113.325,16536.281001431,27097.5946536389,2.52946503786282,113.325,3171.10696247374,4315.10618218858,10.5724404584312,0,516.877698177345,0,35.4315903832191,0,20.4072088838782,0,305.58129672,0,96.4765722284599,0,108.484560173751
-16.4205399,14.3423595,SEN,"Chipinge - Zimbabwe",FALSE,18.416,2269.64499576379,37.4244716433748,41797782.2419859,689209.069784391,,,,0,1,204.477766849059,18.416,694.381119181863,6394.85237894453,3.79613398639988,271.404111702425,18.416,1040.56641005076,6229.56007586767,3.36232715792828,18.416,403.857221794172,689.20906978439,20.8349750551119,0,196.401652122966,0,33.6910693956135,0,6.87758826768542,0,314.765727924922,0,35.7386887879779,0,104.918597792953
-17.033333,20.933297,MRT,"Nouadhibou - Mauritania",TRUE,118,5196.45446473013,38.9206658183864,613181626.838156,4592638.5665696,MRNDB,Nouadhibou,AI,197.0295,2,794.718245620552,118,30940.2134273598,32264.4933347158,2.12163149561397,834.300686512012,118,33164.9704892707,34476.3655294697,2.07789229558119,0,60.8396881972018,0,142.291633342303,0,42.4766908330014,0,180.802140392029,0,15.2326423644792,0,358.195826155428,118,11613.2576588369,11882.7300665696,4.29208165670285
-16.8981705,21.2914486,MRT,"",FALSE,0,5538.53368337853,18.6296720206833,0,0,,,,0,2,104.437417135531,1e-06,1.44397535752754e-05,1982.05105299909,6.20442185167115,109.071690577537,1e-06,1.53637351932213e-05,2012.85110984735,5.65322402547767,1e-06,20.7084088332847,1.86296720206833e-05,119.510522011434,0,13.620204149777,0,158.021029133634,0,4.40435969385315,0,335.414715327911,0,200.480190912989,0,26.3101294472641
-15.978542,18.085588,MRT,"Nouakchott - Mauritania",TRUE,1440.712,3726.39485774327,41.8651880562521,5368661788.28902,60315678.8148991,MRNKC,Nouakchott,AI,334.524,2,538.104337227182,1440.712,216418.621568649,227519.126067126,2.50753611972217,570.810530884317,1440.712,235452.041960157,250488.628659972,2.44492045349299,0,749.342708736813,0,117.761433084304,0,329.390957878007,0,203.695901387649,0,171.49090623261,0,314.74778008115,1440.712,71432.7987045276,72693.0668148991,5.6431938482313
-15.67383,23.8871498,ESH,"",FALSE,0,7041.16211331411,31.3978211479454,0,0,,,,0,3,141.294144154094,1e-06,2.22374791507103e-05,3262.6062041615,5.25242125635938,165.384643404897,1e-06,2.78457190373167e-05,3278.87069602852,4.54662715076797,1e-06,216.653935399582,3.13978211479454e-05,27.8181223923843,0,58.8446206616623,0,66.3286292915693,0,6.13890956316373,0,299.303211889959,0,30.6510926315347,0,102.456982431523
-16.2439098,15.6356897,SEN,"Banikoara - Benin",FALSE,93.802,2287.6183979327,43.5760615586268,214583180.962884,4087521.72632231,,,,0,1,526.283948528531,93.802,13650.5146494969,19634.4762554685,2.53151916240318,593.308317385151,93.802,16200.2195391224,21825.8754624309,2.40474857091736,93.802,3684.70112998028,4087.52172632231,7.87255938228272,0,206.843594735648,0,53.6977480713223,0,15.636156025522,0,300.352183941385,0,68.2288856246487,0,112.479127488476
-16.577537,13.453171,GMB,"Banjul - Gambia, The",TRUE,976.753,1827.81084253539,39.6195599018914,1785319723.87897,38698523.9928521,GMBJL,Banjul,AI,184.275,4,556.922031189011,976.753,154108.923451231,164095.175554349,2.47086689881325,606.868227256174,976.753,174226.215816787,188568.523849735,2.38157185220878,0,935.309506717804,0,81.8853592818562,0,434.433040553956,0,136.52994841641,0,98.478382392194,0,367.239358860608,976.753,44260.7094898185,45516.6989928521,6.25889368201236
-16.2409897,12.7924099,SEN,"Quelimane - Mozambique",FALSE,91.883,2295.74090262069,36.7829540931087,210939561.355497,3379728.1709371,,,,0,1,423.233720148497,91.883,9794.27491281605,19087.3699102161,2.77933678140601,466.840144727138,91.883,11267.1011853773,21110.0587636187,2.66495087219692,91.883,2593.11344501988,3379.72817093711,10.7845283758999,0,69.0909021298696,0,120.893122084821,0,15.5318116770629,0,326.989714373564,0,389.085959259155,0,38.193119285675
-16.076402,14.138908,SEN,"Kaolack - Senegal",TRUE,187.932,2278.7640345833,45.3761239685572,428252682.54731,8527625.72965889,,,,0,1,580.370283039928,187.932,31450.7191654791,38329.3697163764,2.42757903020465,621.981281986217,187.932,34720.8854790394,48259.0521139911,2.35659688072158,187.932,8206.41994474273,8527.62572965889,7.67777413547014,0,354.84677820684,0,62.3223631521765,0,33.7937041670777,0,298.845892949814,0,207.93652409149,0,88.998762915929
-15.6096001,13.5730095,GMB,"Bria - Central African Republic",FALSE,70.315,1877.21348753621,26.69126049904,131996266.376109,1876795.98199,,,,0,4,325.861647574346,70.315,5159.11354497147,11069.957064415,3.10888165312695,340.619765762947,70.315,5496.11661641006,13375.804759836,3.0504220288558,70.315,1442.70584428119,1876.79598199,13.4623646042863,0,79.8180816076967,0,92.719771431137,0,13.796002002965,0,298.816364192975,0,188.555653316905,0,52.2733303700096
-16.50258,16.034409,SEN,"Saint-Louis - Senegal",TRUE,154.555,2616.38725725041,41.8228350121846,404375732.544337,6463928.26530819,,,,0,1,605.590988914271,154.555,27485.5652090984,27843.4746941046,2.38372311208861,645.462610249488,154.555,30106.7740373447,30349.0976155033,2.3194657643508,154.555,6443.95672295529,6463.92826530819,6.51703537003803,0,155.724187633469,0,77.9676490741112,0,20.5252700342952,0,301.041176391125,0,89.0515698243584,0,113.168120234787
-15.804984,16.512799,MRT,"Rosso - Mauritania",TRUE,159.231,3119.63824766881,37.3432812371366,496743117.814552,5946208.0146705,,,,0,2,438.449261420123,159.231,17851.623503567,29343.6882404284,2.73758254673323,434.053682470636,159.231,17596.5057743609,33812.5676349981,2.74943003098296,159.231,5326.46220342368,5946.2080146705,9.42617589903344,0,165.534451424349,0,95.3606443207192,0,35.656096516239,0,265.382475858302,0,225.896984511434,0,77.509419398072
-15.883334,14.866839,SEN,"Touba - Senegal",TRUE,597.23,2294.61226912889,41.7294708957356,1370411285.49184,24922091.9030602,,,,0,1,577.159905648135,597.23,99158.5146562473,110862.337911488,2.43335580505096,629.989414060222,597.23,112374.746307659,132065.912049454,2.34371167880455,0,1410.12972816865,0,48.3346554420258,597.23,22606.9907957535,24922.0919030602,7.60214537458023,0,96.6115781787061,0,288.676803922291,0,320.966619084018,0,129.655644253039
-15.575626,11.856113,GNB,"Bissau - Guinea-Bissau",TRUE,503.968,1367.43735056953,29.1359647460553,689144666.691825,14683593.88114,GWOXB,Bissau,AI,114.309,5,498.236431843018,503.968,67820.6309734127,71464.3377296894,2.59163962191153,532.722789126538,503.968,74625.0079248663,78527.2952964526,2.51836042178461,0,481.307914922105,0,75.1939635184208,0,124.415746949533,0,185.302557014861,0,48.6874778561321,0,346.353936622142,503.968,18278.9538421202,18913.02688114,6.65524559539844
-15.65446,14.4204092,SEN,"",FALSE,0,2255.07749469541,31.0289501068166,0,0,,,,0,1,190.366850415976,1e-06,3.40438479169376e-05,1999.15581395124,4.48174773196063,268.726152746876,1e-06,5.57086161269788e-05,1657.19817487108,3.57595558178916,1e-06,108.976103407061,3.10289501068166e-05,21.9493111718345,0,44.4771888318111,0,39.8917901962433,0,2.25924920839681,0,290.847715608243,0,10.6782347169857,0,103.270300022727
-15.5441999,14.1010094,SEN,"Debre Zeyit - Ethiopia",FALSE,69.357,2287.6685,33.2273419593215,158665824.1545,2304548.75627266,,,,0,1,498.958420399317,69.357,9352.92728456621,10944.291880549,2.59003217666239,558.445137226924,69.357,10985.7012077554,13024.8922513488,2.46797678933584,69.357,2106.21428795762,2304.54875627266,8.31486994468093,0,113.508067132154,0,58.2781842039833,0,10.9411936148203,0,277.213278348931,0,48.5512811177734,0,102.657346401669
-13.9632597,17.0292988,MRT,"Fritissa - Morocco",FALSE,15.521,3680.26830758623,24.3321127914395,57121444.4020459,377658.722635932,,,,0,2,91.7543629319056,15.521,186.273797535699,5197.29580388121,5.35171149314001,104.662837420007,15.521,224.810798807881,6501.01462828764,5.05816601124361,15.521,353.050110918333,377.658722635932,35.2714195586203,0,55.4223815601932,0,121.205888171964,0,20.8937018538887,0,232.257766537126,0,127.179425919445,0,69.668415870274
-15.945537,23.708077,ESH,"Ad Dakhla - Morocco",TRUE,106.277,6999.25678566019,41.685948396546,743860013.409608,4430257.53773972,,,,0,3,534.010373321921,106.277,15791.320758326,17119.4077326705,2.51575616211929,579.578780402722,106.277,17750.9839454743,18941.5217636629,2.42899920674163,106.277,4132.0555511487,4430.25753773972,6.70285540674529,0,91.4653457069925,0,85.0223092597178,0,12.6450809175003,0,317.996891607116,0,53.7733676952583,0,121.150662316982
-14.2343597,16.6268101,MRT,"Had Zraqtane - Morocco",FALSE,10.415,3292.61139046978,26.1754116436426,34292547.6317428,272616.912268538,,,,0,2,215.950852548138,10.415,424.552720215382,1154.33482009698,3.7083489517411,231.850537089183,10.415,469.902336081544,1449.78907638307,3.59714398670045,10.415,167.62861410949,272.616912268538,15.1563839854378,0,9.73136513725415,0,101.090852708424,0,2.51702863214015,0,249.020788380117,0,12.3093170822697,0,86.4314368133943
-13.9593992,16.1129189,SEN,"",FALSE,0,2493.74395561908,28.4022929330901,0,0,,,,0,1,129.89268786907,1e-06,1.97190653453041e-05,442.820734887479,5.49826384823778,141.216676885871,1e-06,2.22200638667478e-05,2911.76789907278,4.93107073399576,1e-06,128.92702147108,2.84022929330901e-05,39.3988096550122,0,71.0931961534665,0,58.5904782441333,0,9.05969997925589,0,231.367946155214,0,27.0154333482497,0,111.678895339889
-13.203346,27.153675,ESH,"Laâyoune - Morocco",TRUE,217.732,7166.58209753815,43.2531834575172,1560394253.26118,9417602.14057214,,,,0,3,579.304502426985,217.732,36342.2432646133,45299.8055212697,2.42949182865308,623.002379936257,217.732,40320.881617124,49096.2958845206,2.3549407145554,0,449.959565078452,0,53.772902369965,217.732,8531.92260000323,9417.60214057213,7.56219466382897,0,47.5605067522057,0,240.536777307954,0,117.4503398663,0,131.656696670853
-14.2115793,13.3027792,GMB,"Tarkwa - Ghana",FALSE,61.291,1770.86443929862,23.1067512092836,108538052.349052,1416235.8883682,,,,0,4,381.036440616501,61.291,5623.04203839813,6861.72735833709,2.90730065526785,403.186447459221,61.291,6095.75685681839,7626.72376287506,2.83774284656165,61.291,1309.74001277457,1416.2358883682,9.18491168553969,0,27.9815887579167,0,119.293506061947,0,7.67628778220112,0,282.551456910891,0,52.0738003152975,0,78.8470651833454
-15.3329,12.0479898,GNB,"",FALSE,0,1367.45133840083,18.1778592380354,0,0,,,,0,5,145.562362620034,1e-06,2.32032993870706e-05,1718.7686535257,5.1686590001568,154.250806732935,1e-06,2.52068636596213e-05,2111.42562238086,4.71140678544699,1e-06,98.7506667232796,1.81778592380354e-05,36.2945238685789,0,12.1892281742115,0,146.403117371238,0,4.0052572961229,0,307.45449701822,0,80.4704969618169,0,41.6015972282641
-13.6763992,13.7135201,SEN,"Khénifra - Morocco",FALSE,78.8,2287.6685,28.5775553827832,180268277.8,2251911.36416331,,,,0,1,421.229865742889,78.8,8342.93583600461,10390.6292715765,2.784996226037,465.6661511963,78.8,9628.11054130589,11903.9652115746,2.66782821106958,78.8,2185.42563014825,2251.91136416332,8.25901532737771,0,71.0092027681813,0,81.1102741664255,0,13.5787987518957,0,244.368220250429,0,36.8992625656564,0,125.489436043492
-14.8474998,12.0527,GNB,"Misséni - Mali",FALSE,54.756,1394.43121299449,18.6469722659379,76353475.4987265,1021033.6133937,,,,0,5,325.997396104762,54.756,4019.91826629058,5230.68359391857,3.10832674828511,329.493512432688,54.756,4081.64677698393,5971.42636848636,3.09414886991518,54.756,899.230962630702,1021.0336133937,10.9314831876786,0,24.4059717809586,0,121.040076686317,0,6.85969792723066,0,282.091456351677,0,50.2203156329709,0,74.8181503489588
-14.299376,10.940929,GIN,"Boké - Guinea",TRUE,116.27,1146.57562365401,27.5929884020649,133312347.762251,3208236.76150809,,,,0,6,437.846423880929,116.27,13009.6060615155,14227.7864402152,2.73919792272655,475.583013613441,116.27,14640.5141386879,15877.2086024503,2.64384334920721,116.27,3022.11926281777,3208.23676150809,7.98995046523844,0,74.1669811022599,0,94.6116794488617,0,16.6965120928382,0,255.663059826873,0,60.1698546431729,0,108.767507991999
-13.3009596,12.4839897,GIN,"Kalfou - Cameroon",FALSE,13.99,1189.02775135884,23.7319650851646,16634498.2415102,332010.191541452,,,,0,6,340.282443902641,13.99,1091.97062151441,1750.40890074177,3.05171768902855,334.925365550467,13.99,1067.49524614574,2042.83962031423,3.07254213904426,13.99,312.811346637492,332.010191541453,10.7349253713002,0,13.007207858999,0,89.4399010830279,0,2.7751862128989,0,250.491280655774,0,9.84414470538258,0,107.696610950165
-13.6282301,10.0732899,GIN,"",FALSE,0,1176.62521698137,26.8793431772143,0,0,,,,0,6,122.171624266837,1e-06,1.80661585675764e-05,1143.77715503937,5.68626122458153,145.106411028082,1e-06,2.30995394819066e-05,1370.03936729826,4.86210414144819,1e-06,83.0441713124049,2.68793431772143e-05,31.5094036005357,0,19.820871122889,0,81.890048682333,0,3.28239740423526,0,271.551485418181,0,16.605269842405,0,92.1472396186733
-13.1784992,11.1257696,GIN,"",FALSE,0,1125.84335585272,17.2149499541175,0,0,,,,0,6,244.795303019581,1e-06,4.8759072511464e-05,258.371343231503,3.93483968503754,227.167133367442,1e-06,4.38215223081087e-05,460.473402836329,3.88040470030413,1e-06,42.8841931538202,1.72149499541175e-05,18.8863727009258,0,6.11617639733765,0,69.1873538075019,0,1.00751729009682,0,230.23873558665,0,2.68890309842156,0,119.663938329798
-13.0830994,11.79953,GIN,"Bethlehem - South Africa",FALSE,7.461,1135.4866,20.8461390559678,8471865.5226,155533.043496575,,,,0,6,277.043734607838,7.461,434.141605412867,809.201357031336,3.33282175634231,277.760228683592,7.461,435.746469041705,958.076818852369,3.32913396652748,7.461,123.688748765173,155.533043496576,13.0330089508747,0,8.42768676961301,0,78.1254569224148,0,1.57332545607262,0,239.176837432862,0,4.72224081602515,0,114.94746774707
-13.8246593,13.3325996,SEN,"",FALSE,0,2141.07888826552,23.0399064754911,0,0,,,,0,1,183.46627649261,1e-06,3.22947099110648e-05,418.705410526038,4.56942282290342,171.782570432202,1e-06,2.93972623282663e-05,537.663759971318,4.45991179825569,1e-06,47.1235386094327,2.30399064754911e-05,22.6034560224729,0,5.43005337256417,0,95.4547143142016,0,1.21695257538731,0,258.712661107663,0,4.86295823468054,0,102.738468497775
-13.7090893,13.0267,SEN,"",FALSE,0,2287.6685,21.3110377398114,0,0,,,,0,1,170.089951616101,1e-06,2.89843391709951e-05,206.327444882874,4.75570606440959,176.849962257129,1e-06,3.06438869493687e-05,215.230194960245,4.39487497238972,1e-06,19.1988656477847,2.13110377398114e-05,22.0139649310502,0,2.02808813294497,0,98.5123724061337,0,0.468211851330373,0,261.770320523841,0,2.0623602630165,0,97.4179467229708
-11.400062,16.629969,MRT,"Kiffa - Mauritania",TRUE,110.714,3692.66927840016,24.5103198098448,408830186.488796,2713635.54742716,,,,0,2,353.198710519404,110.714,9114.00887908695,11462.7606016102,3.0033797615542,333.00878917325,110.714,8378.96324832973,14551.9357235938,3.08010835479406,110.714,2713.63554582783,2713.63554742716,9.43652639596609,0,63.9730990970796,0,114.775251213556,0,31.5360715561129,0,183.925287138484,0,36.1688499697674,0,167.863667563425
-12.2216101,14.4544096,SEN,"Sidi Redouane - Morocco",FALSE,20.065,2223.952360451,30.4239054818422,44623604.1124494,610455.663493164,,,,0,1,242.003311662995,20.065,962.449128431478,3423.64041856253,3.53167430625083,247.213812723092,20.065,992.188303501519,3568.64815016253,3.499579271566,20.065,500.89089700294,610.455663493164,12.9575501165477,0,26.2826114828836,0,92.4498003097059,0,7.96397170084365,0,204.926686760334,0,13.3064407986967,0,145.538217541654
-13.712215,9.509116,GIN,"Conakry - Guinea",TRUE,1667.864,2150.37966857964,47.7173443768735,3586540835.55592,79586040.8617897,GNCKY,Conakry,AI,676.60790476,6,539.643928845283,1667.864,251565.258003858,257976.936856085,2.50446761429927,563.61706191872,1667.864,267681.016151094,274753.909983471,2.45824540135236,0,336.528870144451,0,214.736697816653,0,245.315237812928,0,265.11734285651,0,109.189642770474,0,454.778779556866,1667.864,103921.360216799,104620.53333791,4.70021735585516
-13.5013895,9.7055101,GIN,"",FALSE,0,1177.39094451741,47.8186094627483,0,0,,,,0,6,76.6988040626322,1e-06,9.29040695705791e-06,6663.11130191525,7.40706285107738,85.1050082099206,1e-06,1.07785005061774e-05,7974.79335139094,6.48149212674614,1e-06,207.032339879612,4.78186094627483e-05,73.9257653427807,0,94.9492735996103,0,124.306410390915,0,23.6539771242285,0,313.967847135515,0,291.503197040352,0,58.8471916364852
-12.1095896,12.6156893,SEN,"Ādēt - Ethiopia",FALSE,11.216,2258.58745277728,29.7127985122773,25332316.87035,333258.748113702,,,,0,1,262.586618059497,11.216,604.534801147576,1907.38497031793,3.41025850193626,318.92652266832,11.216,798.028714137993,2164.14751620856,3.13767647774269,11.216,325.528478254451,333.258748113702,11.0936231679088,0,16.4222714038177,0,81.2538446269148,0,3.63239339897702,0,222.162534328833,0,7.72467323079303,0,134.3422620643
-12.9784594,10.6564093,GIN,"Bawku - Ghana",FALSE,30.311,1134.95099453162,19.5251633744116,34401499.5952479,591827.22704179,,,,0,6,345.554231060013,30.311,2418.41933733392,3030.87688185389,3.03167689392035,292.887747228172,30.311,1909.58385165424,4349.73230427883,3.25432390672719,30.311,389.837532352944,591.82722704179,16.24975047301,0,79.3355952928871,0,46.9667389077618,0,7.01542544214022,0,236.628175640444,0,22.1267976417146,0,110.024673494149
-12.854191,10.049703,GIN,"Kindia - Guinea",TRUE,181.126,1272.4382327917,31.7736110513414,230471647.35263,5755027.07528526,,,,0,6,431.903238424794,181.126,19874.5911510792,28646.8648164251,2.75528867692501,443.56376820008,181.126,20645.5382032919,33532.1961898377,2.72400996448663,181.126,4749.69190540639,5755.02707528526,10.0247387714168,0,321.115717394484,0,60.4053838899199,0,38.123338711786,0,250.066820716369,0,142.55456599211,0,103.799661300187
-12.7595196,8.4948397,SLE,"",FALSE,0,1525.79033972791,18.3068914371631,0,0,,,,0,7,85.1585453086629,1e-06,1.07881881587031e-05,6382.84482725295,6.96922492606903,107.169621896314,1e-06,1.49824222604333e-05,8504.56966682826,5.70721692563325,1e-06,161.340018254871,1.83068914371631e-05,80.2351263423116,0,234.770974999919,0,62.4831630126838,0,23.1916296772677,0,292.396226691125,0,210.351831126954,0,67.2297883655987
-13.234314,8.484392,SLE,"Freetown - Sierra Leone",TRUE,1035.246,1636.18751938735,51.9455928614036,1693856584.69567,53776467.2273966,SLFNA,Freetown,AI,292.305,7,558.038404253164,1035.246,163805.699215438,170116.383543181,2.46874768576824,587.484572497742,1035.246,176291.919062717,184119.684719076,2.41493620670026,0,232.6756833626,0,206.603882517971,0,266.242027522531,0,188.851919194052,0,80.6312101394232,0,418.76498279305,1035.246,63931.5101176614,64591.7522273966,4.88835235824342
-11.6982899,26.7553997,ESH,"Malakal - South Sudan",FALSE,57.035,6390.125709182,25.1492270818786,364460819.823195,1434386.16661495,,,,0,3,381.571773798614,57.035,5243.08756443092,8390.36412920828,2.90555178104389,462.49163135258,57.035,6901.00445434626,10158.9315830425,2.67566079468439,57.035,1249.40107404918,1434.38616661495,10.8192004812576,0,163.111262303617,0,42.0410713832127,0,16.0092138791405,0,197.583073625446,0,24.4725263670313,0,148.894000147859
-11.1610899,28.4597492,MAR,"Kukawa - Nigeria",FALSE,73.209,6295.70213058728,39.2491173607986,460902057.278165,2873388.6328667,,,,0,8,527.544116004838,73.209,10690.1844933386,14221.6429586053,2.52892590328535,560.789187813348,73.209,11665.428547472,15929.8701369129,2.46355036461534,73.209,2608.41416179237,2873.3886328667,8.23098677305166,0,139.57901748055,0,57.9637103536433,0,19.7442277120701,0,213.505713310654,0,43.0945562075336,0,126.888225307561
-12.283231,11.316916,GIN,"Labé - Guinea",TRUE,127.747,1146.98337636056,35.8287216279254,146523685.379933,4577011.70180259,,,,0,6,483.064875698058,127.747,16448.4065405196,22097.8345076216,2.62621571391225,552.142716244683,127.747,19908.8661651168,25041.2678498302,2.48001079240624,127.747,4207.73659689991,4577.01170180259,8.14439351364522,0,218.882705063258,0,58.4453747072709,0,30.0742296379911,0,219.496755652943,0,62.8408376184829,0,134.296019075486
-12.08277,10.383497,GIN,"Mamou - Guinea",TRUE,376.269,1135.61305456118,26.8662514052221,427295988.426679,10108937.5499915,,,,0,6,443.883690994413,376.269,42932.9936647055,57649.0627549824,2.72316835579215,494.465597108542,376.269,50089.1745899904,64256.0973283297,2.60009181508259,0,889.436328716045,0,45.101225055831,376.269,8471.61345881397,10108.9375499915,10.0373906138292,0,95.4627847773648,0,199.698827580991,0,164.609873500204,0,138.876147578796
-11.74007,7.956451,SLE,"Bo - Sierra Leone",TRUE,249.807,1496.9442,25.5146367561591,373947139.7694,6373734.86414584,,,,0,7,413.905766841278,249.807,25793.7741189958,35580.8516728341,2.80601014479096,471.923050418172,249.807,31110.0132886195,39877.1676682727,2.65261143696138,0,447.781790079147,0,52.8987677259639,249.807,5257.74450336722,6373.73486414584,10.2397696865714,0,42.3141735212989,0,254.975977736644,0,179.467858460444,0,97.3117733947605
-10.971644,8.643743,SLE,"Koidu - Sierra Leone",TRUE,300.387,1517.04766003136,22.0121301485176,455701395.453841,6612157.73892276,,,,0,7,404.711329969097,300.387,30036.8313023453,35187.446408199,2.83315558697982,451.562093343592,300.387,35124.8339330604,40936.2854177867,2.70322609895604,0,430.550842266517,0,56.3125288789474,300.387,6038.0216319414,6612.15773892276,9.68333336158973,0,49.058195018277,0,239.596397094444,0,128.250912358099,0,126.254737826429
-10.8695793,12.6057196,MLI,"Kawambwa - Zambia",FALSE,10.832,2285.3071,24.4574447781555,24754446.5072,264923.041836981,,,,0,9,68.6609865154559,10.832,85.9131696861147,3502.47220752131,6.05978185101433,99.5748356715439,10.832,146.112605125968,3736.26959111538,5.1673587112006,10.832,265.09501272748,264.92304183698,30.1503974794399,0,37.4410029053932,0,111.172088850159,0,31.8114818888956,0,123.928582200298,0,17.1592983759099,0,187.022732245273
-11.432892,14.449705,MLI,"Kayes - Mali",TRUE,174.373,2363.01954108217,36.6490483544719,412046806.437122,6390604.50871433,,,,0,9,433.961833208539,174.373,19264.0125857718,23221.0417186182,2.74967862364927,508.696126695831,174.373,24172.8597832984,26199.6894525228,2.56866622117354,174.373,6310.17145150991,6390.60450871433,6.6355612811999,0,70.4099040897449,0,132.887031173691,0,46.7215326666463,0,174.673511958965,0,42.5279286382211,0,185.975449054729
-11.8790693,12.8341799,SEN,"",FALSE,0,2287.6685,30.2988245952444,0,0,,,,0,1,102.204459818439,1e-06,1.40007343960438e-05,1167.73047497644,6.28031541951255,127.747231350273,1e-06,1.92554278498731e-05,1173.11767422969,5.1964405104423,1e-06,88.1633514095446,3.02988245952444e-05,29.1793054783731,0,14.035160386573,0,99.3395275858525,0,5.23591083528289,0,191.692675795787,0,7.38420291035054,0,152.427945999656
-11.5879192,10.1457901,GIN,"",FALSE,0,1178.37874359219,21.1600028678453,0,0,,,,0,6,268.422828978301,1e-06,5.56188079752171e-05,725.287664550196,3.75451608867624,258.117461697284,1e-06,5.2593613996036e-05,1437.08406771725,3.64625640068354,1e-06,56.4598047707989,2.11600028678453e-05,31.5507052993462,0,72.7243636514097,0,26.6511139748846,0,3.69753350772476,0,194.190171169138,0,5.16059566218212,0,155.489870159601
-9.299825,10.383689,GIN,"Kankan - Guinea",TRUE,198.013,1153.17201735961,31.112356240142,228343050.673428,6160650.99617924,,,,0,6,482.139398107466,198.013,25425.9421760186,31520.5299866481,2.62837488807891,513.651201393834,198.013,27832.7813344322,34030.4696188322,2.55801710660582,198.013,6098.56221634957,6160.65099617924,8.04755154115872,0,257.505360883109,0,66.3678714902655,0,67.1214635273764,0,162.645153970062,0,51.0482984824164,0,195.206627738002
-11.3188601,7.3100801,SLE,"",FALSE,0,1344.94827331861,15.4784810906556,0,0,,,,0,7,141.244172829067,1e-06,2.2226244714077e-05,4808.48083252992,5.2534283655438,158.410783795135,1e-06,2.61835928474141e-05,5750.24085484972,4.64763311514399,1e-06,228.180772204869,1.54784810906556e-05,39.9487471947185,0,131.11355790175,0,57.7995059576404,0,12.6901099388521,0,274.186208188277,0,84.7225009173776,0,77.331544346631
-11.1890097,7.8601699,SLE,"Khartoum North - Sudan",FALSE,188.463,1485.97140072144,26.5325861186727,280050628.094164,5000410.77768342,,,,0,7,443.686126501825,188.463,21490.3077027039,30750.0635536679,2.72368801767126,497.710496265207,188.463,25323.848470001,34330.5858372453,2.59281322873181,188.463,3791.73879782384,5000.41077768341,11.2633203177598,0,639.250122135499,0,36.907233889225,0,37.261363757891,0,245.500781999226,0,121.490689088205,0,111.651196130899
-2.216954,31.616774,DZA,"Béchar - Algeria",TRUE,179.119,13194.7313701357,47.9612505819522,2363427088.28733,8590771.24298869,,,,0,10,545.208561534304,179.119,27415.5208465459,29893.883654394,2.49347994743896,559.915855750066,179.119,28478.0945966071,43043.0753784223,2.46517420809829,179.119,7869.56528660805,8590.7712429887,7.6526703635385,0,313.177429372943,0,65.6538315145415,0,81.8225767192137,0,160.64663249778,0,65.094679878586,0,187.10700552704
-10.0955496,9.1883497,GIN,"Mongu - Zambia",FALSE,66.815,1121.84293071791,25.8338628216588,74955935.4159169,1726089.54442914,,,,0,6,403.668770872611,66.815,6656.51099904553,10746.3976861955,2.83628921274659,450.756685928059,66.815,7792.90795574593,11432.1246137681,2.70529508778685,66.815,1301.92416925204,1726.08954442913,11.5144222233827,0,222.312937305825,0,37.4101502510976,0,19.1717543614733,0,191.657009343079,0,23.730709350539,0,166.248906535769
-10.3059597,14.7111797,MLI,"Ikot Abasi - Nigeria",FALSE,18.328,2285.3071,26.3038363987401,41885108.5288,482096.713516109,,,,0,9,158.922610812255,18.328,482.109478527019,2958.36578193947,4.22915064105447,250.610580247096,18.328,924.137695889146,3178.4545135378,3.47917149846511,18.328,481.924750071006,482.096713516109,12.2358370200423,0,16.7286919967929,0,114.986056629916,0,13.5464013438548,0,132.354042557043,0,7.09378102735687,0,203.720462198498
-9.6050797,16.6627998,MRT,"Abū Ḩamad - Sudan",FALSE,24.199,3760.08548182476,19.5791653774687,90990308.5746773,473796.222969366,,,,0,2,130.506918839612,24.199,480.408463174841,4009.40343840018,4.60170054595597,278.610335457752,24.199,1419.48302077311,3201.17424488204,3.32477665505963,24.199,473.79627166682,473.796222969365,11.8824935283137,0,23.3593232649951,0,88.3748157732448,0,9.81588400561303,0,157.524852532501,0,7.32783949788932,0,191.41886174689
-10.801398,6.313299,LBR,"Monrovia - Liberia",TRUE,1110.25,967.725459213548,41.2600904571139,1074417191.09184,45809015.4300107,LRMLW,Monrovia,AI,467.27200002,11,560.749305704977,1110.25,176893.909607011,188147.985476107,2.46362618526459,575.977059071431,1110.25,183796.132415225,198214.682903987,2.43549722804793,0,372.019777313126,0,160.066642442489,0,317.460460272043,0,177.91740129161,0,103.146927458331,0,376.450019343382,1110.25,62109.4531108488,63098.0794307507,5.27925999554056
-10.132382,8.567176,GIN,"Guéckédou - Guinea",TRUE,221.715,1099.39487496181,19.6079430369351,243752334.702158,4347375.09043406,,,,0,6,432.582480787646,221.715,24383.0166553372,27705.0209351153,2.75343362880856,470.516126036801,221.715,27494.0217599531,30681.7744624939,2.65600786559227,0,537.013305905112,0,39.3997054054237,221.715,3665.87826592577,4347.37509043407,10.9487442868339,0,40.8269763025989,0,219.542292444273,0,80.3566127720448,0,139.787581537306
-10.066664,28.983267,MAR,"Guelmim - Morocco",TRUE,118.318,6238.3237,43.0273185293868,738105983.5366,5090906.27375998,,,,0,8,615.558746191887,118.318,21537.7905803821,22691.1800670231,2.36710333421542,650.609271091419,118.318,23310.9166554774,24526.315410184,2.31158439514257,118.318,5090.9062716605,5090.90627375999,6.59378161910484,0,105.497655962468,0,87.3982533668303,0,22.7639546145499,0,242.940256443615,0,79.0814153315465,0,105.912772319595
-10.4223099,8.6459198,GIN,"",FALSE,0,1227.60079775481,18.0701264188066,0,0,,,,0,6,294.86489020671,1e-06,6.36081192846036e-05,640.462103708091,3.58052373884641,325.865226863192,1e-06,7.33726018570436e-05,620.405919965133,3.26095153224119,1e-06,18.6023335463876,1.80701264188066e-05,33.7870296653074,0,45.0569397416817,0,18.7335680431263,0,1.16757850483615,0,213.929616887998,0,2.0379103807205,0,147.572324131174
-9.4627399,13.0295696,MLI,"Ghardaïa - Algeria",FALSE,57.187,2269.38964058337,35.3665191502151,129779585.376041,2022505.13064335,,,,0,9,140.936962749104,57.187,1267.10470553551,14159.3716286664,4.4525392425429,159.550673275858,57.187,1512.77723232298,17005.0917263958,4.2220076577498,57.187,1082.15633025167,2022.50513064335,26.487745814448,0,103.728650853246,0,126.465631331148,0,385.811420644428,0,52.6811139047736,0,41.7903751224242,0,231.839530992013
-9.4801102,7.0074396,LBR,"Zuwārah - Libya",FALSE,34.046,786.9167,15.4325262289124,26791365.9682,525415.787989552,,,,0,11,91.1190568072487,34.046,404.564189426142,6730.38818339991,5.3676714449762,98.7501764401172,34.046,453.821984195878,7748.5006563708,5.18580863886298,34.046,285.126378272289,525.415787989552,46.8745024702987,0,124.324838334353,0,81.5185289918336,0,21.422509143933,0,263.257879433529,0,160.818704273869,0,68.6652855567409
-9.544252,15.181505,MLI,"Nioro - Mali",TRUE,116.376,2301.37386339613,31.0032048103123,267824684.726588,3608028.96300491,,,,0,9,415.081920170745,116.376,12065.1909499159,14383.8869899503,2.80259978634025,446.438187356159,116.376,13388.0205308214,18199.1983973745,2.71647950769693,116.376,3608.02893324684,3608.0289630049,7.98965324974937,0,71.1237364495634,0,109.487590528868,0,57.029237287543,0,126.855576504231,0,26.2982320709235,0,212.531629092753
-9.5260296,14.5371294,MLI,"Rundu - Namibia",FALSE,52.399,2258.05105134941,26.6645356098404,118319617.039658,1397195.00142003,,,,0,9,174.512682244165,52.399,1575.47891862396,7984.08088105084,4.06289357698978,205.677596199595,52.399,1992.30325877989,10944.9892587837,3.7866274880311,52.399,1229.14422701434,1397.19500142003,16.2677533873623,0,64.3471346387037,0,116.245638496345,0,96.1549306297106,0,88.9368552933264,0,24.4445555956491,0,221.619538023827
-9.4735699,8.5450697,GIN,"Manzini - Eswatini",FALSE,43.102,1096.84397846855,22.3680314344588,47276169.1599514,964106.890888042,,,,0,6,360.465894706041,43.102,3652.9198560981,6310.5037511502,2.97727878334312,390.608117697052,43.102,4096.98666140263,6840.88396543321,2.87655166264457,43.102,702.263927124385,964.106890888043,13.1203902703952,0,148.867763358551,0,36.904547553517,0,12.0705933263577,0,196.997742644853,0,15.6410602250237,0,165.743384464298
-9.716798,29.717562,MAR,"Tiznit - Morocco",TRUE,108.998,6238.3237,44.8746618567915,679964806.6526,4891248.39306656,,,,0,8,437.44517581087,108.998,12179.9689347995,26641.4849463093,2.74027419293461,458.179352878226,108.998,13013.0003699206,29246.785793342,2.68642451141718,108.998,4055.17339923471,4891.24839306656,10.0281414796691,0,122.63946691827,0,103.309414667851,0,33.8893923855488,0,243.510420093345,0,295.273701290406,0,57.510025004113
-9.599649,30.433289,MAR,"Agadir - Morocco",TRUE,1070.86,6374.8461531175,58.0517269919173,6826567751.5274,62165272.3665645,MAAGA,Agadir,AI,593.66057139,8,762.914966142587,1070.86,264871.574095854,282135.843932637,2.15909386754682,805.84040086241,1070.86,286415.582181313,304367.760347912,2.10903177550129,0,836.07499367204,0,107.527300149409,0,370.576510488914,0,184.96815843485,0,353.101592676734,0,191.021585983202,1070.86,82853.9530454339,84130.7135079945,5.02119084216945
-5.986109,14.249942,MLI,"Niono - Mali",TRUE,128.619,2285.3071,33.8806562465947,293933913.8949,4357696.12578076,,,,0,9,490.814446846628,128.619,16941.519505181,21360.5490054129,2.60836354897138,531.104648008988,128.619,18962.6560129035,23855.6285161631,2.52164596883126,128.619,3957.24116253838,4357.69612578076,8.35249740192202,0,209.648649679592,0,59.2129415515944,0,65.6836583257082,0,128.362979900432,0,26.8494340898196,0,233.052941771781
-8.8621101,31.2670689,MAR,"Dayr Mawās - Egypt",FALSE,41.579,6727.27118707371,36.8417125347524,279713208.687338,1531841.56548247,,,,0,8,288.059180842933,41.579,2557.99070956375,21439.1493552124,3.27759161081589,326.752822455874,41.579,3062.63733050599,23303.40803044,3.10524489312141,41.579,1330.88713653012,1531.84156548247,20.9386172179659,0,219.820175880312,0,69.5553353548987,0,193.956806689951,0,75.6087628623353,0,189.098434677883,0,76.8983214367437
-9.551909,13.355745,MLI,"Balandougou - Mali",TRUE,1631.251,2258.59960670909,27.9096560141396,3684342867.04381,45527654.2827213,,,,0,9,366.291357601677,1631.251,141452.272412519,147754.698294095,2.9568932087236,408.552069040774,1631.251,165330.830138895,177260.623323585,2.82171012779326,0,718.911689229287,0,110.952446699509,0,274.266217175219,0,210.930331853865,1631.251,44411.2366386549,45527.6542827212,7.10000519246409,0,149.356238702316,0,316.304231262314
-9.1929197,14.5529394,MLI,"Cahama - Angola",FALSE,43.276,2285.3071,27.938885275401,98898950.0596,1209083.19917825,,,,0,9,133.418446042072,43.276,886.644249115055,8184.96745751759,4.5583916167545,178.343998680491,43.276,1342.17853743978,11694.0495527596,4.02525468778574,43.276,801.914960033797,1209.08319917825,24.02616428864,0,130.951486462542,0,80.4198073179451,0,150.781195387288,0,73.2046263127778,0,27.1848834933736,0,229.37794951512
-8.816789,7.750291,GIN,"N’Zérékoré - Guinea",TRUE,195.027,1164.86349690503,28.8972795876179,227179833.210898,5635749.74613435,,,,0,6,471.236736998465,195.027,24237.4766748595,27156.7501130449,2.65426644171914,503.028155396359,195.027,26606.7549435996,29959.6653794244,2.58103066791287,195.027,5346.75740042,5635.74974613436,8.14249469397873,0,240.196927186424,0,64.432676543677,0,36.9255624754828,0,224.525871656073,0,65.2555264661052,0,153.605325207363
-8.1639996,7.2641697,CIV,"",FALSE,0,3149.8581711304,28.2093242708592,0,0,,,,0,12,177.80546033868,1e-06,3.08806820219769e-05,1473.03277318758,4.64551335989732,189.631874681517,1e-06,3.3856235074728e-05,1594.4668111897,4.24349713303822,1e-06,55.8142767964278,2.82093242708592e-05,39.655555133606,0,73.0797303218567,0,33.1336752192266,0,3.40206300807124,0,256.038929479472,0,10.3045250831161,0,122.306324735787
-7.5722198,9.5049696,CIV,"Bariadi - Tanzania",FALSE,86.279,3289.988,39.2309187365728,283856874.652,3384804.43767277,,,,0,12,583.037576217008,86.279,14533.8199073522,16391.6911571898,2.42281309137518,629.35068391504,86.279,16210.7408980251,17725.8377794519,2.34473079539149,86.279,3384.80443386232,3384.80443767276,7.07090680740642,0,144.755979017515,0,57.819344074785,0,26.3957099285319,0,179.807831518382,0,22.6910390009583,0,198.881588495532
-8.002662,12.639193,MLI,"Bamako - Mali",TRUE,4552.105,2286.20141850059,45.3510168389582,10407028908.1636,206442590.507706,,,,0,9,513.554736139536,4552.105,639673.923937502,680673.949544245,2.55822270665696,532.401951534784,4552.105,673472.602488522,715169.037612,2.51901071568636,0,1852.01324677914,0,133.579483703857,0,1195.11519454879,0,178.880352071911,4552.105,203557.229953099,206442.590507706,5.82163261491252,0,458.232905985961,0,338.931268928643
-9.166742,11.416769,GIN,"Siguiri - Guinea",TRUE,183.875,1135.4866,32.4018248026735,208787598.575,5957885.53559159,,,,0,6,359.393017929295,183.875,15517.2964603337,31321.2142154249,2.9810845275864,366.447473034864,183.875,15954.2426866337,33795.6990482732,2.95635282790085,183.875,5326.49398091424,5957.88553559159,10.1321807124655,0,173.146701353839,0,99.4766315812158,0,176.966905494088,0,98.0398221239058,0,49.7958391959093,0,228.315387406155
-7.4854398,11.42488,MLI,"Souk Ahras - Algeria",FALSE,95.222,2285.3071,32.0476990885096,217611512.6762,3051646.00260606,,,,0,9,279.245940813893,95.222,5603.81592345173,23230.6925248168,3.32153136615044,301.045189106243,95.222,6239.06229054693,24622.3864683962,3.21623452245443,95.222,2560.88825100321,3051.64600260606,14.5425551667978,0,306.780012439454,0,59.8434236089227,0,136.435698053358,0,102.710724647509,0,43.5542590320116,0,219.894340473081
-9.233368,32.283274,MAR,"Safi - Morocco",TRUE,395.857,6780.39513730578,50.0776184680819,2684066877.86845,19823575.8139195,,,,0,8,720.038550174663,395.857,90147.7142757359,102988.261593475,2.21328529609583,773.21138939575,395.857,99806.3749825866,115031.064069525,2.14672458031433,0,741.505522743537,0,61.9788472082303,395.857,18449.1635759079,19823.5758139195,7.27224719040412,0,287.182611833027,0,116.648992850032,0,282.485373828988,0,117.938548015526
-8.500158,33.233179,MAR,"El Jadid - Morocco",TRUE,467.017,7268.41013196153,54.5650407804857,3394471094.59828,25482801.6501801,,,,0,8,603.302964306358,467.017,82604.8999271773,136144.077557028,2.38759345362812,640.269087533987,467.017,89929.386594164,147116.365492019,2.32751041344568,0,699.618401477653,0,82.3047326347777,467.017,23592.9444045225,25482.8016501801,7.88516637116597,0,296.898376563316,0,145.745026145788,0,627.365701624459,0,88.508526330013
-8.3035603,32.2542381,MAR,"Funtua - Nigeria",FALSE,139.815,6725.98050128035,37.1479411148004,940392963.786512,5193839.38696582,,,,0,8,630.787774061632,139.815,26355.2179753034,40617.3233033238,2.34243992718831,675.628547599857,139.815,29071.8963589242,44966.4678091707,2.27450259217006,139.815,3857.40660094668,5193.83938696582,11.6936117888371,0,606.49683857147,0,40.1414687480982,0,224.689043219973,0,77.8199635207166,0,151.670237205414,0,101.129697783281
-8.2107401,31.9539585,MAR,"Ouled Fayet - Algeria",FALSE,38.613,6720.5864,38.3004049757337,259502002.6632,1478893.53732801,,,,0,8,439.521973884701,38.613,4344.09898196004,14786.5065409143,2.73471747690905,467.615563742273,38.613,4746.1365999584,17554.1560143705,2.66305605281612,38.613,892.5033671588,1478.89353732801,19.4041087148959,0,300.423882963674,0,40.0999632936631,0,149.82898847952,0,63.7631425316858,0,82.4525206759536,0,94.950586956283
-8.008349,31.630015,MAR,"Marrakech - Morocco",TRUE,1132.514,6720.5864,58.6646890573813,7611158186.2096,66438581.6631311,,,,0,8,739.490899415834,1132.514,267916.007474778,301475.690332312,2.18814345021961,786.593739946024,1132.514,292623.765278072,328244.46783096,2.13099532860198,0,1321.39809616826,0,84.2089658646481,0,950.337822895285,0,104.904820442024,1132.514,63667.9941787548,66438.5816631311,6.35965154240464,0,560.625152455232,0,149.141692976808
-7.6750998,8.2902699,CIV,"Krugersdorp - South Africa",FALSE,55.013,3186.43542100719,24.1835686231057,175295371.815869,1330410.66066291,,,,0,12,349.782315338502,55.013,4466.23798925607,8624.66246491519,3.01591677054467,370.777304984209,55.013,4854.07596665442,9312.86565201605,2.94150739319835,55.013,978.469803652437,1330.41066066291,13.2107421977498,0,200.352874694923,0,38.0272672912828,0,16.8478410197537,0,198.120462407846,0,19.6034733698846,0,179.089511571867
-7.583329,33.53329,MAR,"Casablanca - Morocco",TRUE,4219.891,9656.635,70.9405986874118,40749947126.785,299361593.935621,MACAS,Casablanca,AI,2434.0279715,8,829.680505867548,4219.891,1176666.89284271,1246529.7848131,2.08284343316485,844.967150705464,4219.891,1207759.85654149,1287878.46819691,2.0666098925651,0,2043.47224762307,0,151.913343474486,0,1537.18608338346,0,183.664040308508,0,1634.57973145839,0,176.294061401182,4219.891,385645.135701037,389420.628881121,4.61724785353158
-7.9837198,32.2262306,MAR,"Qillīn - Egypt",FALSE,132.168,6742.80992422409,43.2105007592418,891183702.06485,5711045.46434747,,,,0,8,493.48029090054,132.168,17544.226586474,56410.4323947108,2.60231546761961,534.142286341671,132.168,19645.3027582521,60245.6628745746,2.51548991513537,132.168,3616.62143281006,5711.04546434747,16.407322663823,0,680.642797016384,0,49.9605198755674,0,543.722453041681,0,58.0303163766413,0,327.644603331542,0,81.3400506525869
-7.59407,7.3604698,CIV,"Pikine - Senegal",FALSE,241.969,3331.50044575431,31.6783867627629,806119831.358724,7665187.56659899,,,,0,12,473.047956786178,241.969,30236.5640003844,34105.6723492333,2.64990620666406,512.861338358446,241.969,33936.5627132452,37991.9158228798,2.55970477606864,0,288.520770031497,0,66.2520447716897,241.969,7086.87184046654,7665.18756659898,7.84056974157964,0,39.0882046699198,0,251.161764908599,0,85.6291540075223,0,148.902814363827
-7.408295,32.048099,MAR,"El Kelaa des Srarhna - Morocco",TRUE,223.364,6725.77294838356,38.3125407240053,1502295548.84275,8557642.34627671,,,,0,8,547.381434487852,223.364,34382.3639018888,53614.9254979813,2.48923299651473,605.171237256186,223.364,39683.0104546653,61949.2764850995,2.38443167386335,0,412.750267756953,0,67.3417086219133,223.364,7199.730231044,8557.64234627672,10.0122471064084,0,421.964207931349,0,66.3577971673268,0,149.933848651556,0,132.27443597945
-6.26652,13.449454,MLI,"Ségou - Mali",TRUE,240.936,2285.3071,34.5068161376911,550612751.4456,8313934.25295074,,,,0,9,391.781776938269,240.936,23000.1254523823,56726.1590529756,2.8728554679868,399.558337658669,240.936,23655.0811309453,61927.1417076537,2.84875758468781,0,884.50597882541,0,48.3922340436695,240.936,6241.35034221996,8313.93425295074,13.1539790026198,0,398.779401136534,0,82.304017926446,0,73.6665875044094,0,253.744018845157
-7.350092,6.733084,CIV,"Duekoué - Côte d’Ivoire",TRUE,284.596,3302.72447034709,26.4823462879371,939942173.3629,7536769.82416175,,,,0,12,432.618804291414,284.596,31302.0834515255,31465.1606954056,2.75333452271957,467.603598718108,284.596,34979.9839012759,35012.5849491874,2.66308526486791,0,169.786559464467,0,92.9534792568941,284.596,7507.89402132389,7536.76982416175,7.43342731915333,0,32.8515023758835,0,277.863199264774,0,84.7969101684866,0,147.666224237686
-6.841593,34.020894,MAR,"Rabat - Morocco",TRUE,1891.455,7891.94605770258,67.9275739994679,14927260830.5718,128481949.479164,,,,0,8,688.257090195041,1891.455,403836.140650177,477452.217443795,2.25652196245311,783.818954044523,1891.455,486261.140663514,582735.383731352,2.1342239664972,0,983.218376909082,0,150.587122994107,0,2123.91520133107,0,90.1148551135473,1891.455,124265.785430093,128481.949479164,5.9793370773143,0,1269.017711352,0,127.030903575832
-6.5227799,32.8590393,MAR,"Randburg - South Africa",FALSE,178.623,9675.0688844993,45.6605596927238,1728189829.35592,8156026.1539934,,,,0,8,439.145296859981,178.623,20071.12004329,64812.7054353241,2.73572252822848,456.103489897733,178.623,21187.464062958,82413.7432500534,2.69165703217825,178.623,5284.45573598385,8156.0261539934,16.8016710949539,0,982.818300244428,0,51.5668699423294,0,633.009314374102,0,69.1426748977491,0,433.977917338209,0,88.9285425289819
-6.4903197,9.5225697,CIV,"Kikuyu - Kenya",FALSE,92.792,3289.988,40.8585933304043,305284566.496,3791350.59231487,,,,0,12,551.178913273951,92.792,14425.219138081,19612.7004129862,2.48186834845393,607.720749103106,92.792,16584.7998270332,21299.133551082,2.38013946531249,92.792,3315.26104666423,3791.35059231488,8.22555496153879,0,310.076975321996,0,39.920626776421,0,29.8536240565214,0,190.040278452566,0,25.360922887918,0,211.868794449736
-5.666994,11.316457,MLI,"Sikasso - Mali",TRUE,315.73,2285.3071,34.5993127669643,721540010.683,10924041.0199136,,,,0,9,534.116807970853,315.73,46926.5539624195,55089.0649451153,2.51554161262423,577.459916174797,315.73,52459.8036920366,62568.7057708068,2.4328149256233,0,834.558646655984,0,43.2556267781461,315.73,9648.51333264265,10924.0410199136,8.46006278512375,0,137.628525698366,0,143.838412606147,0,56.2995652761345,0,261.02202773344
-6.36073,32.339077,MAR,"Béni Mellal - Morocco",TRUE,559.315,9578.10692231839,51.2521768542167,5357178873.25651,28666111.2972162,,,,0,8,710.84163894998,559.315,125053.917458857,131202.858160631,2.22551263960286,750.786246694427,559.315,135212.397564542,140609.810481756,2.1739737173222,0,508.296230111701,0,92.2968258639534,559.315,28032.9720054258,28666.1112972162,6.37018351543862,0,449.8879972975,0,100.121749953347,0,213.771832941117,0,164.423691995962
-6.9510198,6.7373199,CIV,"",FALSE,0,3289.988,26.0983083598812,0,0,,,,0,12,277.848811515076,1e-06,5.84298361703445e-05,300.986673383039,3.68947990832196,318.269705798705,1e-06,7.09416797602816e-05,208.460733909414,3.29767414207886,1e-06,1.48893505466967,2.60983083598812e-05,88.9146692734597,0,33.4566393587042,0,11.1661217296636,0,0.264177873585715,0,281.595893443105,0,0.787759380313942,0,135.923601149067
-6.59448,6.48704,CIV,"",FALSE,0,3289.988,30.2351215412896,0,0,,,,0,12,170.215987983636,1e-06,2.90150259656982e-05,1057.006745542,4.75391504618648,214.846448712043,1e-06,4.04660945050564e-05,980.849063582848,3.98834209752643,1e-06,8.48222630248427,3.02351215412896e-05,94.6645310728442,0,112.290988243751,0,16.9159834859875,0,1.83637058171004,0,262.555010149425,0,6.3040782058912,0,115.375287710302
-6.450154,6.883246,CIV,"Daloa - Côte d’Ivoire",TRUE,466.205,3289.988,31.5809428623859,1533808855.54,14723193.4671586,,,,0,12,487.477393610829,466.205,60812.3106760401,62201.2770491494,2.61600121629761,519.953760905243,466.205,66681.619503106,67990.9445037935,2.54468219991386,0,352.820831250517,0,84.8981295805921,466.205,14437.1152180711,14723.1934671586,7.14958202521837,0,57.6624188667866,0,284.013530558099,0,169.618772520009,0,138.341237902334
-5.51861,33.8304405,MAR,"Ibadan - Nigeria",FALSE,713.763,5725.32862494757,52.8535171786926,4086527735.32846,37724884.9820151,,,,0,8,659.809978681331,713.763,143474.557508608,175438.618454423,2.29771445610612,729.038077710573,713.763,165453.819771986,190851.616960492,2.20153424361371,0,367.621184563108,0,142.207434609415,713.763,36144.315651114,37724.8849820152,6.67568766746457,0,1158.5749055212,0,66.1566084062446,0,320.700618016097,0,155.760086640414
-6.633194,4.750108,CIV,"San-Pédro - Côte d’Ivoire",TRUE,390.654,3573.43717303907,31.4114659961222,1395977525.39641,12271014.8372491,CISPY,San-Pdro,AI,2312.50202864,12,1124.30900807461,390.654,168143.472036896,204901.257346189,1.82850386445816,1158.43108051344,390.654,175480.681402889,219169.379589855,1.80522444059265,0,107.516742551734,0,290.22426816634,0,196.935150366977,0,193.866289148003,0,54.2144792049594,0,458.114737628293,390.654,96918.7578447157,97833.5898969291,3.11013492872349
-6.600167,5.783308,CIV,"Soubré - Côte d’Ivoire",TRUE,310.768,3216.67761193904,26.8544558285881,999640468.107073,8345505.52893867,,,,0,12,265.935491665987,310.768,17056.1907780544,45577.6861782764,3.39178715462491,297.598326269811,310.768,20029.6672345823,51414.0911293206,3.23214684122213,0,265.113437478235,0,108.290750775386,310.768,7247.81003205434,8345.50552893867,11.9327714865715,0,65.091990271301,0,276.181229122502,0,402.808079437299,0,81.9370662305034
-4.034,5.317569,CIV,"Abidjan - Côte d’Ivoire",TRUE,9022.419,3473.84868051719,53.7001420652593,31342518338.2232,484505182.072294,CIABJ,Abidjan,AI,3248.84543344,12,538.384104648742,9022.419,1356322.3734545,1377579.63953593,2.50697654584493,562.52608604123,9022.419,1444035.38902588,1467340.35178845,2.46028751590027,0,1175.25848403076,0,285.266543032393,0,1064.59528900048,0,304.707686070742,0,587.866128846461,0,452.710753281797,9022.419,603213.020034154,604712.463109575,4.44999270554344
-5.93669,6.13259,CIV,"Gagnoa - Côte d’Ivoire",TRUE,277.044,3292.32142843847,37.4502145097444,912117897.820308,10375357.2286376,,,,0,12,468.815763648313,277.044,34177.9329050488,43900.7894484674,2.66013208838727,514.614879440544,277.044,39045.8205772947,50342.0439832715,2.55596306650755,0,259.886670949021,0,85.569527369801,277.044,9405.2651388678,10375.3572286376,7.82097879554304,0,50.9798490562424,0,253.460005835535,0,187.751602554698,0,106.280283004633
-5.900032,35.008948,MAR,"Ksar El Kebir - Morocco",TRUE,481.749,7708.3994,48.126429375983,3713513702.5506,23184859.2254504,,,,0,8,468.524751525759,481.749,59378.9654879517,133879.016169492,2.66084008040211,538.970907501743,481.749,72533.1610638431,149978.809652549,2.50580623440691,0,364.95850254393,0,138.507030463209,481.749,21381.3353525353,23184.8592254504,9.18214506060209,0,855.653987502858,0,78.4817489319344,0,666.539988133635,0,92.7007752130181
-5.667584,32.939324,MAR,"Khénifra - Morocco",TRUE,381.704,5810.59514758978,38.7930319415803,2217927410.21561,14807455.4642289,,,,0,8,556.959113524033,381.704,60229.7489447365,73760.274411999,2.47079670207226,560.839613461441,381.704,60830.1264845716,95262.1395139057,2.46345515112197,0,489.990530779099,0,82.6734903209959,381.704,13176.2881599136,14807.455464229,9.21077543477948,0,594.13149001052,0,72.7059304740346,0,191.240260215543,0,154.800389548081
-5.759602,10.555472,MLI,"Kadiolo - Mali",TRUE,317.492,2328.09481993824,27.1998768923998,739151480.571833,8635743.31432181,,,,0,9,479.895161778658,317.492,40496.8734825896,42130.5760119043,2.63363547754955,525.933640202588,317.492,46159.0230051519,48346.1891570199,2.53224177392954,0,516.541314028571,0,52.2007357897815,317.492,8212.23904887861,8635.7433143218,8.25604931580459,0,97.743339915151,0,158.375701171965,0,47.6055085744755,0,255.843975322089
-5.6370897,9.4510393,CIV,"Nneyi-Umuleri - Nigeria",FALSE,286.071,3289.988,35.5292803371237,941170157.148,10163896.7553213,,,,0,12,555.098664570258,286.071,44924.3986911766,49410.0214539635,2.47434224572011,600.393625946047,286.071,50251.3612227812,55378.714304511,2.39254500884522,0,716.097106377775,0,43.4284253853547,286.071,9266.57904411527,10163.8967553213,7.8790841560621,0,83.8313327185069,0,181.475408353789,0,54.406529564491,0,242.096222505705
-5.30024,6.8373399,CIV,"Arzew - Algeria",FALSE,37.253,3289.988,41.8178867554655,122561922.964,1557841.73530136,,,,0,12,292.692595864749,37.253,2344.69413255166,10331.5879262511,3.2552536432365,324.896586859115,37.253,2721.74989360502,11333.7103631139,3.11283590846817,37.253,852.04322988254,1557.84173530136,17.4755108781391,0,369.050479779945,0,30.5267416576479,0,19.5274757440377,0,216.590912056371,0,30.2668558744247,0,161.718397374881
-5.7609501,12.9448795,MLI,"Béni Mellal - Morocco",FALSE,89.799,2275.85166218126,32.5280080868355,204369203.412215,2920982.59818974,,,,0,9,461.67142456386,89.799,10837.7991691638,14781.4727017498,2.67769723103107,515.192595322451,89.799,12676.3263182191,15985.5026503414,2.55473461400346,89.799,2503.72852702061,2920.98259818974,8.79235484294332,0,173.458386001584,0,52.1234403975723,0,48.8760560953895,0,121.2734794664,0,13.4606663356586,0,286.496223696977
-5.0414901,6.5430398,CIV,"Chipata - Zambia",FALSE,39.005,3289.988,39.0763581540411,128325981.94,1524173.34979837,,,,0,12,201.241967818271,39.005,1437.561378259,10387.4590178872,3.82217426186238,267.545315944365,39.005,2159.28710675591,10032.1683276976,3.38302559576327,39.005,714.561488722705,1524.17334979837,19.6883242393673,0,248.537214882165,0,39.8083526247327,0,24.2983673342187,0,187.578803872061,0,40.833393960999,0,132.706289093917
-4.6909499,5.9060397,CIV,"",FALSE,0,3289.988,32.1998889870533,0,0,,,,0,12,78.9547987848523,1e-06,9.68323262446183e-06,11753.119637029,7.28235947076068,97.9389360510652,1e-06,1.31735122773717e-05,16154.6753385306,5.99448497767637,1e-06,475.423638849649,3.21998889870533e-05,62.8873823566718,0,317.395337919059,0,82.3285254257953,0,67.825934014674,0,230.331592613369,0,284.257298545866,0,88.6086832499431
-5.803895,35.77671,MAR,"Tangier - Morocco",TRUE,1007.037,7897.3692983517,60.3686019577755,7952943086.1042,60793415.8097524,MAPTM,Tanger Med,AI,29213.26830742,8,3438.64051081481,1007.037,2140455.19586407,2214536.25638085,1.13246320021719,3505.43832463777,1007.037,2200101.15447739,2281082.58000096,1.12316111686012,0,730.835078193665,0,239.878236735038,0,928.181282322305,0,204.541739589594,0,599.179827565693,0,273.841346833485,1007.037,1139367.03268222,1141684.34318429,1.7841307891836
-5.003295,34.043295,MAR,"Fès - Morocco",TRUE,1380.105,4852.60936283408,54.7499901257426,6697110444.69412,75560735.122488,,,,0,8,651.821099451914,1380.105,272630.967684623,310974.032900838,2.30974161252683,714.20448864393,1380.105,310656.989396716,366512.445601946,2.22100985237402,0,802.348896818354,0,131.735195697181,0,1858.14281568666,0,75.2589293197299,1380.105,71952.6313193293,75560.735122488,6.57523167690352,0,589.633387423639,0,161.766796585698
-4.31988,35.1186104,MAR,"Niangoloko - Burkina Faso",FALSE,87.889,5072.45692357448,40.7110698682004,445813166.556038,3578055.21964627,,,,0,8,218.341778817406,87.889,3639.47040942012,34460.2963942962,3.69089095879575,287.53450417763,87.889,5392.97452734469,47165.4842899183,3.28015195761958,87.889,1943.97557687098,3578.05521964626,27.490539062581,0,693.516898356233,0,54.6519405124751,0,384.929584302346,0,80.9198738423061,0,425.976856846295,0,75.6344409372915
-5.466706,12.38318,MLI,"Koutiala - Mali",TRUE,173.39,2285.3071,34.2337289247921,396249398.069,5935786.2582697,,,,0,9,546.132877246356,173.39,26602.9517801134,29905.4029373322,2.49167066807977,602.031350718705,173.39,30576.5226103029,33124.3622971354,2.38975341751988,173.39,5565.57880169315,5935.7862582697,7.84834121063949,0,362.504691404794,0,48.4814609336918,0,82.9565857127764,0,129.583848313614,0,24.4497997802731,0,292.595683498681
-4.88414,13.22997,MLI,"Techiman - Ghana",FALSE,62.939,2285.3071,27.7750123769379,143834943.5669,1748131.5039921,,,,0,9,478.006837248677,62.939,7982.93250362757,8845.20373722933,2.63808981332358,515.934850474524,62.939,8902.97114668692,9919.74539550721,2.55315838526814,62.939,1748.13145388491,1748.13150399209,8.12260560474589,0,82.46138416871,0,62.2172838434219,0,28.541334004579,0,126.210440559934,0,8.38384780346384,0,285.616003940875
-5.1606898,9.9698601,CIV,"",FALSE,0,3219.81194498956,23.6325528252283,0,0,,,,0,12,247.154538703991,1e-06,4.94317702778739e-05,1041.13831066964,3.91563490331363,282.968454337233,1e-06,5.9973928269708e-05,749.415606253299,3.48816857218806,1e-06,45.3631780235184,2.36325528252283e-05,22.6261312582517,0,30.7096413811176,0,29.3469376213599,0,2.39719942665718,0,160.673103077599,0,1.14746482262185,0,262.574798360422
-5.31213,8.7883997,CIV,"",FALSE,0,3289.988,26.5663110545579,0,0,,,,0,12,234.713002605035,1e-06,4.59157040884738e-05,1290.34144884028,4.02058611342077,247.863968679101,1e-06,4.96345927013776e-05,1395.10736039347,3.71868271072684,1e-06,48.4376953376423,2.65663110545579e-05,34.9412600970266,0,89.7329417353545,0,23.1646782895865,0,4.39710100378741,0,172.988242198188,0,2.82317607859461,0,232.435381446615
-5.199932,9.583411,CIV,"Ferkessédougou - Côte d’Ivoire",TRUE,160.267,3267.52578171889,28.1654532445121,523676554.458741,4513992.69513822,,,,0,12,470.261105244452,160.267,19858.7058482594,24588.9868011069,2.65662517743778,519.721526442029,160.267,22908.4734575198,27648.2695300808,2.54516945405244,160.267,3802.1187859653,4513.99269513822,9.55311232534308,0,439.947172811074,0,40.231076336396,0,62.6055812340406,0,147.600095394139,0,28.4860700674816,0,249.501779508942
-4.93154,12.8220196,MLI,"Siliana - Tunisia",FALSE,24.889,2270.88540033439,28.0674148072147,56520066.7289225,698569.887136766,,,,0,9,515.792616201532,24.889,3519.26128915346,3622.47252881114,2.55340920997807,555.31426099345,24.889,3910.72075872507,4091.28151739302,2.47393222637902,24.889,698.564178683545,698.569887136767,8.03816154042073,0,41.0015689753866,0,53.2222750802383,0,10.6012554351305,0,131.136086956071,0,3.2146080880207,0,290.541650979708
-4.805582,12.183353,MLI,"Kouri - Mali",TRUE,137.964,2215.83852651061,27.169998873553,305705946.47151,3748481.72459086,,,,0,9,484.219302560113,137.964,17824.6006878025,19735.1911934255,2.62355778567106,503.402018263484,137.964,18841.8649822099,23189.555562733,2.58020888855921,137.964,3170.70569923988,3748.48172459087,9.72178129350585,0,365.839361962483,0,41.0194228633277,0,63.7672578664307,0,131.457289081656,0,19.2137885923895,0,292.48784870901
-4.8452396,10.9798899,BFA,"Tiko - Cameroon",FALSE,33.422,1561.522,23.9344297130372,52189188.284,799936.50986913,,,,0,13,313.182113359649,33.422,2317.05453856155,5275.0266997944,3.1622141951046,376.400252386315,33.422,3013.08863300554,5472.89052803707,2.9225938955048,33.422,383.159390346052,799.936509869129,17.2052106504347,0,230.405151430883,0,24.1500587977702,0,14.1355555274436,0,155.252187980328,0,5.94056061262792,0,276.712023205172
-5.016623,7.683365,CIV,"Bouaké - Côte d’Ivoire",TRUE,659.233,3289.988,40.2539059826232,2168868659.204,26536703.2026426,,,,0,12,552.091957869959,659.233,102725.37103499,108120.160552674,2.48010843913695,579.536158585709,659.233,110097.246329172,117688.199992884,2.42907576005743,0,733.501165947339,0,71.7236641373031,659.233,25714.9771112955,26536.7032026426,6.69584788724859,0,146.64843834293,0,209.770644362018,0,140.383082112003,0,215.966550623219
-3.2846298,9.6600199,CIV,"",FALSE,0,3217.02361233922,19.5825015048918,0,0,,,,0,12,144.465965314942,1e-06,2.2954030528299e-05,1528.58987830057,5.18977836191084,178.668185878191,1e-06,3.10949549493362e-05,1426.66331991854,4.37227211731598,1e-06,94.0231447460334,1.95825015048918e-05,26.7977499791003,0,24.5293756756894,0,65.6342485212233,0,12.5404354174732,0,102.654920322358,0,3.2510382903549,0,252.487641871999
-4.758877,10.630955,BFA,"Banfora - Burkina Faso",TRUE,126.236,1561.522,24.6889188876878,197120291.192,3116630.36470615,,,,0,13,464.068335408905,126.236,15348.4879483716,18702.0963462671,2.67176226321736,469.484103367222,126.236,15605.011935339,21011.3163956668,2.65850847291129,126.236,2274.00207928445,3116.63036470616,11.7061202834486,0,518.833251339029,0,31.3512618628111,0,49.698881866285,0,149.753097757226,0,20.391292172296,0,271.212933091491
-4.1257401,6.7047696,CIV,"Cidade de Nacala - Mozambique",FALSE,74.281,3289.988,36.3507584903294,244383598.628,2700170.69142016,,,,0,12,496.840192926856,74.281,9956.24378883165,11878.2808555939,2.59475872520773,484.039872363882,74.281,9591.83790246386,15253.8713011017,2.62394718498228,74.281,2503.34111069087,2700.17069142016,8.75376976493393,0,110.928688303903,0,69.9056947445547,0,27.7211552308148,0,176.197979957815,0,38.9928360441854,0,140.351995724841
-3.98735,7.06142,CIV,"Ilesa - Nigeria",FALSE,101.136,3289.988,30.9159129234854,332736226.368,3126711.76942962,,,,0,12,423.204389972733,101.136,10779.5318388591,16624.5820913332,2.77941936352812,427.93098606849,101.136,10951.931390891,19457.3061363906,2.76622074138284,101.136,2782.69776319179,3126.71176942962,10.114970378143,0,171.435908924939,0,64.844644244832,0,49.637275045337,0,148.161950632951,0,46.6788181926028,0,154.357856926265
-4.016502,34.216732,MAR,"Taza - Morocco",TRUE,215.147,4756.2676,43.2527353559962,1023296705.3372,9305696.25363651,,,,0,8,497.155917011525,215.147,28863.3811880988,43543.4102910022,2.59405238894729,605.071837785739,215.147,38214.2037799785,61201.2200216413,2.3845982861395,0,424.164677411576,0,65.599218795568,215.147,8178.56056981485,9305.69625363651,9.12299208228552,0,220.45384290645,0,101.479242265928,0,185.778302827289,0,113.743210682563
-4.1851397,14.0335598,MLI,"Rubengera - Rwanda",FALSE,35.513,2285.3071,26.5762081399309,81158111.0423,943800.879673367,,,,0,9,443.785758504012,35.513,4050.8223565146,4447.55906272888,2.72342599888993,469.938357097757,35.513,4396.10690808537,4896.17005237575,2.65740685268223,35.513,943.800882763371,943.800879673366,7.96358817049775,0,26.6520641955758,0,85.8766600984076,0,16.1580533170361,0,119.88633628852,0,4.54418561084986,0,279.291899783402
-3.4726,12.4589195,BFA,"Al Marj - Libya",FALSE,63.617,1561.522,23.9784948796488,99339345.074,1525439.90875862,,,,0,13,376.483663564028,63.617,5737.06973427106,8897.18639642964,2.92231685355211,418.740821812642,63.617,6678.65386786118,9906.67650239697,2.79207774077488,63.617,1255.06493577509,1525.43990875862,11.0688358203794,0,148.740909569542,0,45.8767477944779,0,35.6419530589621,0,118.915531965641,0,9.27537048388292,0,291.737373806187
-4.283237,11.183756,BFA,"Bobo-Dioulasso - Burkina Faso",TRUE,903.887,1563.71297280047,35.5323045529694,1413419827.8457,32117188.1654698,,,,0,13,547.818728821925,903.887,139293.913713903,148523.192037171,2.48838146692063,576.689392016317,903.887,149898.245905511,158245.439738729,2.43420747275306,0,1498.79769560453,0,54.377142278957,903.887,30535.5463263563,32117.1881654699,7.28967105300242,0,290.867765694026,0,162.22383525478,0,108.07218162138,0,313.883954642133
-3.4547899,10.1577702,BFA,"",FALSE,0,1561.522,18.5995770061625,0,0,,,,0,13,219.077914596757,1e-06,4.1609441803747e-05,279.562429272183,4.16587641976046,237.659096424377,1e-06,4.67412408377169e-05,757.532653191666,3.79562135790607,1e-06,50.8525466710662,1.85995770061625e-05,22.9795742430621,0,22.0249074158356,0,40.1428059729779,0,3.73318789701718,0,131.068166654694,0,1.17985710613856,0,282.486384112712
-3.932213,35.247186,MAR,"Al Hoceïma - Morocco",TRUE,157.146,5081.60594467335,48.3370623895879,798554047.781638,7595976.00627419,,,,0,8,483.963785155191,157.146,20287.5632640757,45217.7627773527,2.62412397537752,701.480668151564,157.146,34476.2214563545,52833.636592231,2.23819945533462,157.146,6082.4512589843,7595.97600627418,9.45776864781565,0,798.35288187275,0,36.6191072212704,0,120.849665918709,0,128.925578285558,0,128.681342374867,0,123.640433705036
-3.8383498,11.7186594,BFA,"",FALSE,0,1561.522,21.1535394343159,0,0,,,,0,13,252.038392515548,1e-06,5.08330680276618e-05,1009.67815747097,3.87671860667364,261.696326026801,1e-06,5.36384493882291e-05,927.293541072763,3.62203610970962,1e-06,50.7543667288206,2.11535394343159e-05,25.1255344055508,0,38.5579170264338,0,30.1778685947909,0,4.1687417924723,0,132.972228106521,0,1.19537136090151,0,305.794062570699
-3.516123,11.495237,BFA,"Houndé - Burkina Faso",TRUE,102.324,1561.522,23.1279888600729,159781177.128,2366548.3321181,,,,0,13,440.033864953102,102.324,11530.9697098154,15029.9862387145,2.73335531661215,466.314552809571,102.324,12527.2470713906,16085.6089303496,2.66623769783686,102.324,1945.03607454668,2366.5483321181,10.9036545455271,0,283.747712126215,0,39.3461551932123,0,54.1169715211099,0,118.750347693916,0,13.9432513883616,0,293.279140718717
-3.2551699,10.9504795,BFA,"Abū Za‘bal - Egypt",FALSE,25.688,1559.68196236009,20.0266158993534,40065110.249106,514443.709222591,,,,0,13,305.451593940216,25.688,1718.41322867329,3624.4554584315,3.19626900692496,340.650920506167,25.688,2008.14465926763,3783.56548096772,3.05030244534837,25.688,363.923846421876,514.44370922259,14.5301486747106,0,83.6359452886335,0,38.7271106507541,0,14.8890420160519,0,122.376841576646,0,4.16970889637089,0,285.895018087935
-4.031478,6.172398,CIV,"Adzopé - Côte d’Ivoire",TRUE,156.488,3289.988,28.5378806552521,514843642.144,4465835.86797909,,,,0,12,353.945883089187,156.488,12921.0862502988,18126.5865227486,3.00066091731997,410.781915894821,156.488,15984.2071128776,21858.5675363144,2.81513546685973,156.488,3961.91776217566,4465.83586797909,8.78975545161939,0,82.7801942665702,0,115.867811160411,0,44.1302333894067,0,176.233965794955,0,76.4788364182505,0,122.147968719275
-4.183454,14.484661,MLI,"Mopti - Mali",TRUE,175.604,2287.68401478936,27.9093141499409,401726463.733071,4900987.20198623,,,,0,9,466.745186191762,175.604,21527.084797092,21590.2265979515,2.66518328772486,494.245167270005,175.604,23361.6330823993,23394.5719990899,2.60058872087998,175.604,4900.98718540683,4900.98720198622,7.3726910201381,0,100.50722395153,0,98.404937857724,0,76.7381154736881,0,117.798833415435,0,20.0200544189453,0,288.517110374035
-3.5236499,14.0762997,MLI,"Kamsar - Guinea",FALSE,105,2285.3071,24.7752788915821,239957245.5,2601404.28361612,,,,0,9,443.913954993502,105,11981.8624895121,12063.4566783269,2.72308883424257,467.503269524121,105,12901.7012316909,12965.0612897968,2.66333018033222,105,2601.40428276827,2601.40428361612,7.77086730004925,0,59.4224014760305,0,96.5253222965034,0,46.085944382749,0,114.348129536487,0,11.4142828010514,0,289.940560724498
-0.04122,16.2347698,MLI,"Catabola - Angola",FALSE,49.483,2285.3071,23.3834754351307,113083851.2293,1157084.51495657,,,,0,9,359.279082627386,49.483,4174.00221844723,5425.22269333587,2.98149016593489,416.676224870803,49.483,5158.28376061594,5908.47068088731,2.79799888979382,49.483,1053.92232104493,1157.08451495657,8.82995562060148,0,26.7646497492776,0,102.201333054574,0,28.7581011758994,0,97.4220938928508,0,6.2980064177631,0,268.140369355214
-3.7660499,6.5562596,CIV,"",FALSE,0,3330.13071312614,26.749789223801,0,0,,,,0,12,130.226008709441,1e-06,1.97913930494653e-05,1174.39777374768,5.49059930856648,176.493726215245,1e-06,3.05557432805072e-05,1224.93470471442,4.39932808215211,1e-06,92.6104584586418,2.6749789223801e-05,24.604900875995,0,14.2327696142884,0,85.756825801842,0,6.39903788067541,0,146.122981260862,0,6.80925555895527,0,140.193718640252
-3.199681,5.466835,CIV,"Aboisso - Côte d’Ivoire",TRUE,115.831,3283.31415970208,30.802133925745,380309562.432452,3567841.97475296,,,,0,12,96.7122746750586,115.831,1498.67235128593,27143.4235137686,5.23236156584443,131.917117581065,115.831,2335.10309710444,33914.1984843039,4.58055328583923,115.831,2760.3150475972,3567.84197475297,24.3893303418209,0,203.953221401765,0,138.511319089701,0,125.132941439734,0,191.833540604891,0,414.004114772573,0,86.3977713084877
-2.884658,34.416684,MAR,"Taourirt - Morocco",TRUE,321.876,5909.4069394727,41.5215982796711,1902096268.04972,13364805.9678674,,,,0,8,533.249365316836,321.876,47729.0712846622,48831.324894745,2.51729433929523,656.451085162353,321.876,64230.7535721618,74590.813850072,2.30274264940689,0,611.343946087171,0,56.6469001130945,321.876,12760.8402200663,13364.8059678674,7.47222362870781,0,111.525862468213,0,176.111155783005,0,159.741895664578,0,138.59800782541
-3.3598599,7.0014696,CIV,"",FALSE,0,3315.53558628181,33.597304142047,0,0,,,,0,12,131.561637496773,1e-06,2.00820079925874e-05,3299.07548342759,5.46010093717378,155.532084494098,1e-06,2.55065091438848e-05,4249.78713182373,4.69146392123633,1e-06,241.722618227628,3.3597304142047e-05,31.7206179228692,0,53.7254489977381,0,86.4502917375786,0,44.750560629117,0,97.6534322300092,0,18.5010273344547,0,175.963504495301
-2.933289,35.166696,MAR,"Nador - Morocco",TRUE,398.424,7606.25038889618,51.3612061101847,3030512704.94557,20463537.1832442,,,,0,8,580.793205260953,398.424,66746.3127495114,72981.9471123221,2.42682119468472,716.805579345199,398.424,90150.8699880343,93813.8724044123,2.2175608499538,0,469.371827400086,0,75.807555391052,398.424,20101.6310811303,20463.5371832442,6.19296436413378,0,113.529530737165,0,195.275214258542,0,178.8922446392,0,144.208886698302
-3.483656,6.733739,CIV,"Abengourou - Côte d’Ivoire",TRUE,164.424,3393.50643563291,31.3151713379485,557973902.172505,5148965.73207084,,,,0,12,426.36416365778,164.424,17712.2763515234,20779.8977023172,2.77057264017672,506.94860453389,164.424,22681.8776901467,27334.3424655077,2.57245731501477,164.424,4642.89029020546,5148.96573207084,8.38741857149345,0,147.922365330606,0,83.4573716156946,0,76.3001489789193,0,129.758855896079,0,59.809440327567,0,152.630305202119
-2.416466,13.583359,BFA,"Ouahigouya - Burkina Faso",TRUE,124.58,1563.41905949248,24.9678181813964,194770746.431573,3110490.78903837,,,,0,13,452.813876361234,124.58,14625.1042997876,16032.6797593486,2.70002113187924,480.613024616887,124.58,15924.4489557306,17541.6644343294,2.63194909115711,124.58,3027.1155282416,3110.49078903836,8.4912575931137,0,98.4201099455174,0,83.3557298782858,0,87.2026926294887,0,90.3590018370215,0,14.9913711467709,0,292.25623495655
-3.0625598,11.1466293,BFA,"Hohoe - Ghana",FALSE,25.922,1561.522,20.2432159885365,40477773.284,524744.644854843,,,,0,13,462.552299604066,25.922,3137.0449936812,3305.3958732931,2.67551016403762,493.619850190892,25.922,3442.32483237246,3595.34777976358,2.60200013319858,25.922,491.606681381982,524.744644854843,9.80368616193212,0,50.6007685899408,0,44.637155312655,0,11.881919729138,0,117.276278710442,0,3.02735010275063,0,291.805062586283
-2.7472,11.7775002,BFA,"Sébékoro - Mali",FALSE,40.627,1561.522,21.1605772475616,63439954.294,859690.771836685,,,,0,13,426.469916654624,40.627,4378.02050250139,5105.25264275953,2.77027832845989,433.395288431017,40.627,4479.93557697577,5397.37105723947,2.75121929837395,40.627,658.733226985475,859.690771836685,11.1816787131644,0,77.3767383378738,0,46.6200909994789,0,24.4072583165908,0,100.608358893041,0,4.72702977423702,0,300.553072925952
-3.03983,6.1229501,GHA,"",FALSE,0,3802.82235998441,26.9757504642009,0,0,,,,0,14,90.6045241671651,1e-06,1.17871283368496e-05,1881.30799834446,6.72506247787493,132.748615574612,1e-06,2.03413422641504e-05,2716.74286398474,5.092693004089,1e-06,145.178189848211,2.69757504642009e-05,35.8959624188904,0,26.7107067514265,0,110.965915588883,0,22.2517700195843,0,125.33435934557,0,24.2835967773715,0,118.241839806769
-2.75492,6.4242897,GHA,"",FALSE,0,3953.2102,29.0369393929079,0,0,,,,0,14,116.531742807047,1e-06,1.68866230463523e-05,1562.61690888503,5.83661515179309,135.106848643096,1e-06,2.08595248958663e-05,4232.4580813961,5.04599154841299,1e-06,161.300692183778,2.90369393929079e-05,44.5571572351778,0,36.8151298402845,0,119.304659328316,0,89.6923888195101,0,65.8927907793903,0,25.1352152787566,0,153.869741172239
-2.366508,12.250045,BFA,"Koudougou - Burkina Faso",TRUE,252.816,1560.77676867213,26.6972220059627,394589339.548613,6749484.87865947,,,,0,13,443.062925787098,252.816,28770.6076960363,40381.3006732286,2.72532944319412,483.613781213913,252.816,32604.8539850211,44624.5744854523,2.62493770543909,0,681.874555277894,0,42.6283701711474,252.816,5096.32748179751,6749.48487865947,11.1514201150411,0,245.67459430543,0,84.1902045158104,0,32.6475259035704,0,323.296904711114
-2.883702,7.283584,GHA,"Domaa-Ahenkro - Ghana",TRUE,1000,3838.14915389001,37.1443756204362,3838149153.89001,37144375.6204362,,,,0,14,507.622644543851,1000,138209.584012545,150726.345866042,2.57099258626343,552.825352984633,1000,156121.384844582,177155.699523465,2.47869788918261,0,846.351612286423,0,87.3829024607566,0,444.325654126493,0,134.274256782545,1000,35186.2948755997,37144.3756204362,7.28134022790785,0,250.61030931022,0,196.695486675087
-2.800007,8.033291,CIV,"Bondoukou - Côte d’Ivoire",TRUE,141.568,3415.9826182662,35.1347520530404,483593827.30271,4973956.57864482,,,,0,12,572.536190341624,141.568,23236.0977289365,24811.1572256801,2.44175952505693,621.660454654292,141.568,26135.7548854572,27630.8991069229,2.35711803097561,141.568,4740.96617331002,4973.95657864482,7.63367096831206,0,116.95867099311,0,90.0788967567297,0,158.469978428153,0,73.5664855248508,0,30.6873330825763,0,219.788641018412
-3.0037599,9.2666302,CIV,"Birkat as Sab‘ - Egypt",FALSE,94.883,3281.84616266209,23.3886063445532,311391409.451867,2219181.13579024,,,,0,12,443.980795486486,94.883,10829.7105681591,11813.1403193465,2.72291283335624,486.800134964376,94.883,12352.0894628418,13211.7986158969,2.61756038683366,94.883,2121.00587201832,2219.18113579024,8.86155815928821,0,70.9186769848599,0,85.3815936546978,0,71.7526367202899,0,84.7187287145726,0,15.5757808277184,0,234.551450062793
-2.500115,10.066876,GHA,"Wa - Ghana",TRUE,107.214,3936.48868750266,37.1891567694194,422046698.141911,3987198.25387653,,,,0,14,459.978260698843,107.214,12871.8670060762,21070.6658615273,2.68191683240558,479.336630335282,107.214,13652.6734789806,23728.4752888728,2.63495045399567,107.214,3513.6276292544,3987.19825387653,9.41416600212214,0,127.402927640697,0,85.9342064821628,0,177.539367531165,0,68.8793802053308,0,23.9119803030045,0,262.145242521308
-2.7890699,11.0427799,BFA,"",FALSE,0,2197.95807905528,23.1288106598402,0,0,,,,0,13,252.810847760363,1e-06,5.10557781058943e-05,918.279018903708,3.87076500563669,266.965899460651,1e-06,5.51880465655188e-05,873.752366228226,3.58732652560632,1e-06,77.666695199732,2.31288106598402e-05,18.0110873274898,0,15.4541222050872,0,52.8445565305363,0,5.41904171549365,0,106.271014121509,0,1.14516824333617,0,299.5368753274
-2.75752,5.2915597,GHA,"Kolda - Senegal",FALSE,27.938,3680.15963132643,31.4353166300399,102816299.779998,878239.876010055,,,,0,14,233.321821303381,27.938,1271.94486958521,3923.88099616376,3.58740512053659,215.724609127534,27.938,1137.14889825282,5785.86157992527,3.71001538455522,27.938,528.734753755334,878.239876010055,18.2864399769591,0,31.8919340639864,0,118.895978506972,0,26.8757304078433,0,133.264421958444,0,50.6351258482004,0,87.3614447978715
-2.49212,9.0273695,GHA,"Mesra - Algeria",FALSE,10.555,3903.89231157778,29.1246396378985,41205583.3487034,307410.571378019,,,,0,14,192.444872424116,10.555,364.949372643928,3325.70176171767,3.8960989667615,236.183996807126,10.555,488.985132971168,3486.99186876569,3.56870865036517,10.555,237.296818357136,307.410571378019,21.4100216210553,0,24.2573609588011,0,97.9300591105501,0,74.2927833840045,0,46.4351974899336,0,6.58576082723025,0,233.564991724071
-1.911082,34.686468,MAR,"Oujda-Angad - Morocco",TRUE,619.82,7265.94785567517,64.1855171619656,4503579799.90458,39783467.2473295,,,,0,8,661.061412304232,619.82,124928.653625142,124934.196719137,2.29584927830965,755.376369021064,619.82,151149.66333088,173708.113216542,2.16830270027375,0,731.099296161794,0,83.1793891506645,619.82,39064.8104720583,39783.4672473295,5.86330976976206,0,164.550958684961,0,224.801808156388,0,401.476986746209,0,124.039339206716
-2.63341,7.4203897,GHA,"Béchar - Algeria",FALSE,96.471,3953.2102,36.4293790503192,381370141.2042,3514378.62636334,,,,0,14,465.031462090147,96.471,11764.282340644,25414.7430295556,2.66938800303704,516.080306032997,96.471,13651.7018892017,28346.3639376265,2.55285008056005,96.471,2484.4679332298,3514.37862636334,12.9380240158078,0,249.840931070364,0,59.8293783573354,0,405.553601591217,0,43.316967152641,0,34.2138515274128,0,225.193355855599
-2.42713,6.64852,GHA,"",FALSE,0,3953.2102,30.0019266172557,0,0,,,,0,14,133.764293816716,1e-06,2.05640411984138e-05,7213.7488752954,5.41091005561774,171.184469522774,1e-06,2.92511523565767e-05,8397.06195160384,4.46779037501467,1e-06,202.157857779188,3.00019266172557e-05,53.5859097700244,0,85.1969220771139,0,95.3297431727583,0,292.191555621806,0,41.9178744505147,0,40.0228921956697,0,157.750973214962
-1.9408599,7.58079,GHA,"Nnewi - Nigeria",FALSE,104.212,3953.2102,38.4258396252504,411971941.3624,4004433.5990266,,,,0,14,313.999979247555,104.212,7251.69701981911,29479.723133425,3.15868053436888,380.798356201598,104.212,9552.22564765438,33115.8735111536,2.90807942025227,104.212,2697.61781658655,4004.43359902659,15.4754561431571,0,285.066790113726,0,69.2361094963184,0,457.667492120965,0,50.4967811977131,0,59.5218412377879,0,196.718936803131
-2.3793299,11.9639797,BFA,"Gīnīr - Ethiopia",FALSE,8.983,1555.86958355345,20.7091832742223,13976376.4690606,186030.593352339,,,,0,13,219.812700299169,8.983,375.569826853393,2045.03484557777,3.68028589902531,267.434703358515,8.983,496.998356251184,2378.38245537354,3.38362520005857,8.983,127.554168196353,186.030593352339,23.7925105387355,0,74.2703909694578,0,34.1213528348565,0,20.2030045622538,0,81.2754546909547,0,2.67114540650833,0,313.163903731093
-2.3323998,7.3266597,GHA,"Matola - Mozambique",FALSE,225.038,3934.99061586051,37.6600902235125,885522418.212017,8474951.38371881,,,,0,14,476.332629415928,225.038,28400.2167724806,51355.7032020871,2.64205858162879,501.960957577954,225.038,30608.0300453706,58679.161518905,2.58338099121092,0,757.803225860152,0,46.9324716251551,225.038,5939.2221359403,8474.95138371881,11.894823804645,0,362.681887569103,0,76.7056135036924,0,91.1988779425454,0,192.53871223878
-1.527486,12.368619,BFA,"Ouagadougou - Burkina Faso",TRUE,2497.171,1561.522,38.4954008979503,3899387454.262,96129598.7557355,,,,0,13,507.406121822157,2497.171,344922.678715176,364209.709397928,2.57146243179444,535.932109341564,2497.171,372954.750395985,394698.616775963,2.51188616767194,0,1663.65910128421,0,96.2647896444146,0,955.087933184908,0,139.363203696487,2497.171,93782.9337984483,96129.5987557354,6.54778603490375,0,241.010029568387,0,348.995866213498
-0.85435,10.77911,GHA,"Calabar - Nigeria",FALSE,93.991,3844.83852701892,32.5092252880077,361380217.993035,3055574.59404513,,,,0,14,412.159200670261,93.991,9646.57218154597,17335.1360560681,2.81109994317466,443.317637472671,93.991,10705.0159767376,19041.7929088809,2.72465801648585,93.991,2495.02311672823,3055.57459404513,10.5617084497263,0,93.919110163983,0,94.0332066993325,0,203.140304858625,0,56.2237521977859,0,20.0455234784388,0,263.292784949749
-2.02933,8.1420498,GHA,"",FALSE,0,3909.39329504001,30.4736731110018,0,0,,,,0,14,364.450344945173,1e-06,8.60920374604833e-05,218.591815070329,3.22158388812406,269.591274260611,1e-06,5.59650000703917e-05,556.4790147937,3.5704117543818,1e-06,33.3872170227991,3.04736731110018e-05,23.2968577688272,0,5.0667747960866,0,81.8835064190936,0,10.8459214363925,0,49.2991987889813,0,1.23927013965703,0,209.366333799567
-0.852935,9.408997,GHA,"Tamale - Ghana",TRUE,1146.388,3953.2102,39.9885546755501,4531912734.7576,45842399.2173945,,,,0,14,545.943744539096,1146.388,175801.475303954,188995.98324479,2.49203938416496,594.051157915095,1146.388,198342.933984675,216309.746606021,2.40345936609673,0,1316.07224220989,0,72.116452921856,0,444.777801482362,0,148.636490091993,1146.388,43812.4139960464,45842.3992173945,6.9687687654823,0,236.41500702839,0,226.518746652703
-2.0349898,7.0902801,GHA,"El Wak - Kenya",FALSE,45.153,3953.2102,34.7409805927437,178499300.1606,1568659.49670415,,,,0,14,212.054475716572,45.153,1793.33970747382,15602.622377515,3.73739927683202,245.799901014072,45.153,2214.53697822683,18063.4936309183,3.50819252099934,45.153,949.711007394512,1568.65949670416,24.9971370174779,0,217.689810225883,0,66.7409705795169,0,305.172420259409,0,53.2828848633034,0,49.0489732345594,0,180.245586102221
-1.89963,5.9580197,GHA,"",FALSE,0,3910.51913372888,33.3768235924992,0,0,,,,0,14,98.8059205374278,1e-06,1.33404218116029e-05,3592.98224349792,6.40138338990794,141.491732473577,1e-06,2.22819171712398e-05,16618.2017630172,4.92609285730697,1e-06,341.521172808657,3.33768235924992e-05,65.6568722791273,0,238.966917504491,0,83.3041731426512,0,274.019877002085,0,76.0391466492541,0,197.969872937273,0,94.4407026263118
-1.625058,6.70004,GHA,"Kumasi - Ghana",TRUE,6898.949,3953.2102,55.7015155157662,27272995556.0798,384281914.76598,,,,0,14,584.207368129007,6898.949,1165470.15142901,1218016.12988523,2.42073382174845,616.23100144474,6898.949,1257796.72527931,1312134.87009112,2.36599628023402,0,2622.30385149735,0,149.122909106763,0,1810.94045669582,0,190.866742663621,6898.949,380152.298624786,384281.91476598,5.40374228048564,0,1352.05114559685,0,231.919693789021
-2.26566,12.9614601,BFA,"Zomba - Malawi",FALSE,78.833,1627.34871682273,19.3775853082574,128288781.393286,1527593.18260586,,,,0,13,285.05838723143,78.833,4777.88816539006,12059.765775106,3.29233462413255,306.237671365139,78.833,5292.97650091541,14113.1871510068,3.19274871184541,78.833,1146.37316001166,1527.59318260586,17.0227920607295,0,172.71524968634,0,60.1212063512412,0,179.554677773541,0,58.5846257206917,0,15.4341229340615,0,300.787769360335
-1.083295,13.083043,BFA,"Kaya - Burkina Faso",TRUE,141.824,1561.522,20.6131088024861,221461296.128,2923433.54280379,,,,0,13,408.979162897055,141.824,14395.6415650843,15969.8310156277,2.82044703269866,440.381763254775,141.824,16000.3091415227,17361.1709616424,2.73242793189884,141.824,2664.5662402179,2923.43354280379,9.53199281448159,0,80.0722911394465,0,98.615813531076,0,134.46697192193,0,69.8003573621239,0,17.5094867676155,0,271.697591606575
-2.0190399,12.1964092,BFA,"Sakouéba - Mali",FALSE,41.911,1578.17761345313,20.6985723020877,66143001.9574339,867497.863752799,,,,0,13,233.217257242938,41.911,1906.87792849767,9366.75126399674,3.58809425991752,271.072683571126,41.911,2363.98340218413,11006.0827064207,3.36408833216871,41.911,839.965891582177,867.497863752798,18.6974105313404,0,151.623181326252,0,58.5390281195255,0,145.177177204445,0,60.259244019175,0,10.948780792296,0,337.581576983637
-1.9836799,4.92097,GHA,"Bocaranga - Central African Republic",FALSE,27.719,3953.2102,37.6841551729159,109579033.5338,1044567.09723805,,,,0,14,140.034131307807,27.719,608.563072471666,10640.5904598125,4.46481954332538,281.89059406326,27.719,1653.3785012733,9269.65048769024,3.30814013553672,27.719,511.237997660595,1044.56709723806,22.8320051789627,0,48.6325961301544,0,109.56567085667,0,53.9040818678171,0,102.30064438239,0,174.00713500537,0,46.836176457846
-0.78598,32.4087105,DZA,"",FALSE,0,13888.5151898265,38.4111599953153,0,0,,,,0,10,134.744016227685,1e-06,2.07795442392437e-05,1260.40266487504,5.38950600580512,135.790692420624,1e-06,2.10105176959855e-05,1824.30885328546,5.03269357830379,1e-06,63.7423933535541,3.84111599953153e-05,47.0883969451361,0,69.0202016151448,0,44.6562106476817,0,6.54406442199807,0,214.767056336493,0,11.4189524605042,0,148.177358781337
-0.29448,27.9394188,DZA,"Cuango - Angola",FALSE,77.757,13747.3943974488,41.9438900722357,1068956146.16242,3261431.06034683,,,,0,10,500.412405579442,77.757,10529.3619922106,11784.2021278295,2.58680423280331,592.177020833755,77.757,13392.5777237109,13773.7466933817,2.40670187647022,77.757,3249.11944756868,3261.43106034683,6.30393397304332,0,58.4280775724591,0,91.8428120085407,0,21.5290769209958,0,178.693734228359,0,15.577462765824,0,221.715018898017
-1.735029,8.052471,GHA,"Kintampo - Ghana",TRUE,111,3953.2102,31.8375771190788,438806332.2,3533971.06021775,,,,0,14,518.055833817503,111,15793.6823007665,21977.3292373845,2.54867298467458,576.455106562649,111,18397.2659444014,25166.8061936401,2.43463142488675,111,2942.27356610738,3533.97106021775,10.1827072851313,0,118.420985580089,0,86.7027446831705,0,314.566286414291,0,45.2040322743182,0,34.7741237678273,0,196.252183112379
-1.704435,4.940486,GHA,"Sekondi - Ghana",TRUE,345.041,3953.2102,55.5145875968161,1364019600.6182,19154808.818993,GHTKD,Takoradi,AI,343.8114,14,905.100398206003,345.041,108943.875084461,126432.347291213,2.00661142871826,992.47193060461,345.041,124272.878283978,158397.735250774,1.92890402564546,0,567.273702637655,0,82.403975424003,0,575.47199766822,0,81.6194757396305,0,283.342411177228,0,130.898762623815,345.041,29625.7334495645,31875.830618993,5.89789709174641
-1.66741,7.6862698,GHA,"",FALSE,0,3953.2102,34.7148244506919,0,0,,,,0,14,397.905440300989,1e-06,9.76002341129087e-05,311.422306213969,3.08523907269142,444.666206919345,1e-06,0.000114389325872827,362.115919222908,2.81879884695446,1e-06,33.7779206648586,3.47148244506919e-05,13.704837245482,0,2.26398649435611,0,83.0577090406143,0,5.03849064432421,0,48.7261606991101,0,0.653341127428916,0,190.196497378478
-1.2003399,5.16293,GHA,"Lubango - Angola",FALSE,242.548,3953.2102,47.126908309488,958843227.5896,11430537.3566497,,,,0,14,324.431672574605,242.548,17684.6401268652,85303.941933269,3.11474011871069,371.506936825194,242.548,21461.4286701833,98147.0774842099,2.93903011507885,0,328.719001290459,0,131.292246192766,242.548,8180.71666514956,11430.5373566497,15.4026241016106,0,625.42494112594,0,85.507751553995,0,1165.79763615837,0,56.4555752984162
-0.983493,7.750098,GHA,"Atebubu - Ghana",TRUE,105.938,3953.2102,32.7029046576606,418795182.1676,3464480.31362325,,,,0,14,299.056332026367,105.938,6875.77061315705,22823.4415780271,3.2253839221164,295.211449705894,105.938,6749.83391608111,29413.2671912505,3.24332089867649,105.938,2489.12524848018,3464.48031362325,16.8262601431779,0,177.274116385657,0,97.9313812104635,0,413.51227835166,0,55.6792221643968,0,76.6767799087548,0,171.228553819324
-0.47613,6.2894998,GHA,"Benguela - Angola",FALSE,186.596,3915.11583355947,41.0997756355816,730544954.078863,7669053.73449698,,,,0,14,254.372875697888,186.596,9611.00477388616,48776.4979155692,3.45702419821649,283.636374027296,186.596,11228.6499496518,59397.2268070501,3.299398340108,186.596,6682.95812543489,7669.05373449698,14.1568415325151,0,237.02683259696,0,131.143626433038,0,313.704382838098,0,108.792378864758,0,372.882679571589,0,96.9536261849434
-1.26867,12.4855795,BFA,"Kuvango - Angola",FALSE,33.296,1548.55313505811,24.8504324087384,51560625.1848949,827419.997481354,,,,0,13,170.844453103172,33.296,971.18396244472,6805.06730308895,4.10005314002683,188.238141510218,33.296,1115.45997823915,7179.03283005725,3.93317922373699,33.296,449.031316145272,827.419997481354,24.961457563596,0,45.97964400075,0,114.045274417616,0,192.891208756387,0,43.8442594841244,0,11.7435802307671,0,283.304855847397
-0.433167,12.249994,BFA,"Pouytenga - Burkina Faso",TRUE,181.256,1596.38093961074,25.259614458178,289353623.590084,4578456.67823152,,,,0,13,487.325908657779,181.256,23632.7435799218,24123.1070283569,2.61634956174462,518.155577168848,181.256,25797.1810177075,26355.7118567455,2.54846311512442,181.256,4457.85967319942,4578.45667823151,8.33253704379874,0,111.517873698217,0,97.4163540501437,0,173.644256830172,0,72.5138963435637,0,24.6216155312128,0,266.67593606544
-0.199998,5.549954,GHA,"Accra - Ghana",TRUE,3048.022,3953.2102,68.5172293751128,12049471660.2244,208842022.51439,GHTEM,Tema,QQ,7407.89336449,14,1048.16696333102,3048.022,1186856.93388212,1224327.82184079,1.88429784101411,1092.57808677674,3048.022,1259343.23121065,1299301.09953818,1.85107711161714,0,1416.29158374455,0,174.768274607956,0,1163.02733922305,0,199.298684663646,0,740.015757833066,0,269.4038119562,3048.022,480567.487475799,482934.07700052,3.59248357413139
1.65764,13.7969694,NER,"",FALSE,0,908.340884736449,18.21835659222,0,0,,,,0,15,155.861442897158,1e-06,2.55837058355604e-05,1536.66149646708,4.98228445180316,168.249976712221,1e-06,2.85374615323337e-05,1607.64651254918,4.50712289792582,1e-06,64.3608603472798,1.821835659222e-05,38.5134021621205,0,11.0507752619028,0,124.670761088351,0,65.8733184233033,0,37.9216079299949,0,2.99295745588265,0,297.823810311833
0.05265,8.85392,GHA,"Chinde - Mozambique",FALSE,8.6,3953.2102,29.5972745903776,33997607.72,254536.561477247,,,,0,14,144.935410736325,8.6,198.321687275039,2857.72777242115,4.3994744706881,179.729796114051,8.6,269.689407219906,3591.95000030175,4.01192392061112,8.6,255.897813039696,254.536561477247,23.3450689295177,0,37.2573154163305,0,84.3526061489257,0,32.2478284359173,0,92.8765114359072,0,14.5820730081935,0,157.649778755175
-0.233454,11.049927,GHA,"Bawku - Ghana",TRUE,100.737,3443.348943435,35.8736219329596,346872642.514812,3613801.05266056,,,,0,14,596.681217662775,100.737,17539.4050944524,18343.2117084625,2.39891331079936,642.613558245353,100.737,19499.595270386,20247.2584797853,2.32386738167704,100.737,3603.5828428332,3613.80105266055,7.34456058786748,0,93.3931956580176,0,83.8645976810882,0,108.924361691641,0,75.69005290218,0,17.8107742367192,0,253.124175752388
-0.82513,9.98067,GHA,"Aioun - Mauritania",FALSE,12.666,3608.44598300667,29.1684758976839,45704576.8207625,369447.915720064,,,,0,14,201.756026513147,12.666,468.520285147137,3303.53996692753,3.8179974540784,229.188321634726,12.666,562.111718366865,3495.60661755028,3.61499225904828,12.666,181.121083086519,369.447915720064,26.0101626919518,0,23.142267034723,0,102.530200607686,0,111.817354076707,0,35.8742584273031,0,6.34492139481637,0,242.943291301739
-0.01374,9.4424696,GHA,"Luuq - Somalia",FALSE,52.008,3953.2102,30.0437969546538,205598556.0816,1562517.79201763,,,,0,14,304.323958469802,52.008,3460.77068152166,11428.4110347847,3.20133780802449,339.064831081495,52.008,4038.67955827066,12903.9078982935,3.05640951529548,52.008,1450.19142492541,1562.51779201763,13.1242801117078,0,81.2371022906321,0,89.644317185895,0,119.707405355274,0,69.2274552562107,0,23.8103368791718,0,203.164903545773
-0.22433,9.9239798,GHA,"Diallassagou - Mali",FALSE,10,3953.2102,25.3205514237845,39532102,253205.514237845,,,,0,14,364.637392435104,10,861.551660695665,1689.09772332591,2.96263341649316,390.979119105371,10,951.822849400973,2055.46067577128,2.87538154723826,10,238.486246131394,253.205514237845,12.0872091375578,0,12.0156849196688,0,88.6072469330974,0,21.9083898652977,0,59.3692126721984,0,2.89162069126656,0,229.020337556667
-0.23763,32.7311096,DZA,"",FALSE,0,13822.566,39.9593271920494,0,0,,,,0,10,200.758914706911,1e-06,3.67295063297752e-05,862.65092807561,4.35901918871494,198.766807860146,1e-06,3.62099547774319e-05,1778.79410729647,4.14504239755407,1e-06,77.8246979704662,3.99593271920494e-05,33.3837222969473,0,87.1758168953977,0,30.9515162076621,0,3.66882565075062,0,255.816131208078,0,6.54586874832939,0,173.900583182205
0.062,34.1462479,DZA,"Magu - Tanzania",FALSE,18.568,13822.566,39.034247987274,256657405.488,724787.916627704,,,,0,10,528.838003734814,18.568,2720.85672203151,4147.48355151569,2.52627233546108,390.599060831617,18.568,1764.89092219815,5566.77318476354,2.87658087757486,18.568,549.101883675936,724.787916627704,13.4744295532008,0,114.221049853005,0,38.3808668588351,0,6.57975610973887,0,257.319310050362,0,22.1487610401653,0,114.563402892947
-0.633443,35.696881,DZA,"Oran - Algeria",TRUE,725.418,13680.5691624158,63.5150657543658,9924131120.66136,46074971.9694005,DZORN,Oran,AI,255.6159,10,700.703920845892,725.418,158897.581814435,174063.072138956,2.2392556169784,786.402516626895,725.418,187371.48464885,221442.250455572,2.13121692015043,0,832.369368268012,0,88.1571155596616,0,604.435722493249,0,109.119242965521,0,115.951634668372,0,328.057697666041,725.418,53845.8301679425,55532.7602694005,5.4705776237817
-0.34739,35.5365906,DZA,"Kouribga - Morocco",FALSE,90.859,13775.9879587745,55.3395627750259,1251672489.94629,5028097.33417608,,,,0,10,412.36236701167,90.859,9331.69316631707,29833.6006288523,2.81050630534946,555.152845139734,90.859,14270.4262265302,34866.0403442971,2.47423887148897,90.859,4074.57172603183,5028.09733417608,10.3511529520066,0,453.809942241779,0,44.7157698956177,0,29.8231559779403,0,274.583438448508,0,206.535355872052,0,75.5753969161554
0.05872,6.15661,GHA,"Zagora - Morocco",FALSE,34.381,3953.2102,38.8969776080709,135915319.8862,1337316.98714309,,,,0,14,532.988894540751,34.381,5094.59620948136,6950.70436093258,2.51782078125612,476.582981521706,34.381,4342.204733718,8355.73865126122,2.6414645029501,34.381,1064.97057520522,1337.31698714309,10.4298069837697,0,30.4525465174488,0,111.536993610857,0,21.9396198759582,0,138.786943711149,0,71.8806310083012,0,62.9158531567173
0.36174,12.0579901,BFA,"Mazabuka - Zambia",FALSE,73.2,1564.24563399205,22.6391773750371,114502780.408218,1657187.78385272,,,,0,13,350.410474136773,73.2,5958.0041412478,10563.0163793371,3.01359835956011,397.352183598845,73.2,7130.15044126266,11437.3435869406,2.85552537302626,73.2,1468.26781162382,1657.18778385272,11.2210270459163,0,77.282990070332,0,79.8938836603376,0,96.4765924563839,0,68.910939588363,0,12.4698246901311,0,269.564426054361
0.3068,35.7280197,DZA,"Kassala - Sudan",FALSE,468.678,13822.566,55.9459393267844,6478332587.748,26220630.9517987,,,,0,10,656.787709478146,468.678,93593.7947869634,101893.64617064,2.30223992677194,709.610297369626,468.678,104529.713212232,111325.320017895,2.2271670401327,0,632.744625884783,0,69.9299318619215,468.678,25459.337476804,26220.6309517987,5.9554882254434,0,60.5741214551216,0,334.162209897081,0,235.493490872954,0,135.154173158943
0.17407,26.7181301,DZA,"Asamankese - Ghana",FALSE,20.402,13754.6295522982,35.5508752420232,280621952.125989,725308.956687758,,,,0,10,363.953844340558,20.402,1753.0323761531,2925.78380853077,2.96501694473912,507.674829554108,20.402,2820.1660539874,3246.8119280905,2.57087954832509,20.402,713.461587318748,725.308956687757,7.06002299029849,0,15.836801235674,0,89.3870884165851,0,5.72045297966296,0,176.2379751246,0,3.88725046615709,0,228.012210562938
1.0877,26.958849,DZA,"Kherrata - Algeria",FALSE,18.598,13747.3415581596,37.6662944731761,255673058.298652,700517.744612129,,,,0,10,444.896995336964,18.598,2128.99022803607,2768.53756806329,2.72050864254796,469.633151556473,18.598,2300.08591723088,3283.72531335053,2.65814625476213,18.598,700.517742071153,700.517744612129,7.44521641563366,0,17.9457794182427,0,85.6738988063313,0,5.67856012863466,0,184.500668189582,0,3.94529497668035,0,235.199884459146
2.101906,34.108919,DZA,"Aflou - Algeria",TRUE,114.592,13822.566,42.5694418617965,1583955483.072,4878117.48182698,,,,0,10,590.356858356837,114.592,19650.2946651234,22683.010498724,2.40989343282862,615.064278704409,114.592,20835.6021444324,24817.9839617824,2.36792084612906,114.592,4384.4434653965,4878.11748182698,7.52088301770966,0,324.384752809643,0,42.6747355850648,0,16.6383221047899,0,309.127831140295,0,38.5470703786184,0,176.556431763222
3.666624,32.483817,DZA,"Ghardaïa - Algeria",TRUE,210.733,13822.566,54.3332823474776,2912870800.878,11449815.588931,,,,0,10,641.208557520099,210.733,40664.1005273367,44542.5144148835,2.32604802249617,687.821092164626,210.733,44951.9534968736,48583.363691515,2.25713553108307,0,367.792518818683,0,58.543881579499,210.733,10876.9698981431,11449.815588931,6.121773122676,0,35.3588804578413,0,278.965284839555,0,58.6604779539013,0,199.060645434927
0.20933,10.8734493,TGO,"Al Manāqil - Sudan",FALSE,58.071,1468.95664149522,31.2532292472104,85303781.1282692,1814906.27561475,,,,0,16,516.507387518061,58.071,8227.39856037253,10181.2381522624,2.55194511542122,547.934305669468,58.071,8951.75496270741,11719.7794273216,2.48815626104334,58.071,1582.38916052067,1814.90627561476,9.45398866457274,0,118.718973275553,0,53.1468083719391,0,56.2034832197055,0,87.494708490973,0,12.4286698676024,0,239.262246244777
0.05048,5.7687697,GHA,"Ténès - Algeria",FALSE,37.402,3953.2102,53.4407004820401,147857967.9004,1998789.07942926,,,,0,14,170.515278343095,37.402,1087.94694174692,16855.6822473337,4.10344361398401,192.187710444256,37.402,1290.74245138157,19485.1836625104,3.89833256656181,37.402,974.54897438063,1998.78907942926,28.7174655838997,0,101.388122654297,0,129.824652121294,0,76.1840189395558,0,157.074602399628,0,529.986642998945,0,43.1027790420858
0.77777,18.9019699,MLI,"",FALSE,0,2285.3071,12.4608224567388,0,0,,,,0,9,73.9239161218221,1e-06,8.81398718044817e-06,1484.30890700366,7.56944685285762,125.480086739208,1e-06,1.87691074747309e-05,716.345450437669,5.24574584838093,1e-06,55.5747932245793,1.24608224567388e-05,28.8383458229374,0,7.34308934002527,0,111.165417954287,0,6.76335388279386,0,117.430481969799,0,2.18006478135447,0,249.790542694151
1.4786099,14.2064199,NER,"Namakgale - South Africa",FALSE,19.262,902.661251353596,18.3109624941318,17387061.023573,352705.759561966,,,,0,15,155.830315546467,19.262,492.652752698118,1936.87271318254,4.26491589261422,203.895244133632,19.262,723.325838710982,1934.30124340712,3.80077820953222,19.262,167.13879402337,352.705759561967,19.4463050299509,0,13.2073105500478,0,105.603669253591,0,30.7421506103891,0,60.1264782050233,0,3.07960415391365,0,278.756716475236
0.46922,10.3394394,TGO,"Hamma Bouziane - Algeria",FALSE,34.791,1791.52743346508,23.7423490738048,62329030.9376835,826020.066626741,,,,0,16,374.819629224949,34.791,3117.7088558643,5363.24734495877,2.92786952723397,406.078313078757,34.791,3495.6821884504,6120.5844101371,2.82906422826303,34.791,655.880325516467,826.020066626743,12.5397342403858,0,85.3434140961569,0,48.834273033192,0,31.7116514500843,0,94.48412144727,0,8.43628876725037,0,228.421569722695
1.14132,9.47579,TGO,"Cacongo - Angola",FALSE,33.327,1373.44357100469,23.4389778775196,45772753.8908734,781150.815724097,,,,0,16,331.487743808309,33.327,2505.78410772372,5718.84346979817,3.08615750729141,389.204168225453,33.327,3151.58754001722,6610.52961823099,2.88099410874668,33.327,807.039059346602,781.150815724096,11.7067632932875,0,76.937328796207,0,56.0972800930404,0,24.2765437260495,0,121.034348607803,0,12.3058665695864,0,190.381644148383
0.59562,6.0068398,GHA,"",FALSE,0,3953.2102,37.1738924725988,0,0,,,,0,14,199.302954064936,1e-06,3.63495659385557e-05,3189.31796339338,4.37556357628401,243.893071448761,1e-06,4.85025479465906e-05,4298.29368618414,3.74801812125544,1e-06,142.339987970367,3.71738924725988e-05,36.3452607746219,0,24.5095780706324,0,117.428951460419,0,14.7553232672861,0,164.702397406467,0,183.290880726899,0,30.7070785645988
0.50771,7.5739598,GHA,"Kayanza - Burundi",FALSE,11.503,3218.33666164992,33.5632575458883,37020526.618959,386078.151550353,,,,0,14,138.141297547419,11.503,247.682755480449,4396.90589618661,4.49093673234531,204.121396414172,11.503,432.64479625652,5409.02962974348,3.79897301794737,11.503,394.149123643913,386.078151550353,21.7756973652319,0,53.1747100542429,0,82.7832290374358,0,26.8931558165634,0,130.412114808791,0,41.6185674925092,0,97.4737551652223
0.470198,6.611847,GHA,"Ho - Ghana",TRUE,183.715,3893.07070546691,38.4335396256206,715215484.654853,7060817.73232089,,,,0,14,442.693648744342,183.715,20881.9851512084,40419.9576504803,2.72630330109256,569.579846634918,183.715,29931.6608407371,48937.541397329,2.44718305041502,183.715,6078.70391131347,7060.81773232089,9.83000851443958,0,185.347115853562,0,100.71728241261,0,103.687721795869,0,148.346168037847,0,498.234138228761,0,52.096142410184
0.14396,34.7495003,DZA,"Meknès - Morocco",FALSE,128.413,13832.7356266939,48.9472390691589,1776303080.03064,6285461.8105879,,,,0,10,628.590707410768,128.413,24085.5799424466,31370.7471316387,2.34594527371722,590.003745595369,128.413,22001.5133340169,36861.695486261,2.41051234211576,128.413,5379.86963331591,6285.4618105879,8.69584540993732,0,531.804582563576,0,40.6747363272242,0,30.5961504922207,0,272.928139090129,0,92.8884376666837,0,130.172236472086
1.316772,35.366641,DZA,"Tiaret - Algeria",TRUE,273.948,13822.566,52.0993930151733,3786664310.568,14272524.5177207,,,,0,10,659.845285992903,273.948,55070.9027270372,61792.8389757811,2.29766177096192,702.564407429626,273.948,60234.073209424,68101.4304053254,2.23671219850572,0,655.636107110582,0,49.4241307343908,273.948,13391.0485320889,14272.5245177207,6.6146144506755,0,40.1489130595008,0,318.125442052409,0,123.394524681814,0,150.493238286825
0.83412,11.1550198,BFA,"Missour - Morocco",FALSE,13.579,1539.16365357952,21.9358482617815,20900303.2519562,297866.88354673,,,,0,13,277.704454894781,13.579,792.829923095957,2906.25690003632,3.32942065182519,385.353295477879,13.579,1265.99441878197,2944.80296056484,2.89329766792914,13.579,313.155160644489,297.866883546731,12.8901378461073,0,39.4387214638108,0,51.3037045877841,0,17.0505561848482,0,89.7301191533162,0,3.83305955917608,0,242.698393444665
1.064238,10.697912,BEN,"Matéri - Benin",TRUE,260.509,1341.27023884108,22.6149908758556,349412968.65025,5891408.65807827,,,,0,17,442.504165299996,260.509,29592.6791584906,37214.6335946069,2.72680349843948,484.065378701093,260.509,33641.822327199,42049.5216299665,2.6238879217103,0,808.548952309209,0,36.5579449642777,260.509,4535.50772428951,5891.40865807827,11.5798263151183,0,148.003267763796,0,113.397927584995,0,47.2509419599959,0,242.761049937607
1.331625,36.164677,DZA,"Chlef - Algeria",TRUE,575.939,13822.566,54.0496792570843,7960954839.474,31129318.2216458,,,,0,10,664.666860854089,575.939,116989.681989225,118569.557062485,2.2905037297361,690.842394761593,575.939,123626.559079194,127152.238938541,2.25289910531561,0,670.090216660551,0,74.3935966149238,575.939,30799.2934919871,31129.3182216459,5.79780920975165,0,65.7942401522101,0,349.541836762826,0,232.801372987929,0,150.533807455576
