lon,lat,iso3c,city_country,city_port,population,gdp_cap,IWI,gdp,wealth,port_locode,port_name,port_status,outflows,ctry,uj_orig,Lj_orig,Cj_orig,Dj_orig,PCj_orig,uj,Lj,Cj,Dj,PCj,Lj_1,Dj_1,Yj_1,Pj_1,Lj_2,Dj_2,Yj_2,Pj_2,Lj_3,Dj_3,Yj_3,Pj_3,Lj_4,Dj_4,Yj_4,Pj_4
-17.446713,14.692814,SEN,"Dakar - Senegal",TRUE,3223.755,2287.6685,70.2606002240275,7374882765.2175,226502961.27521,SNDKR,Dakar,AI,2417.263262,1,474.089531968239,3223.755,404109.724180812,408861.575943963,2.64740956574719,480.717338882736,3223.755,412204.529188936,416704.222179706,2.63169139467279,0,894.567531370791,0,56.7994959000272,0,1619.63740977268,0,42.2126050227078,0,215.237319978968,0,115.795654875334,3223.755,314385.953017568,315941.70196921,3.02982134216171
-17.044529,14.7029696,SEN,"Yaoundé - Cameroon",FALSE,505.227,2302.16270413245,52.2935947198641,1163114756.52073,26420135.9795328,,,,0,1,324.048566323173,505.227,36774.9441365437,52621.4803088272,3.11632450398161,335.92664496832,505.227,38715.6722572033,55764.3935109904,3.06861358580062,0,1403.90040490539,0,19.3398269204522,505.227,23244.3633456665,26420.1359795328,4.75293670270585,0,85.569471438801,0,78.3359870358576,0,1366.39635568411,0,19.6034100164659
-16.6384888,15.1122198,SEN,"Dzolokpuita - Ghana",FALSE,74.508,2361.8791047779,42.0766985704881,175978888.338792,3135050.65708993,,,,0,1,288.481553127253,74.508,4593.42749938649,6330.66576712595,3.275534125569,291.474221735215,74.508,4661.65223532664,6751.70173315706,3.2610784838419,74.508,2165.69346612291,3135.05065708993,5.75796934565067,0,468.798136510103,0,12.3758514781713,0,17.1238255802034,0,64.7541323594337,0,96.8627285841925,0,27.2263451695049
-16.4633198,14.7565098,SEN,"Gusau - Nigeria",FALSE,113.325,2297.65604456748,38.0772661124075,260381871.25061,4315106.18218858,,,,0,1,263.305177659113,113.325,6132.03289552189,8926.59050611432,3.40626703582284,275.826381089636,113.325,6552.81500968842,9272.43051150509,3.33911709931499,113.325,2422.99536487902,4315.10618218858,6.53208964328791,0,879.078028835033,0,10.8446318218428,0,24.0768567787897,0,65.5282514514823,0,156.586734471859,0,25.6951297154142
-16.4205399,14.3423595,SEN,"Chipinge - Zimbabwe",FALSE,18.416,2269.64499576379,37.4244716433748,41797782.2419859,689209.069784391,,,,0,1,158.483493692299,18.416,482.513257627282,2067.39715305787,4.23416848998655,175.916656695065,18.416,560.088025924838,2355.51548854794,4.04896582444486,18.416,399.129793984097,689.20906978439,9.83625851442281,0,326.226462844586,0,10.8799623384876,0,8.15057043058937,0,68.832418722671,0,58.3506460221494,0,25.7255553058271
-17.033333,20.933297,MRT,"Nouadhibou - Mauritania",TRUE,118,5196.45446473013,38.9206658183864,613181626.838156,4592638.5665696,MRNDB,Nouadhibou,AI,197.0295,2,494.281531163836,118,15699.8841298277,16153.5505161551,2.6005067413182,515.934402258318,118,16691.5472363297,17207.1305448589,2.5531601941732,0,137.280758051624,0,28.5842851984656,0,75.4067018804139,0,38.568009923538,0,20.8807946064967,0,73.2923503187991,118,11279.7168594153,11882.7300665696,3.15343017261264
-16.8981705,21.2914486,MRT,"",FALSE,0,5538.53368337853,18.6296720206833,0,0,,,,0,2,110.923687865387,1e-06,1.5737759068758e-05,842.229643829337,5.51517474057083,153.876677602839,1e-06,2.5119568740189e-05,962.581871976524,4.81377510790748,1e-06,33.9010824562985,1.86296720206833e-05,25.6506147025301,0,17.5659548410435,0,35.6343424325746,0,4.50581905996981,0,70.358678425027,0,356.800844148401,0,7.90663579580101
-15.978542,18.085588,MRT,"Nouakchott - Mauritania",TRUE,1440.712,3726.39485774327,41.8651880562521,5368661788.28902,60315678.8148991,MRNKC,Nouakchott,AI,334.524,2,324.879007092957,1440.712,105252.050296613,108368.336529407,3.11290809026034,342.404235364251,1440.712,113455.868055306,117243.173818141,3.04360259935144,0,1440.71692819595,0,27.45626626804,0,522.701540590134,0,45.5831626331652,0,246.546002358758,0,66.371572669833,1440.712,70695.7256024235,72693.0668148991,3.91954228329107
-15.67383,23.8871498,ESH,"",FALSE,0,7041.16211331411,31.3978211479454,0,0,,,,0,3,129.329115903051,1e-06,1.95969560670949e-05,1256.71364017575,5.08666374728861,178.210444085753,1e-06,3.0981211439971e-05,1335.17086234624,4.45923422055553,1e-06,327.608650406155,3.13978211479454e-05,9.00224885513226,0,73.6532262890589,0,18.9859725006099,0,3.84594769635956,0,83.0858388225404,0,62.3590176452774,0,20.6337933289317
-16.2439098,15.6356897,SEN,"Banikoara - Benin",FALSE,93.802,2287.6183979327,43.5760615586268,214583180.962884,4087521.72632231,,,,0,1,307.599685114065,93.802,6338.07329304332,7912.92488838481,3.18668230363371,315.092860355292,93.802,6559.78569611499,8642.5953441105,3.15398129330584,93.802,3344.61295409965,4087.52172632231,5.07000202390384,0,346.677721374853,0,15.7477546775342,0,22.1132120156412,0,62.3527092071377,0,139.503946617029,0,24.8249264027295
-16.577537,13.453171,GMB,"Banjul - Gambia, The",TRUE,976.753,1827.81084253539,39.6195599018914,1785319723.87897,38698523.9928521,GMBJL,Banjul,AI,184.275,4,322.419751511022,976.753,70586.8569817407,73046.2447954339,3.12306187227707,343.694133253707,976.753,77333.4503595673,81058.3294704594,3.03869912058319,0,1712.25285520317,0,20.9075151519404,0,542.406681237976,0,37.1470054134625,0,133.892960955737,0,74.7665749094428,976.753,43458.5858149445,45516.6989928521,4.15000664569068
-16.2409897,12.7924099,SEN,"Quelimane - Mozambique",FALSE,91.883,2295.74090262069,36.7829540931087,210939561.355497,3379728.1709371,,,,0,1,239.252494086003,91.883,4335.91903713407,6963.0443221233,3.54902057433414,259.535582339452,91.883,4870.43216489805,7411.30418124616,3.42738293614432,91.883,2129.79332323981,3379.72817093711,6.39353755692428,0,87.2135997005367,0,31.5949580330223,0,19.2644320738117,0,67.2251596241855,0,687.032204317375,0,11.2569677119629
-16.076402,14.138908,SEN,"Kaolack - Senegal",TRUE,187.932,2278.7640345833,45.3761239685572,428252682.54731,8527625.72965889,,,,0,1,339.915458279881,187.932,14646.1847109964,16449.3272857571,3.05312921125404,349.709117296694,187.932,15252.7243152718,18393.5948007764,3.01618873074658,187.932,8016.28273507602,8527.62572965889,4.56883419062289,0,386.463970334801,0,20.8083200934659,0,41.4140111976687,0,63.5649899657525,0,399.809337638333,0,20.4581002461999
-15.6096001,13.5730095,GMB,"Bria - Central African Republic",FALSE,70.315,1877.21348753621,26.69126049904,131996266.376109,1876795.98199,,,,0,4,198.772396073007,70.315,2546.20523107669,4056.46451369908,3.84245410908536,198.575437462353,70.315,2542.60175183898,4440.06509419493,3.8440870796008,70.315,1173.44350335548,1876.79598199,7.47750671683379,0,99.2874365564416,0,25.7063620711119,0,17.4396131841723,0,61.3365684497771,0,332.619806596197,0,14.0447449891225
-16.50258,16.034409,SEN,"Saint-Louis - Senegal",TRUE,154.555,2616.38725725041,41.8228350121846,404375732.544337,6463928.26530819,,,,0,1,342.018285259606,154.555,12151.5906398678,12199.7216560648,3.04507009790954,356.128251811442,154.555,12874.035599997,12916.504076693,2.99276689899246,154.555,6388.02009980139,6463.92826530819,4.25561311280942,0,268.452956677555,0,20.7592530035024,0,26.9474850771388,0,65.5218760826094,0,147.624383364734,0,27.9940957616086
-15.804984,16.512799,MRT,"Rosso - Mauritania",TRUE,159.231,3119.63824766881,37.3432812371366,496743117.814552,5946208.0146705,,,,0,2,268.697806754242,159.231,8869.2019855297,11432.5024462482,3.37679922194316,260.77138989725,159.231,8497.81253019025,12905.9820950156,3.42037702740008,159.231,4736.03070491562,5946.2080146705,5.64623441918048,0,267.16097000219,0,23.7732460324305,0,48.7766338299977,0,55.6375978420073,0,460.385117054772,0,18.1098097774602
-15.883334,14.866839,SEN,"Touba - Senegal",TRUE,597.23,2294.61226912889,41.7294708957356,1370411285.49184,24922091.9030602,,,,0,1,323.557887058538,597.23,43377.7401193789,46554.9900362061,3.11834903086666,338.064215945083,597.23,46182.4773723228,50037.4070350281,3.06028365943344,0,1916.63999083485,0,15.6364694163933,597.23,22039.8826951497,24922.0919030602,4.61109911838178,0,94.8369498901933,0,70.2943362712092,0,471.50647272744,0,31.5257440973171
-15.575626,11.856113,GNB,"Bissau - Guinea-Bissau",TRUE,503.968,1367.43735056953,29.1359647460553,689144666.691825,14683593.88114,GWOXB,Bissau,AI,114.309,5,285.402572402513,503.968,30597.0491293873,31600.529310109,3.29063218295475,302.617631707936,503.968,33267.2712649454,34292.091305774,3.20906152338018,0,894.443100347105,0,19.8700367987877,0,173.838833027136,0,45.0714571526597,0,69.9408518053325,0,71.0574410201595,503.968,17882.6797731319,18913.02688114,4.44384326002248
-15.65446,14.4204092,SEN,"",FALSE,0,2255.07749469541,31.0289501068166,0,0,,,,0,1,163.999906737764,1e-06,2.75132499601811e-05,643.928921634548,4.50525274433618,212.321629994611,1e-06,3.97884564689836e-05,895.758359414599,4.07738806904314,1e-06,214.937743095897,3.10289501068166e-05,8.32379237265058,0,68.7390084217847,0,14.7189052779396,0,3.75428450446008,0,62.9816551504375,0,25.4013031786297,0,24.2130606711723
-15.5441999,14.1010094,SEN,"Debre Zeyit - Ethiopia",FALSE,69.357,2287.6685,33.2273419593215,158665824.1545,2304548.75627266,,,,0,1,285.341928661571,69.357,4209.54385333059,4570.20815500661,3.2909318984172,301.064877379146,69.357,4544.78032745671,5089.17129985627,3.21614256672877,69.357,2041.98839707586,2304.54875627266,5.07729555678534,0,153.987853009206,0,18.4890482878724,0,14.7522512135597,0,59.7351616748755,0,98.0102383805964,0,23.1751795278603
-13.9632597,17.0292988,MRT,"Fritissa - Morocco",FALSE,15.521,3680.26830758623,24.3321127914395,57121444.4020459,377658.722635932,,,,0,2,82.0674871886977,15.521,158.828889635229,1731.1081428713,5.61383160537445,103.165267091525,15.521,220.229627317654,1788.94563017595,5.08951148863398,15.521,319.849690713575,377.658722635932,12.0365605853766,0,50.931698331482,0,30.1633958785346,0,17.8496126261788,0,50.9517917801989,0,170.304124487654,0,16.495351711996
-15.945537,23.708077,ESH,"Ad Dakhla - Morocco",TRUE,106.277,6999.25678566019,41.685948396546,743860013.409608,4430257.53773972,,,,0,3,307.784181201791,106.277,7187.14584188189,7543.97869745254,3.18586350479178,324.616191330986,106.277,7755.15667037877,8088.8128821057,3.1139880229903,106.277,3931.46708475159,4430.25753773972,4.46665087560585,0,154.385260650651,0,22.5401305141938,0,10.4491698696395,0,86.6399974588608,0,134.066562526839,0,24.1879518797244
-14.2343597,16.6268101,MRT,"Had Zraqtane - Morocco",FALSE,10.415,3292.61139046978,26.1754116436426,34292547.6317428,272616.912268538,,,,0,2,137.801127089047,10.415,223.46744633309,457.067343761721,4.49568454102666,151.525000159565,10.415,255.927198343952,469.472885319898,4.31643150902535,10.415,132.007959718611,272.616912268538,8.14009080110932,0,12.6777157600476,0,26.2669952271193,0,3.03943088241573,0,53.6456648294365,0,23.7546762420102,0,19.1891896089386
-13.9593992,16.1129189,SEN,"",FALSE,0,2493.74395561908,28.4022929330901,0,0,,,,0,1,135.771453997445,1e-06,2.10062653851936e-05,117.153254866109,4.96010853264386,118.406003386318,1e-06,1.72759551189604e-05,240.718638304823,5.53853576641227,1e-06,54.2058303686468,2.84022929330901e-05,11.6712840596233,0,8.3161275281048,0,29.7987433557539,0,2.91870003945875,0,50.2992290544378,0,12.6768690114348,0,24.1351892473348
-13.203346,27.153675,ESH,"Laâyoune - Morocco",TRUE,217.732,7166.58209753815,43.2531834575172,1560394253.26118,9417602.14057214,,,,0,3,320.574786168061,217.732,15606.3361066893,18277.5771760057,3.13075229475933,333.698720619095,217.732,16527.0016581453,19322.3499973937,3.07737776754765,0,882.375155680931,0,14.400716790365,217.732,7716.01348279534,9417.60214057213,4.86983578403035,0,31.5728854155817,0,76.129610088737,0,250.913157673114,0,27.0053018228895
-14.2115793,13.3027792,GMB,"Tarkwa - Ghana",FALSE,61.291,1770.86443929862,23.1067512092836,108538052.349052,1416235.8883682,,,,0,4,218.273964606927,61.291,2536.92513900209,2856.22707225505,3.69138237175691,230.95320435092,61.291,2750.04094326784,3160.56907871395,3.6031266544322,61.291,1272.43608627649,1416.2358883682,5.67863850659872,0,43.0296786327585,0,30.8800451264632,0,11.8882229534332,0,58.749451380339,0,111.093398922519,0,19.2184338612624
-15.3329,12.0479898,GNB,"",FALSE,0,1367.45133840083,18.1778592380354,0,0,,,,0,5,120.127739890916,1e-06,1.7635940114689e-05,558.930836885259,5.28698638632407,158.729951009931,1e-06,2.62589895099288e-05,683.293182794942,4.73594808435586,1e-06,101.88789501482,1.81778592380354e-05,12.2644817882488,0,10.9181372289008,0,37.4658984612987,0,3.80655342790859,0,63.4518844491335,0,116.437573521222,0,11.472654039409
-13.6763992,13.7135201,SEN,"Khénifra - Morocco",FALSE,78.8,2287.6685,28.5775553827832,180268277.8,2251911.36416331,,,,0,1,253.006615666321,78.8,4027.64665625999,4440.44035551057,3.46501223992418,261.583319186817,78.8,4224.10263005584,4858.2526096256,3.41600720888491,78.8,2196.80565647203,2251.91136416332,5.08010727095547,0,98.6287830725331,0,23.973715378092,0,21.0909136383343,0,51.8432985543906,0,69.0126638541437,0,28.659908920304
-14.8474998,12.0527,GNB,"Misséni - Mali",FALSE,54.756,1394.43121299449,18.6469722659379,76353475.4987265,1021033.6133937,,,,0,5,186.782168697404,54.756,1814.16255187812,2121.72808180196,3.94628978154641,183.363811870274,54.756,1766.91844852812,2233.52072801921,3.97765276307745,54.756,723.758820005131,1021.0336133937,6.98755002734846,0,34.1058968322423,0,32.18896834333,0,10.4417098149714,0,58.174951789396,0,127.373434577695,0,16.6564507047423
-14.299376,10.940929,GIN,"Boké - Guinea",TRUE,116.27,1146.57562365401,27.5929884020649,133312347.762251,3208236.76150809,,,,0,6,242.951537780682,116.27,5608.31626673577,5975.30695391607,3.52576099687333,252.710474993673,116.27,5932.88867192215,6328.77022948906,3.46674887306784,116.27,2825.66613440627,3208.23676150809,5.18825647275264,0,94.9164167646566,0,28.3081584055681,0,25.8023213208702,0,54.2941291667918,0,133.968331025934,0,23.8276680557095
-13.3009596,12.4839897,GIN,"Kalfou - Cameroon",FALSE,13.99,1189.02775135884,23.7319650851646,16634498.2415102,332010.191541452,,,,0,6,211.100734597219,13.99,552.073569934124,715.349604511952,3.74462688239865,213.589615365451,13.99,561.39551734563,769.434381396868,3.72586114989178,13.99,312.648636966676,332.010191541453,5.8449939928157,0,14.9365972470281,0,26.7415644360487,0,3.84193693751152,0,52.7275595470632,0,17.9092463450862,0,24.421593142046
-13.6282301,10.0732899,GIN,"",FALSE,0,1176.62521698137,26.8793431772143,0,0,,,,0,6,105.038293249628,1e-06,1.45585832968157e-05,400.401505637091,5.67880731387437,126.662727219469,1e-06,1.9022327573474e-05,419.673204589762,5.33972285217155,1e-06,86.6648356896361,2.68793431772143e-05,11.75038759193,0,15.4330248376924,0,27.8451375059157,0,3.23100680484419,0,60.8562885316899,0,29.7084183093301,0,20.069443069759
-13.1784992,11.1257696,GIN,"",FALSE,0,1125.84335585272,17.2149499541175,0,0,,,,0,6,184.225850483561,1e-06,3.2485885310213e-05,80.3229555602998,4.25143518366497,193.51839769465,1e-06,3.48518383878802e-05,137.816300246374,4.27432901456704,1e-06,45.954638318745,1.72149499541175e-05,7.40208072586639,0,4.16709692272693,0,24.5810797948539,0,0.984692155000299,0,50.5670536094962,0,3.71282911041712,0,26.0414746878171
-13.0830994,11.79953,GIN,"Bethlehem - South Africa",FALSE,7.461,1135.4866,20.8461390559678,8471865.5226,155533.043496575,,,,0,6,185.598549981516,7.461,244.961297393871,314.545821536022,3.95705605211091,184.726374503495,7.461,243.318474349883,336.733542699269,3.96506489193269,7.461,123.700622650877,155.533043496576,6.54196867544027,0,8.55100175891462,0,24.8818925946434,0,2.04596006317324,0,50.8678272295069,0,8.25782137346973,0,25.3197653203865
-13.8246593,13.3325996,SEN,"",FALSE,0,2141.07888826552,23.0399064754911,0,0,,,,0,1,170.265093303994,1e-06,2.90269845554573e-05,121.052490101505,4.42139150728763,183.805759619194,1e-06,3.23801117853225e-05,166.187001922561,4.38879381663204,1e-06,55.1056104151084,2.30399064754911e-05,7.62167047546511,0,4.55274969966506,0,26.5155416168587,0,1.08222710926645,0,54.3849913220677,0,5.26252614049736,0,24.662708187274
-13.7090893,13.0267,SEN,"",FALSE,0,2287.6685,21.3110377398114,0,0,,,,0,1,162.340611590717,1e-06,2.71164428303447e-05,44.2266725207076,4.52834615011749,178.018426968682,1e-06,3.09335346680196e-05,61.1919335073854,4.46169255319583,1e-06,19.3616040806664,2.13110377398114e-05,7.93187523527636,0,1.67778425901234,0,26.9450347925289,0,0.40541915078523,0,54.8144495848271,0,2.22107331642773,0,23.4188502033526
-11.400062,16.629969,MRT,"Kiffa - Mauritania",TRUE,110.714,3692.66927840016,24.5103198098448,408830186.488796,2713635.54742716,,,,0,2,215.543496506816,110.714,4500.9425301356,5154.0795915268,3.71135107799276,227.120921952436,110.714,4850.24615819116,5589.22993651989,3.62914617839539,110.714,2674.66783074571,2713.63554742716,5.24626530865963,0,59.7379947282712,0,35.1031305105611,0,37.7445918721622,0,44.1612423683821,0,84.1120680335741,0,29.5828741358515
-12.2216101,14.4544096,SEN,"Sidi Redouane - Morocco",FALSE,20.065,2223.952360451,30.4239054818422,44623604.1124494,610455.663493164,,,,0,1,191.647011225988,20.065,689.661505616186,1287.49289000925,3.90304243862992,175.765947742603,20.065,609.492547259714,1361.68279876739,4.05037647351654,20.065,563.095983592969,610.455663493164,6.29850941452165,0,28.0876878089148,0,28.2021589555102,0,11.0683844740267,0,44.9262145944666,0,20.6537784414238,0,32.8883438516622
-13.712215,9.509116,GIN,"Conakry - Guinea",TRUE,1667.864,2150.37966857964,47.7173443768735,3586540835.55592,79586040.8617897,GNCKY,Conakry,AI,676.60790476,6,352.65362354207,1667.864,136996.450062175,138894.570729016,3.00536837320583,361.827433576011,1667.864,142115.802695273,144245.940553943,2.97247316139237,0,665.974771047994,0,43.746236217012,0,410.278376531497,0,55.7352904401319,0,147.827593739988,0,92.8521218726623,1667.864,103411.75559998,104620.53333791,3.51062802245146
-13.5013895,9.7055101,GIN,"",FALSE,0,1177.39094451741,47.8186094627483,0,0,,,,0,6,76.6530389110076,1e-06,9.28248873873181e-06,2297.73557729214,6.76493484544287,98.6248172406206,1e-06,1.33055042233823e-05,2800.24570887724,6.12739589907016,1e-06,265.906768702976,4.78186094627483e-05,19.8842521270683,0,103.48888317838,0,31.8733060867818,0,22.0888930451422,0,68.9901373767527,0,472.534951903936,0,14.9161627040954
-12.1095896,12.6156893,SEN,"Ādēt - Ethiopia",FALSE,11.216,2258.58745277728,29.7127985122773,25332316.87035,333258.748113702,,,,0,1,172.859710705833,11.216,332.677178723727,706.108197777064,4.07949890673825,201.314257037718,11.216,413.587057205434,794.771421940992,3.82157038564903,11.216,328.882886317633,333.258748113702,5.94075263771111,0,18.1060792690746,0,25.3193276066921,0,5.33581024968839,0,46.6407202508462,0,12.1905790286348,0,30.8568828721484
-12.9784594,10.6564093,GIN,"Bawku - Ghana",FALSE,30.311,1134.95099453162,19.5251633744116,34401499.5952479,591827.22704179,,,,0,6,202.838475817697,30.311,1129.81913563018,1287.06157768216,3.8092521480606,222.577817221579,30.311,1290.10605212121,1478.35870875318,3.6605939503565,30.311,554.02673859148,591.82722704179,5.97962396286532,0,40.6547338922518,0,22.0744061571831,0,6.52850193082747,0,55.0855717274513,0,35.7658794669847,0,23.5348333889379
-12.854191,10.049703,GIN,"Kindia - Guinea",TRUE,181.126,1272.4382327917,31.7736110513414,230471647.35263,5755027.07528526,,,,0,6,254.581619970633,181.126,9340.20014035963,11598.6206667149,3.45580875164097,261.52596954617,181.126,9706.28421394688,12376.4282270687,3.41618532804947,181.126,4541.46283581689,5755.02707528526,5.63951591318472,0,464.775611802607,0,17.6285432303939,0,48.1927399672942,0,54.7453898384381,0,235.876329585864,0,24.7454812428104
-12.7595196,8.4948397,SLE,"",FALSE,0,1525.79033972791,18.3068914371631,0,0,,,,0,7,81.233529723385,1e-06,1.00849309062761e-05,2121.34197902793,6.54480832737359,103.979055224834,1e-06,1.43493042848629e-05,2541.706983582,5.9492342276863,1e-06,110.324684378773,1.83068914371631e-05,28.5553468748914,0,268.922400526055,0,18.2898570013546,0,22.5503463807666,0,63.1607344360973,0,352.09575678577,0,15.9842933475644
-13.234314,8.484392,SLE,"Freetown - Sierra Leone",TRUE,1035.246,1636.18751938735,51.9455928614036,1693856584.69567,53776467.2273966,SLFNA,Freetown,AI,292.305,7,357.679486125007,1035.246,86770.4372876118,88537.0908648963,2.98719688694092,366.416581848493,1035.246,89814.1504580161,91895.2218009713,2.95646042124407,0,321.898293445484,0,49.952713596314,0,509.959181406027,0,39.6872235650347,0,112.33792377747,0,84.5581014316216,1035.246,63513.8223767635,64591.7522273966,3.55618570650116
-11.6982899,26.7553997,ESH,"Malakal - South Sudan",FALSE,57.035,6390.125709182,25.1492270818786,364460819.823195,1434386.16661495,,,,0,3,227.052876172907,57.035,2497.56487310484,3213.15266829359,3.62952437777952,230.590830099967,57.035,2553.34600718487,3415.68903005896,3.60555274050419,57.035,992.438198881165,1434.38616661495,6.6889704315153,0,290.981159944867,0,12.3531749096771,0,9.48599723278286,0,68.4178635567633,0,46.2781529492885,0,30.9758332100149
-11.1610899,28.4597492,MAR,"Kukawa - Nigeria",FALSE,73.209,6295.70213058728,39.2491173607986,460902057.278165,2873388.6328667,,,,0,8,297.529257498209,73.209,4716.91345024891,5691.8191452273,3.23246839026433,314.163413202361,73.209,5098.11037186151,6065.61389818219,3.15797647151594,73.209,2473.8329058514,2873.3886328667,4.94494070426499,0,251.099724739291,0,15.5211236959123,0,13.6076043323482,0,66.6738348471778,0,74.1223765868022,0,28.5674581679955
-12.283231,11.316916,GIN,"Labé - Guinea",TRUE,127.747,1146.98337636056,35.8287216279254,146523685.379933,4577011.70180259,,,,0,6,280.375933106112,127.747,7561.41005954379,8984.96455506248,3.3157875145598,285.984777093767,127.747,7778.42423006674,9583.18293083644,3.28776877314835,127.747,3940.67086347813,4577.01170180259,5.12710368329852,0,278.835233040292,0,19.2743659383088,0,50.5677009720805,0,45.260379800748,0,127.905076989003,0,28.4584154501028
-12.08277,10.383497,GIN,"Mamou - Guinea",TRUE,376.269,1135.61305456118,26.8662514052221,427295988.426679,10108937.5499915,,,,0,6,249.408624524329,376.269,18842.4462325618,22338.8656747816,3.48634741195628,259.029418090783,376.269,19889.3047746443,23755.6219235134,3.43025607462089,0,1445.63033831998,0,13.9053423419492,376.269,7714.96342855604,10108.9375499915,6.01925742669381,0,150.223185520797,0,43.1360793719656,0,256.503344077759,0,33.0112323398112
-11.74007,7.956451,SLE,"Bo - Sierra Leone",TRUE,249.807,1496.9442,25.5146367561591,373947139.7694,6373734.86414584,,,,0,7,230.258293693918,249.807,11160.3411524967,13733.7161878391,3.60778339918076,240.283873889409,249.807,11860.9476496736,14354.2213494579,3.54248616291098,0,658.406178779512,0,16.5405855824672,249.807,4574.62425515328,6373.73486414584,6.27509655113399,0,46.117544382927,0,62.4977813919445,0,388.985624592514,0,21.5194422082847
-10.971644,8.643743,SLE,"Koidu - Sierra Leone",TRUE,300.387,1517.04766003136,22.0121301485176,455701395.453841,6612157.73892276,,,,0,7,222.093334779558,300.387,12745.4257559719,14027.6946224118,3.66404122732375,238.971373666572,300.387,14151.3447603507,15800.2603439295,3.55081031380836,0,710.844726601925,0,16.7406477994521,300.387,5574.97575346969,6612.15773892276,5.97775533723958,0,77.0478262193779,0,50.8486317745071,0,243.171764202447,0,28.6221905533752
-10.8695793,12.6057196,MLI,"Kawambwa - Zambia",FALSE,10.832,2285.3071,24.4574447781555,24754446.5072,264923.041836981,,,,0,9,68.7397063730339,10.832,86.0539178128406,970.557967744259,6.05680688528428,67.8958630481269,10.832,84.5487666379367,1329.90319155143,6.08905397247153,10.832,264.923104241421,264.92304183698,13.6430082869701,0,51.5520023426401,0,30.9262114076114,0,55.881915978157,0,29.7041807175754,0,30.6471418943676,0,40.1104141738898
-11.432892,14.449705,MLI,"Kayes - Mali",TRUE,174.373,2363.01954108217,36.6490483544719,412046806.437122,6390604.50871433,,,,0,9,269.81279018165,174.373,9770.24201948123,10648.9561140326,3.37081168919655,286.705379397665,174.373,10655.6875343744,11436.9140241086,3.28421170793959,174.373,6292.38728744152,6390.60450871433,4.42769431070559,0,93.4549707156391,0,36.3316259094791,0,91.4527222259688,0,36.7272217589416,0,70.3692228252605,0,41.8692147501236
-11.8790693,12.8341799,SEN,"",FALSE,0,2287.6685,30.2988245952444,0,0,,,,0,1,92.8922326921743,1e-06,1.22145859934318e-05,350.836793326373,6.07221647041745,135.302189731027,1e-06,2.09026228947658e-05,342.434109788699,5.1536827090554,1e-06,102.593094024813,3.02988245952444e-05,9.41557497951623,0,10.9699466710485,0,28.7941448043808,0,5.22669086020689,0,41.7151189008752,0,7.71652653194953,0,34.3317056848921
-11.5879192,10.1457901,GIN,"",FALSE,0,1178.37874359219,21.1600028678453,0,0,,,,0,6,200.124078146971,1e-06,3.65636967641551e-05,233.801809905312,4.08162806764543,240.004613012093,1e-06,4.74016331990218e-05,199.455178105141,3.8337702801199,1e-06,23.0156245693571,2.11600028678453e-05,11.2859300990639,0,42.79007789891,0,8.27708411202743,0,1.42266199827132,0,45.3939039768098,0,2.53202378984873,0,34.0262789925398
-9.299825,10.383689,GIN,"Kankan - Guinea",TRUE,198.013,1153.17201735961,31.112356240142,228343050.673428,6160650.99617924,,,,0,6,279.245053641818,198.013,11653.0147054492,13187.7697789564,3.32153580715411,292.846797416121,198.013,12472.2676737508,14004.2384763547,3.25452944301112,198.013,5858.12241621206,6160.65099617924,5.03198014944417,0,471.118682383129,0,17.7440825353259,0,126.353998790913,0,34.2627270330599,0,78.413415105117,0,43.4931877174187
-11.3188601,7.3100801,SLE,"",FALSE,0,1344.94827331861,15.4784810906556,0,0,,,,0,7,117.040363087257,1e-06,1.6992013157197e-05,1573.97170909755,5.36012488997498,159.737859253964,1e-06,2.64975134123944e-05,1871.18493455825,4.72028088108069,1e-06,252.102867834329,1.54784810906556e-05,12.8598954351936,0,155.293870124731,0,16.3851049811919,0,12.0516002601974,0,58.8170802394236,0,131.015723578302,0,17.838741671783
-11.1890097,7.8601699,SLE,"Khartoum North - Sudan",FALSE,188.463,1485.97140072144,26.5325861186727,280050628.094164,5000410.77768342,,,,0,7,241.253151047341,188.463,8999.91806769828,11280.630556367,3.53637717837458,251.095350086319,188.463,9528.98545719363,12036.5422653815,3.47629321919639,188.463,3079.47461997988,5000.41077768341,6.87272733704027,0,1005.28977277961,0,12.0287790532619,0,52.1163588651084,0,52.8299224851375,0,233.866410386059,0,24.9392338357443
-2.216954,31.616774,DZA,"Béchar - Algeria",TRUE,179.119,13194.7313701357,47.9612505819522,2363427088.28733,8590771.24298869,,,,0,10,331.792776480709,179.119,13485.2725754351,13961.0918153016,3.08494122325245,340.727330378463,179.119,14007.0121744477,14511.4109410439,3.05000929091695,179.119,8442.6140356408,8590.7712429887,3.99868797447198,0,213.136207034686,0,25.1667640736441,0,31.2475979313888,0,65.727578142731,0,70.4001405358763,0,43.7894211688441
-10.0955496,9.1883497,GIN,"Mongu - Zambia",FALSE,66.815,1121.84293071791,25.8338628216588,74955935.4159169,1726089.54442914,,,,0,6,219.289265083385,66.815,2783.96717822457,3833.99137425785,3.68404796155574,240.359427328652,66.815,3173.83108020631,4177.05396412106,3.54201011062312,66.815,1099.82545745131,1726.08954442913,6.90276082808888,0,390.202034624935,0,11.5888558079319,0,31.1582848555518,0,41.0107414051386,0,37.5894390066934,0,37.3380355529111
-10.3059597,14.7111797,MLI,"Ikot Abasi - Nigeria",FALSE,18.328,2285.3071,26.3038363987401,41885108.5288,482096.713516109,,,,0,9,156.827279005466,18.328,473.054594311951,1012.18511181796,4.25327501092452,167.950080582221,18.328,521.70327557839,1225.7396829925,4.13017234404429,18.328,517.932577865341,482.096713516109,6.3537433532994,0,15.096087957865,0,37.2166116179708,0,27.2972348111085,0,27.6764159082446,0,9.87460965619443,0,46.0160568610124
-9.6050797,16.6627998,MRT,"Abū Ḩamad - Sudan",FALSE,24.199,3760.08548182476,19.5791653774687,90990308.5746773,473796.222969366,,,,0,2,126.713585504615,24.199,460.585371430349,1283.23872807346,4.66024236591735,130.435226963658,24.199,480.031500902496,1484.6852650991,4.60274361500152,24.199,473.796245414273,473.796222969365,8.14769413133725,0,46.7538563478133,0,25.9376946451849,0,25.682734272577,0,34.9958438429701,0,23.6124071791411,0,36.4978683691943
-10.801398,6.313299,LBR,"Monrovia - Liberia",TRUE,1110.25,967.725459213548,41.2600904571139,1074417191.09184,45809015.4300107,LRMLW,Monrovia,AI,467.27200002,11,346.340958227135,1110.25,88871.6078072808,91609.0826152591,3.02872358101893,358.2296770187,1110.25,93261.5478469173,96814.3234411992,2.98523979218711,0,722.556838917605,0,34.5550508108345,0,594.970470188328,0,38.0802637316334,0,144.599161905151,0,77.2439893563303,1110.25,61430.9254222105,63098.0794307507,3.74762275492202
-10.132382,8.567176,GIN,"Guéckédou - Guinea",TRUE,221.715,1099.39487496181,19.6079430369351,243752334.702158,4347375.09043406,,,,0,6,227.683697827493,221.715,9747.46611894696,10538.1928293741,3.62521124524301,243.189964554449,221.715,10709.4820555569,11424.1537565022,3.52428209973644,0,823.026784974514,0,13.1303229766973,221.715,3424.33508301893,4347.37509043407,6.4371677150042,0,63.5881182291947,0,47.238306963611,0,136.968524051862,0,32.1863641600187
-10.066664,28.983267,MAR,"Guelmim - Morocco",TRUE,118.318,6238.3237,43.0273185293868,738105983.5366,5090906.27375998,,,,0,8,350.856683088459,118.318,9647.83959076511,9856.97789834757,3.01195542189289,365.491808632702,118.318,10227.8466851687,10471.8779088428,2.95966324666369,118.318,5090.90626579846,5090.90627375999,4.24479805388803,0,201.73177822356,0,21.3239388630932,0,22.8563796836594,0,63.3506192530636,0,143.940990438248,0,25.2442423612283
-10.4223099,8.6459198,GIN,"",FALSE,0,1227.60079775481,18.0701264188066,0,0,,,,0,6,203.883779058313,1e-06,3.75489427602529e-05,195.073290534982,4.04461228514819,247.965004997533,1e-06,4.96634987325578e-05,156.719549224651,3.77190562592495,1e-06,16.1660684930864,1.80701264188066e-05,11.7441061316707,0,36.7285594235163,0,7.79149378323353,0,1.06053727729574,0,45.852090098642,0,1.98198480068796,0,33.5406871275581
-9.4627399,13.0295696,MLI,"Ghardaïa - Algeria",FALSE,57.187,2269.38964058337,35.3665191502151,129779585.376041,2022505.13064335,,,,0,9,107.329564352585,57.187,858.62709166856,4293.23460445406,5.00391743478005,102.023451025122,57.187,798.635044610061,4521.71410470893,5.11383783613462,57.187,737.166669983631,2022.50513064335,12.6653073511967,0,58.6433580336533,0,44.9043023742796,0,680.029308116278,0,13.1866651028451,0,40.4192276097838,0,54.0884259822264
-9.4801102,7.0074396,LBR,"Zuwārah - Libya",FALSE,34.046,786.9167,15.4325262289124,26791365.9682,525415.787989552,,,,0,11,81.1587973225935,34.046,342.900399333477,1954.46482848876,5.64068373432029,94.2146703325752,34.046,424.341037557199,2554.34194509393,5.29136149378438,34.046,283.6158465133,525.415787989552,15.8796661754349,0,189.929292356726,0,19.4048768381216,0,20.848956409396,0,58.5686239479346,0,235.685458012642,0,17.41971043261
-9.544252,15.181505,MLI,"Nioro - Mali",TRUE,116.376,2301.37386339613,31.0032048103123,267824684.726588,3608028.96300491,,,,0,9,251.583343297118,116.376,5900.49682733586,6447.2750418306,3.47339975826933,259.911545131603,116.376,6181.49963813828,6956.10742163298,3.42520992603346,116.376,3428.2163403541,3608.0289630049,4.87903078167063,0,63.8846061481032,0,35.7421366715453,0,114.269328819642,0,26.7245729193108,0,38.0669474023054,0,46.3022102939579
-9.5260296,14.5371294,MLI,"Rundu - Namibia",FALSE,52.399,2258.05105134941,26.6645356098404,118319617.039658,1397195.00142003,,,,0,9,124.598337642383,52.399,973.624583945479,2699.27236645047,4.69398565259433,118.141013358161,52.399,902.349998828633,2965.70563264685,4.80231753256292,52.399,786.124884230869,1397.19500142003,9.32767521594133,0,39.5851458830096,0,41.566338410701,0,223.309414653983,0,17.5007840695829,0,26.8858870231625,0,50.436987286649
-9.4735699,8.5450697,GIN,"Manzini - Eswatini",FALSE,43.102,1096.84397846855,22.3680314344588,47276169.1599514,964106.890888042,,,,0,6,202.43314177991,43.102,1602.00936730972,2193.79953947142,3.81251911138249,207.700764469748,43.102,1661.89231338529,2365.79403028251,3.77077638938036,43.102,554.177313687836,964.106890888043,7.79102875933875,0,248.93927670217,0,11.6244572765731,0,18.9617100330434,0,42.1192280622911,0,24.6625823107443,0,36.9317493001061
-9.716798,29.717562,MAR,"Tiznit - Morocco",TRUE,108.998,6238.3237,44.8746618567915,679964806.6526,4891248.39306656,,,,0,8,269.238771237069,108.998,6088.6818041241,9815.95517181738,3.37388978490913,270.521321338137,108.998,6130.1585491979,10658.8213846903,3.36702517407775,108.998,3491.36088256182,4891.24839306656,5.88306414737616,0,193.668478707711,0,24.9787951139717,0,43.3407371358996,0,52.8022960969394,0,559.510711383429,0,14.6959192062382
-9.599649,30.433289,MAR,"Agadir - Morocco",TRUE,1070.86,6374.8461531175,58.0517269919173,6826567751.5274,62165272.3665645,MAAGA,Agadir,AI,593.66057139,8,453.335893515416,1070.86,125921.001539661,130481.938075385,2.69868797367119,472.1274382216,1070.86,133443.348953673,138527.202088653,2.65211945432863,0,1399.88751378664,0,26.3823821057481,0,605.943873273476,0,40.1000028078378,0,564.311585644632,0,41.5528761431374,1070.86,82028.5027619398,84130.7135079945,3.44649957461288
-5.986109,14.249942,MLI,"Niono - Mali",TRUE,128.619,2285.3071,33.8806562465947,293933913.8949,4357696.12578076,,,,0,9,284.788042708453,128.619,7784.74478395741,8774.33622548366,3.29367346498199,294.741839537277,128.619,8176.33581819978,9490.01364391969,3.24554750991111,128.619,3820.10709559738,4357.69612578076,5.11544963025039,0,331.104931163714,0,17.3755588734182,0,109.120323877596,0,30.2669067884874,0,48.5436843530663,0,45.3788552414518
-8.8621101,31.2670689,MAR,"Dayr Mawās - Egypt",FALSE,41.579,6727.27118707371,36.8417125347524,279713208.687338,1531841.56548247,,,,0,8,201.064406962715,41.579,1530.49706056986,6697.16302235487,3.82362047735609,226.332493215055,41.579,1812.49910255242,7544.25887391439,3.6344709656949,41.579,1213.81382575363,1531.84156548247,9.06094330752481,0,331.644625264765,0,17.334571807148,0,282.334274966753,0,18.7874422520143,0,289.13411005543,0,18.5652087712755
-9.551909,13.355745,MLI,"Balandougou - Mali",TRUE,1631.251,2258.59960670909,27.9096560141396,3684342867.04381,45527654.2827213,,,,0,9,216.990170489996,1631.251,66953.2885619783,68252.8292880118,3.70072640468873,233.215994073656,1631.251,74218.5216150119,76319.4050237864,3.58810693655933,0,1269.55348322788,0,27.8200421329035,0,272.399960560924,0,60.0589678258735,1631.251,43992.4218580791,45527.6542827212,4.72600303548112,0,206.802424970304,0,68.9294405628517
-9.1929197,14.5529394,MLI,"Cahama - Angola",FALSE,43.276,2285.3071,27.938885275401,98898950.0596,1209083.19917825,,,,0,9,100.372393377119,43.276,590.439889250994,2689.86458073369,5.14972152027222,111.86742223528,43.276,689.36017649977,2958.53741767275,4.91590001601161,43.276,722.439241007301,1209.08319917825,9.94815434804997,0,42.9268843328116,0,40.8108960822572,0,248.2939201469,0,16.9690050993119,0,27.0920563375558,0,51.3712075749612
-8.816789,7.750291,GIN,"N’Zérékoré - Guinea",TRUE,195.027,1164.86349690503,28.8972795876179,227179833.210898,5635749.74613435,,,,0,6,262.967464567807,195.027,10533.6099120811,11375.4947442975,3.40814111596158,271.790094056167,195.027,11042.0816057584,12301.1418332377,3.36027673761186,195.027,5006.21836545588,5635.74974613436,5.267354402098,0,455.545979235626,0,17.4615311767474,0,60.3955634662267,0,47.9563036109172,0,121.90139346058,0,33.7554476546111
-8.1639996,7.2641697,CIV,"",FALSE,0,3149.8581711304,28.2093242708592,0,0,,,,0,12,143.605852425161,1e-06,2.27590479678097e-05,482.429194384235,4.81909181119708,178.195687371394,1e-06,3.09775466493453e-05,585.218040957202,4.45942406992998,1e-06,70.3331148216073,2.82093242708592e-05,12.863451318266,0,97.9312068849978,0,10.9012723501368,0,3.77111577148779,0,55.5523934936638,0,15.7358225446123,0,27.1952453162388
-7.5722198,9.5049696,CIV,"Bariadi - Tanzania",FALSE,86.279,3289.988,39.2309187365728,283856874.652,3384804.43767277,,,,0,12,339.586790418148,86.279,6714.73213864137,7033.5624672516,3.05439527643947,352.87035084703,86.279,7093.08152011162,7593.10497594307,3.00457803076185,86.279,3384.80440599899,3384.80443767276,4.5001425376576,0,260.065671177341,0,16.2349988378221,0,48.0637278816722,0,37.7645487708023,0,34.8099966829384,0,44.3752769057621
-8.002662,12.639193,MLI,"Bamako - Mali",TRUE,4552.105,2286.20141850059,45.3510168389582,10407028908.1636,206442590.507706,,,,0,9,308.066492647204,4552.105,308246.571577659,318659.806756463,3.18461194899932,315.800422423818,4552.105,319360.690371161,330492.317582031,3.15094304884026,0,3192.20693058993,0,32.0609156208183,0,1986.5544323396,0,40.6417335156421,4552.105,201747.888038231,206442.590507706,4.03289155103565,0,607.655575000366,0,73.4841028542063
-9.166742,11.416769,GIN,"Siguiri - Guinea",TRUE,183.875,1135.4866,32.4018248026735,208787598.575,5957885.53559159,,,,0,6,224.387064482263,183.875,7917.1815197718,12188.9156138182,3.64794213665852,231.219722969949,183.875,8263.81692392007,12809.1782985105,3.60125012766517,183.875,4865.53588565193,5957.88553559159,5.84305238586242,0,325.290219425786,0,22.599425168647,0,287.577453037921,0,24.035158742221,0,71.070539794398,0,48.3481939651139
-7.4854398,11.42488,MLI,"Souk Ahras - Algeria",FALSE,95.222,2285.3071,32.0476990885096,217611512.6762,3051646.00260606,,,,0,9,185.419027324107,95.222,3122.03186907867,7964.40435659245,3.95869740457942,189.722001604701,95.222,3226.04751502656,8411.17736079508,3.91995096187631,95.222,2209.26445485924,3051.64600260606,7.64862010852184,0,490.698939592347,0,16.2294608985333,0,232.005854759836,0,23.6026822063103,0,53.6731189775618,0,49.071836880448
-9.233368,32.283274,MAR,"Safi - Morocco",TRUE,395.857,6780.39513730578,50.0776184680819,2684066877.86845,19823575.8139195,,,,0,8,384.927958714401,395.857,36848.2747907734,39996.6609259671,2.89466737624829,411.758102776298,395.857,40571.495174258,44486.1366109254,2.81227789667865,0,1174.58311015972,0,17.3072454257206,395.857,17577.6104402903,19823.5758139195,4.47394976912537,0,481.423474415425,0,27.0337421016261,0,489.437405707808,0,26.8115108615499
-8.500158,33.233179,MAR,"El Jadid - Morocco",TRUE,467.017,7268.41013196153,54.5650407804857,3394471094.59828,25482801.6501801,,,,0,8,351.360798704369,467.017,38159.5050393789,51794.7661606338,3.01010262595477,372.172073982336,467.017,41428.901146091,56154.855963155,2.93677605498736,0,1082.29118521902,0,21.1540081537989,467.017,22407.4129007203,25482.8016501801,4.64909563916384,0,458.748061496554,0,32.4920873527006,0,1086.5264855826,0,21.112740851387
-8.3035603,32.2542381,MAR,"Funtua - Nigeria",FALSE,139.815,6725.98050128035,37.1479411148004,940392963.786512,5193839.38696582,,,,0,8,328.324908447456,139.815,10369.3881954753,13817.5495642614,3.09886392354984,345.508869832985,139.815,11153.3071063908,15082.8666992103,3.031846106207,139.815,3025.55756348844,5193.83938696582,6.76934120241863,0,1006.52628056031,0,11.736438058818,0,393.937993048805,0,18.7601103893217,0,263.529280616932,0,22.9369032578526
-8.2107401,31.9539585,MAR,"Ouled Fayet - Algeria",FALSE,38.613,6720.5864,38.3004049757337,259502002.6632,1478893.53732801,,,,0,8,256.828312922525,38.613,2016.32321334337,4460.76466248925,3.44282014527308,265.555397033194,38.613,2114.91010337818,5407.52044848296,3.39386668249515,38.613,726.424751835143,1478.89353732801,9.25970500389948,0,463.551858026329,0,11.5916905196683,0,232.204131883827,0,16.37791491873,0,96.3357256409229,0,25.4272790863624
-8.008349,31.630015,MAR,"Marrakech - Morocco",TRUE,1132.514,6720.5864,58.6646890573813,7611158186.2096,66438581.6631311,,,,0,8,406.724961287523,1132.514,114050.132777216,122459.600985918,2.82713567403264,428.969389074523,1132.514,123064.329355557,132746.151785187,2.76334942196665,0,1979.32378733987,0,22.6301901986761,0,1626.78948082244,0,24.9621091561811,1132.514,61873.6824476611,66438.5816631311,4.04756464392647,0,947.172754523822,0,32.7138864843238
-7.6750998,8.2902699,CIV,"Krugersdorp - South Africa",FALSE,55.013,3186.43542100719,24.1835686231057,175295371.815869,1330410.66066291,,,,0,12,202.484586976843,55.013,2045.45819350833,3064.22184765576,3.81210394149471,206.044466513687,55.013,2097.02420548631,3272.74269308308,3.78373177043326,55.013,796.739908921275,1330.41066066291,7.66860848756653,0,339.655508837601,0,11.745154501263,0,26.2607970895507,0,42.2399202034803,0,29.4527017942487,0,39.8854299559804
-7.583329,33.53329,MAR,"Casablanca - Morocco",TRUE,4219.891,9656.635,70.9405986874118,40749947126.785,299361593.935621,MACAS,Casablanca,AI,2434.0279715,8,499.123171219734,4219.891,569329.010374366,588778.302700752,2.58966562010511,506.204395897174,4219.891,580902.936145038,602903.081554022,2.57407881206198,0,3147.01130511878,0,35.6283982315165,0,2493.62448893071,0,40.0248596056085,0,2643.89505413439,0,38.8707804027227,4219.891,383179.67638975,389420.628881121,3.22882427757786
-7.9837198,32.2262306,MAR,"Qillīn - Egypt",FALSE,132.168,6742.80992422409,43.2105007592418,891183702.06485,5711045.46434747,,,,0,8,275.921336214225,132.168,7646.13647624396,17068.8274926133,3.33862466617225,294.277312418898,132.168,8383.0359043258,18161.2619606214,3.2477298266651,132.168,2488.68496955376,5711.04546434747,8.77341746341795,0,1014.61254566728,0,13.7404522379245,0,888.866163287833,0,14.6803057934673,0,538.711674193364,0,18.8570958515492
-7.59407,7.3604698,CIV,"Pikine - Senegal",FALSE,241.969,3331.50044575431,31.6783867627629,806119831.358724,7665187.56659899,,,,0,12,264.98974496611,241.969,13212.8086782382,14265.1625854469,3.39696983850646,276.843951344314,241.969,14065.2201792886,15340.9627096394,3.33385591953001,0,479.507659128487,0,18.8570840871875,241.969,6689.71364808405,7665.18756659898,5.04858549917508,0,59.7312534372036,0,53.4283593791636,0,154.796080703382,0,33.1888822814075
-7.408295,32.048099,MAR,"El Kelaa des Srarhna - Morocco",TRUE,223.364,6725.77294838356,38.3125407240053,1502295548.84275,8557642.34627671,,,,0,8,296.009487725016,223.364,14286.6169633805,18921.9287136342,3.23957059995075,325.260978599318,223.364,16345.4014326689,21865.5748222752,3.11133797208922,0,605.539866953098,0,18.696352560194,223.364,6489.84450496491,8557.64234627672,5.71097259738459,0,713.795400442215,0,17.2203183326813,0,255.548606367066,0,28.7800365643421
-6.26652,13.449454,MLI,"Ségou - Mali",TRUE,240.936,2285.3071,34.5068161376911,550612751.4456,8313934.25295074,,,,0,9,235.315477392988,240.936,11103.3347978531,19965.197383914,3.57434767610522,243.337922225191,240.936,11648.0288820492,21092.6927995656,3.52336203567176,0,1247.96256210435,0,14.4850147337088,240.936,5572.05944654282,8313.93425295074,6.85514636529738,0,671.533252603925,0,19.7465115705352,0,87.3577168608474,0,54.7486233573924
-7.350092,6.733084,CIV,"Duekoué - Côte d’Ivoire",TRUE,284.596,3302.72447034709,26.4823462879371,939942173.3629,7536769.82416175,,,,0,12,247.146915514756,284.596,14067.4642218073,14087.9256101482,3.49998519746295,259.809779968564,284.596,15108.3225634195,15118.982933885,3.42583376976242,0,268.454956536557,0,25.7093771483146,284.596,7536.76876596621,7536.76982416175,4.85215962870727,0,48.8313868047223,0,60.2806414256527,0,163.128253823214,0,32.9809214095667
-6.841593,34.020894,MAR,"Rabat - Morocco",TRUE,1891.455,7891.94605770258,67.9275739994679,14927260830.5718,128481949.479164,,,,0,8,410.491896495996,1891.455,193004.701652296,212597.046181127,2.81598769584068,441.851135417582,1891.455,214408.15462514,237826.184436235,2.72853001381191,0,1486.06438224513,0,34.517534167133,0,2799.28424152902,0,25.1498298018624,1891.455,122562.842251465,128481.949479164,3.80083624254349,0,2127.67515955318,0,28.8473495967403
-6.5227799,32.8590393,MAR,"Randburg - South Africa",FALSE,178.623,9675.0688844993,45.6605596927238,1728189829.35592,8156026.1539934,,,,0,8,261.009654182077,178.623,9545.16666833135,20941.2957081381,3.41907379730926,260.335540987107,178.623,9509.96840853479,24938.7894706766,3.42286546604782,178.623,3437.99369117019,8156.0261539934,9.21881380642495,0,1576.16497950041,0,13.6152807676783,0,1027.58267789343,0,16.8623890509913,0,757.841318211244,0,19.6353373078155
-6.4903197,9.5225697,CIV,"Kikuyu - Kenya",FALSE,92.792,3289.988,40.8585933304043,305284566.496,3791350.59231487,,,,0,12,306.023147986358,92.792,6223.97274816532,7634.19197582224,3.1937077500687,307.063263043737,92.792,6254.21490296777,8077.33079908335,3.18907365581012,92.792,2649.83738979147,3791.35059231488,5.5678806512783,0,637.486854977845,0,11.3517117946437,0,49.9861360216476,0,40.5389359711703,0,36.951943632029,0,47.1496906443719
-5.666994,11.316457,MLI,"Sikasso - Mali",TRUE,315.73,2285.3071,34.5993127669643,721540010.683,10924041.0199136,,,,0,9,291.209692414985,315.73,19728.2922461729,22050.917161758,3.26234752445774,300.883019862527,315.73,20671.0991179198,23062.7360901407,3.21699304851814,0,1021.87855140383,0,15.2828343031946,315.73,9317.4906389398,10924.0410199136,5.06124357139758,0,223.921773017936,0,32.6479042791172,0,70.6642307986734,0,58.1170253727196
-6.36073,32.339077,MAR,"Béni Mellal - Morocco",TRUE,559.315,9578.10692231839,51.2521768542167,5357178873.25651,28666111.2972162,,,,0,8,388.276339583353,559.315,52711.9188104175,54373.7762202615,2.88394257094578,405.458525358692,559.315,56075.5884384568,57523.3291936587,2.83091472030803,0,748.393341451804,0,24.8189936929859,559.315,27630.5143195949,28666.1112972162,4.08464356536762,0,728.445868710343,0,25.1565145717994,0,371.310227091488,0,35.2355178102728
-6.9510198,6.7373199,CIV,"",FALSE,0,3289.988,26.0983083598812,0,0,,,,0,12,213.77974447987,1e-06,4.01793821875065e-05,87.5932696863871,3.9522070185216,248.531936141311,1e-06,4.98257887556647e-05,77.2557665165469,3.7675888772984,1e-06,1.94322064547359,2.60983083598812e-05,23.7557127549067,0,33.2050541519108,0,5.74680909444683,0,0.292706626579467,0,61.2086724646864,0,1.19273723078359,0,30.321920882397
-6.59448,6.48704,CIV,"",FALSE,0,3289.988,30.2351215412896,0,0,,,,0,12,165.365591942068,1e-06,2.78411367446622e-05,288.447987971749,4.48653035247859,206.923422495895,1e-06,3.83512135405932e-05,358.610843024185,4.13093652576627,1e-06,9.92086908282235,3.02351215412896e-05,24.8362268528879,0,131.286413037866,0,6.82731919618342,0,1.77555051442953,0,58.7075435011097,0,8.98054528447828,0,26.1041184520586
-6.450154,6.883246,CIV,"Daloa - Côte d’Ivoire",TRUE,466.205,3289.988,31.5809428623859,1533808855.54,14723193.4671586,,,,0,12,275.168955366102,466.205,26865.7261570032,27160.5689467721,3.34253388516007,289.330181902304,466.205,28862.4574081264,29235.7815681721,3.27141216253267,0,607.502408675656,0,22.6944058197851,466.205,14251.9065266009,14723.1934671586,4.68550130632544,0,80.9097696375109,0,62.1859513020894,0,322.591839382844,0,31.1434027003068
-5.51861,33.8304405,MAR,"Ibadan - Nigeria",FALSE,713.763,5725.32862494757,52.8535171786926,4086527735.32846,37724884.9820151,,,,0,8,373.304890609908,713.763,63593.1478375734,72389.0599240664,2.93295519133426,392.577961390853,713.763,68334.8252968253,76968.6491917485,2.87035677354304,0,479.801007101482,0,36.3548417110834,713.763,34839.3748945281,37724.8849820152,4.26636125978501,0,2090.97545179678,0,17.4147949090764,0,535.811848837036,0,34.4022363706858
-6.633194,4.750108,CIV,"San-Pédro - Côte d’Ivoire",TRUE,390.654,3573.43717303907,31.4114659961222,1395977525.39641,12271014.8372491,CISPY,San-Pdro,AI,2312.50202864,12,821.257826437874,390.654,107352.967865091,117526.082740514,2.09197158635549,826.010948072391,390.654,108241.663628869,120247.481391995,2.08678676591009,0,136.571415312141,0,61.9212646615735,0,302.049799408132,0,41.6370756158597,0,57.3855859695565,0,95.5252626966099,390.654,96178.0747245352,97833.5898969291,2.33333777144478
-6.600167,5.783308,CIV,"Soubré - Côte d’Ivoire",TRUE,310.768,3216.67761193904,26.8544558285881,999640468.107073,8345505.52893867,,,,0,12,191.553343365172,310.768,10674.0641540936,17295.1721685551,3.90386023703433,193.146855999412,310.768,10801.1419916395,18955.4923743927,3.89002145306459,0,396.387371604555,0,26.9004836527602,310.768,6552.5157946127,8345.50552893867,6.61630155245657,0,78.3546128874335,0,60.5044813137396,0,782.323236830112,0,19.1481393353711
-4.034,5.317569,CIV,"Abidjan - Côte d’Ivoire",TRUE,9022.419,3473.84868051719,53.7001420652593,31342518338.2232,484505182.072294,CIABJ,Abidjan,AI,3248.84543344,12,359.525267430779,9022.419,761806.412587041,767823.656542839,2.98061460912727,368.626758238705,9022.419,789505.666174863,795980.684786521,2.94884908684987,0,1923.60383913834,0,59.9854917461308,0,1951.50159571607,0,59.5551437317707,0,790.23038106729,0,93.5894798205548,9022.419,602225.273885196,604712.463109575,3.39019213153868
-5.93669,6.13259,CIV,"Gagnoa - Côte d’Ivoire",TRUE,277.044,3292.32142843847,37.4502145097444,912117897.820308,10375357.2286376,,,,0,12,276.507123300708,277.044,16076.0832639186,18532.022959409,3.33559156088778,288.629370258902,277.044,17092.3008931398,19900.7967306178,3.27480895663919,0,396.701203852022,0,23.1948052548078,277.044,8822.00471832787,10375.3572286376,4.91854963849582,0,66.1554888399898,0,56.7987854282208,0,364.569165177972,0,24.1953558310371
-5.900032,35.008948,MAR,"Ksar El Kebir - Morocco",TRUE,481.749,7708.3994,48.126429375983,3713513702.5506,23184859.2254504,,,,0,8,313.786281232476,481.749,33490.4019675252,51099.3549025701,3.15960253843358,346.941184779543,481.749,38657.8206873497,59348.8717671193,3.02647610804328,0,861.73333584456,0,25.116385413816,481.749,19714.6304832178,23184.8592254504,5.25108546435953,0,1434.19833345751,0,19.4687909492571,0,1294.65647006891,0,20.4911490957904
-5.667584,32.939324,MAR,"Khénifra - Morocco",TRUE,381.704,5810.59514758978,38.7930319415803,2217927410.21561,14807455.4642289,,,,0,8,313.676123518138,381.704,26522.1304302867,29653.95886308,3.16007803357435,329.536794860544,381.704,28458.4936247571,32759.7998334981,3.09397455483029,0,476.163464908681,0,25.6631141148285,381.704,13069.7498308926,14807.455464229,4.89839390451175,0,860.325813445594,0,19.0921966672082,0,240.907549203627,0,36.0796382858452
-5.759602,10.555472,MLI,"Kadiolo - Mali",TRUE,317.492,2328.09481993824,27.1998768923998,739151480.571833,8635743.31432181,,,,0,9,265.405360196916,317.492,17375.6284523631,17811.883542869,3.39468901739149,281.075294201739,317.492,18859.5140764341,19328.8459368204,3.31224974348093,0,794.89289745641,0,16.3332244281972,317.492,8039.73265971053,8635.7433143218,5.13576552602021,0,174.731009293142,0,34.8370245255114,0,63.222103538983,0,57.9150393968481
-5.6370897,9.4510393,CIV,"Nneyi-Umuleri - Nigeria",FALSE,286.071,3289.988,35.5292803371237,941170157.148,10163896.7553213,,,,0,12,302.899847133541,286.071,18908.9047925635,20097.1300133731,3.20777983846133,322.325949177468,286.071,20664.8567050355,21961.4649650837,3.12345098790916,0,1182.6009502255,0,13.4600451621702,286.071,8746.92757358836,10163.8967553213,4.94922817822255,0,125.287092350964,0,41.3534854769827,0,82.5710900945414,0,50.9391224385186
-5.30024,6.8373399,CIV,"Arzew - Algeria",FALSE,37.253,3289.988,41.8178867554655,122561922.964,1557841.73530136,,,,0,12,179.562004231901,37.253,1166.66779024235,3222.41106359861,4.01353015994202,191.847781307578,37.253,1282.3532858559,3331.28406995928,3.90129200879431,37.253,565.140425518034,1557.84173530136,9.47188287192915,0,536.95187345608,0,9.71731829940772,0,20.6833331423222,0,49.5112549478117,0,38.7441441124635,0,36.1752205488082
-5.7609501,12.9448795,MLI,"Béni Mellal - Morocco",FALSE,89.799,2275.85166218126,32.5280080868355,204369203.412215,2920982.59818974,,,,0,9,254.455977190806,89.799,4627.43808747067,5664.72041027754,3.45653995651039,266.958792924722,89.799,4955.6429339781,5947.02974238508,3.38618451291838,89.799,2249.52712264562,2920.98259818974,5.50570745831661,0,272.164909719707,0,15.828787898174,0,82.6712969414878,0,28.7201124914114,0,16.7936879199481,0,63.7222856099968
-5.0414901,6.5430398,CIV,"Chipata - Zambia",FALSE,39.005,3289.988,39.0763581540411,128325981.94,1524173.34979837,,,,0,12,138.373071889624,39.005,841.869947203449,3056.50749607035,4.48771119573424,154.606607769897,39.005,986.43513725523,3258.20398898206,4.27935441248285,39.005,574.159314981267,1524.17334979837,10.1941722780961,0,381.154085950995,0,12.5117034287084,0,31.1044387958979,0,43.7981472279891,0,64.3004261583108,0,30.4621149220987
-4.6909499,5.9060397,CIV,"",FALSE,0,3289.988,32.1998889870533,0,0,,,,0,12,73.3919174688904,1e-06,8.72351214387096e-06,3943.98058873896,6.93653714858533,103.050955593491,1e-06,1.41666841508173e-05,5063.22589219469,5.97897783704656,1e-06,451.80138428663,3.21998889870533e-05,20.0155767886333,0,471.872489901253,0,19.585159708921,0,62.9557115523816,0,53.6195158972287,0,409.804895866344,0,21.0160916246844
-5.803895,35.77671,MAR,"Tangier - Morocco",TRUE,1007.037,7897.3692983517,60.3686019577755,7952943086.1042,60793415.8097524,MAPTM,Tanger Med,AI,29213.26830742,8,2442.87154685585,1007.037,1313357.86281192,1334413.99286574,1.31117608722994,2488.86187449123,1007.037,1348822.31142915,1373687.96680751,1.30073709606179,0,1515.14295906391,0,39.1657783913363,0,1474.03024864166,0,39.7082144545321,0,799.230467136961,0,53.9259187888421,1007.037,1137327.86733667,1141684.34318429,1.42952163899024
-5.003295,34.043295,MAR,"Fès - Morocco",TRUE,1380.105,4852.60936283408,54.7499901257426,6697110444.69412,75560735.122488,,,,0,8,371.4327072071,1380.105,122081.282766568,132036.826649163,2.93928182413124,390.162857389725,1380.105,130969.939256268,143238.007957676,2.87795806251163,0,797.772291968307,0,38.5632944561208,0,2875.87938159021,0,20.3108579573585,1380.105,70733.5085975759,75560.735122488,4.09544402630052,0,938.697216672831,0,35.5509195040354
-4.31988,35.1186104,MAR,"Niangoloko - Burkina Faso",FALSE,87.889,5072.45692357448,40.7110698682004,445813166.556038,3578055.21964627,,,,0,8,178.140121329785,87.889,2721.37286012005,10041.7965471472,4.02722837651442,233.12387074263,87.889,3996.51004438734,11804.4604519109,3.58870987023439,87.889,1601.00517200651,3578.05521964626,9.74462439050145,0,580.805056568275,0,16.1787900938649,0,164.541601883928,0,30.3965027824978,0,1005.42876321634,0,12.2966218843668
-5.466706,12.38318,MLI,"Koutiala - Mali",TRUE,173.39,2285.3071,34.2337289247921,396249398.069,5935786.2582697,,,,0,9,294.306105410858,173.39,10999.1659756228,12057.9788773096,3.24759304959511,306.082908441578,173.39,11633.2842009616,12778.8466396642,3.19344532793683,173.39,5175.03035729156,5935.7862582697,5.01821510075669,0,573.547288060558,0,15.0737077400435,0,136.419487292683,0,30.9076480903338,0,29.9992194999638,0,65.9098117825855
-4.88414,13.22997,MLI,"Techiman - Ghana",FALSE,62.939,2285.3071,27.7750123769379,143834943.5669,1748131.5039921,,,,0,9,260.40057588889,62.939,3352.09642275095,3591.90775833723,3.42249890459852,269.68877933319,62.939,3524.20123142985,3804.35691281064,3.37145093795464,62.939,1628.8188925392,1748.13150399209,5.15252005107221,0,128.827496818949,0,18.321287800198,0,46.6498142263326,0,30.4463129391901,0,9.86307697335119,0,66.21465008936
-5.1606898,9.9698601,CIV,"",FALSE,0,3219.81194498956,23.6325528252283,0,0,,,,0,12,186.590447034519,1e-06,3.30831861220787e-05,376.952876765569,4.22470638933585,231.29592931768,1e-06,4.49637421530499e-05,315.90659556244,3.90533227291679,1e-06,59.3522428833742,2.36325528252283e-05,9.00987374009802,0,48.1125593436847,0,10.0071004416904,0,3.62758532816422,0,36.4441911271255,0,1.50989269332485,0,56.4890351446842
-5.31213,8.7883997,CIV,"",FALSE,0,3289.988,26.5663110545579,0,0,,,,0,12,182.2094288986,1e-06,3.19791216209049e-05,480.812642474739,4.27467217822108,223.304912627293,1e-06,4.27610710306871e-05,512.195045932423,3.97491947852302,1e-06,53.2332729034154,2.65663110545579e-05,12.3297592011435,0,127.311125040005,0,7.97283526083518,0,5.00194025528424,0,40.2232008299717,0,3.29744933669086,0,49.5400952581798
-5.199932,9.583411,CIV,"Ferkessédougou - Côte d’Ivoire",TRUE,160.267,3267.52578171889,28.1654532445121,523676554.458741,4513992.69513822,,,,0,12,254.28784040315,160.267,8250.93438310197,9613.65156273363,3.45751926241395,271.290529604449,160.267,9050.21516764177,10469.9415342665,3.36293214043878,160.267,3244.89435923204,4513.99269513822,6.04073832175289,0,828.804003003714,0,11.9526534211837,0,102.826477667359,0,33.9341875684127,0,41.3379896521847,0,53.5199032344912
-4.93154,12.8220196,MLI,"Siliana - Tunisia",FALSE,24.889,2270.88540033439,28.0674148072147,56520066.7289225,698569.887136766,,,,0,9,282.81210417449,24.889,1491.51300441154,1513.4904231218,3.30351619652922,293.596342782677,24.889,1573.42162009683,1608.91558000676,3.25098459993439,24.889,679.575675621081,698.569887136767,5.00224380029151,0,61.7764577361668,0,16.5907795275626,0,17.8562322673988,0,30.8589692023935,0,3.83045174691212,0,66.6271417092528
-4.805582,12.183353,MLI,"Kouri - Mali",TRUE,137.964,2215.83852651061,27.169998873553,305705946.47151,3748481.72459086,,,,0,9,262.19110933001,137.964,7420.17075916235,7947.02606228499,3.4124624364949,269.482812683746,137.964,7716.71798921219,8523.74018754561,3.37258828308895,137.964,3195.98133354912,3748.48172459087,5.50779184976436,0,448.351009470458,0,14.7050577028649,0,98.5538807691554,0,31.3646549698321,0,21.9901124877824,0,66.399406243772
-4.8452396,10.9798899,BFA,"Tiko - Cameroon",FALSE,33.422,1561.522,23.9344297130372,52189188.284,799936.50986913,,,,0,13,184.753609015031,33.422,1090.18936848029,1757.78587638146,3.96480165824768,204.527550046425,33.422,1260.62543225128,1825.40314025687,3.79574016037682,33.422,272.992848762582,799.936509869129,9.81522186937395,0,363.821578180357,0,8.50221020417215,0,20.1931489077746,0,36.0888982785111,0,6.94035486733989,0,61.5580335303752
-5.016623,7.683365,CIV,"Bouaké - Côte d’Ivoire",TRUE,659.233,3289.988,40.2539059826232,2168868659.204,26536703.2026426,,,,0,12,313.644532797174,659.233,45799.2270097181,47272.6990906895,3.16021443798325,327.765786486706,659.233,48773.155859575,50551.5945179562,3.10112840634884,0,1310.82857921964,0,19.2581501316427,659.233,25177.3810223279,26536.7032026426,4.3942204894155,0,218.666187097262,0,47.1515685541666,0,230.13695332471,0,45.9614796671495
-3.2846298,9.6600199,CIV,"",FALSE,0,3217.02361233922,19.5825015048918,0,0,,,,0,12,131.19331349813,1e-06,2.00017387652785e-05,401.739420284517,5.04897395274793,174.725594055504,1e-06,3.0119383056551e-05,410.945591368736,4.50499763653432,1e-06,95.2416667565078,1.95825015048918e-05,9.35778495480189,0,25.2389886074906,0,18.1782146526504,0,13.9870291384758,0,24.4187640123182,0,3.0584538929225,0,52.2199029051752
-4.758877,10.630955,BFA,"Banfora - Burkina Faso",TRUE,126.236,1561.522,24.6889188876878,197120291.192,3116630.36470615,,,,0,13,242.097751588436,126.236,6058.48324793239,6982.19234072759,3.53108449814904,253.053205994525,126.236,6453.90559169039,7461.84111261924,3.46473654059298,126.236,2159.41523658131,3116.63036470616,6.4405803175457,0,672.538208163772,0,11.5407724431158,0,78.0603719876859,0,33.8749034859377,0,26.4599190816069,0,58.1834094516147
-4.1257401,6.7047696,CIV,"Cidade de Nacala - Mozambique",FALSE,74.281,3289.988,36.3507584903294,244383598.628,2700170.69142016,,,,0,12,300.180364555181,74.281,4847.02089737038,5261.59341699954,3.22020241597911,312.020806817992,74.281,5122.43803210657,5710.41115755882,3.16726221211223,74.281,2547.58893414896,2700.17069142016,4.74191514010411,0,148.538795174409,0,19.6379487376909,0,38.9578302247313,0,38.3458835649449,0,44.413513554454,0,35.9136024799414
-3.98735,7.06142,CIV,"Ilesa - Nigeria",FALSE,101.136,3289.988,30.9159129234854,332736226.368,3126711.76942962,,,,0,12,250.99823637534,101.136,5110.76999699129,6521.43490491563,3.4768675545311,261.401696815638,101.136,5416.05538920226,7411.51157663012,3.41689129205147,101.136,2493.50722041241,3126.71176942962,5.89088825580934,0,380.690360842112,0,15.0763620394175,0,75.8115334025812,0,33.7842376623475,0,62.9933727210213,0,37.0625718108712
-4.016502,34.216732,MAR,"Taza - Morocco",TRUE,215.147,4756.2676,43.2527353559962,1023296705.3372,9305696.25363651,,,,0,8,293.640779258374,215.147,13604.007271233,17613.1740162841,3.25074458351768,327.35446310477,215.147,15889.0575823829,20724.3177704149,3.10279883784882,0,374.586248563759,0,23.0790362477489,215.147,8564.55087530013,9305.69625363651,4.82660249964533,0,368.024727441191,0,23.2838652855859,0,165.800927986028,0,34.6896649858489
-4.1851397,14.0335598,MLI,"Rubengera - Rwanda",FALSE,35.513,2285.3071,26.5762081399309,81158111.0423,943800.879673367,,,,0,9,250.043828497866,35.513,1784.86063209776,1894.24748927821,3.48254898365263,258.157372090435,35.513,1868.16959115615,1995.42959627518,3.4351659752088,35.513,943.800894596689,943.800879673366,4.99485851062497,0,42.7821834881843,0,23.4606615228106,0,26.9556280351289,0,29.5560537707089,0,4.91153775408583,0,69.2409636721748
-3.4726,12.4589195,BFA,"Al Marj - Libya",FALSE,63.617,1561.522,23.9784948796488,99339345.074,1525439.90875862,,,,0,13,204.45944414682,63.617,2398.39210347545,3264.7886507541,3.79627982568708,217.175583241841,63.617,2614.29273048039,3526.6986698968,3.69936241939726,63.617,1045.56865871849,1525.43990875862,6.79413074071063,0,248.646565059497,0,13.9322073457067,0,64.5849897407814,0,27.3368149877313,0,10.5348959242214,0,67.6858079787256
-4.283237,11.183756,BFA,"Bobo-Dioulasso - Burkina Faso",TRUE,903.887,1563.71297280047,35.5323045529694,1413419827.8457,32117188.1654698,,,,0,13,297.947666766766,903.887,58355.1843126077,61083.2351157298,3.23052215722084,312.47137554436,903.887,62460.91964546,65546.7320812203,3.16529445454237,0,2639.07040388379,0,15.7748212459249,903.887,29013.2194381397,32117.1881654699,4.75764000713293,0,497.909586750468,0,36.3173871648382,0,144.060396109673,0,67.5176189040182
-3.4547899,10.1577702,BFA,"",FALSE,0,1561.522,18.5995770061625,0,0,,,,0,13,168.444798775572,1e-06,2.85846795932966e-05,74.9119776169029,4.44523094411134,201.141872144732,1e-06,3.68296376961378e-05,97.1477204119287,4.19086853776343,1e-06,22.880848253543,1.85995770061625e-05,8.63540897086388,0,9.04366804166247,0,13.7356551412768,0,1.84028421907674,0,30.4494240131796,0,0.502853152442769,0,58.2506894067019
-3.932213,35.247186,MAR,"Al Hoceïma - Morocco",TRUE,157.146,5081.60594467335,48.3370623895879,798554047.781638,7595976.00627419,,,,0,8,297.631384814004,157.146,10130.0056486623,16533.5872422794,3.23199298056437,343.206869074328,157.146,12416.687577771,19275.6898037354,3.04054643533363,157.146,4711.30188120024,7595.97600627418,6.15015536748025,0,1121.852605625,0,12.603433235329,0,184.710178380812,0,31.0606927955154,0,534.216018869507,0,18.2640926188347
-3.8383498,11.7186594,BFA,"",FALSE,0,1561.522,21.1535394343159,0,0,,,,0,13,176.766564090755,1e-06,3.0623244869709e-05,342.77258323566,4.33953005257865,215.321125656708,1e-06,4.05938762124416e-05,369.804041896594,4.04857021554819,1e-06,52.6901176345437,2.11535394343159e-05,10.7256031810577,0,68.8632632100991,0,9.38198521198776,0,6.19967785188933,0,31.2682205878823,0,1.39993714366774,0,65.8010432770237
-3.516123,11.495237,BFA,"Houndé - Burkina Faso",TRUE,102.324,1561.522,23.1279888600729,159781177.128,2366548.3321181,,,,0,13,231.458959522888,102.324,4605.5034351937,5621.65000134098,3.59975079249178,247.000171848472,102.324,5053.54400607603,6018.2411443716,3.50087915542735,102.324,1647.84524708708,2366.5483321181,6.69042365851483,0,511.384613594767,0,12.0098677990435,0,99.4564350947484,0,27.2330200197545,0,19.3341725298492,0,61.7658425453158
-3.2551699,10.9504795,BFA,"Abū Za‘bal - Egypt",FALSE,25.688,1559.68196236009,20.0266158993534,40065110.249106,514443.709222591,,,,0,13,183.269232871659,25.688,828.313973034581,1354.7576821099,3.97853250866261,200.003428967154,25.688,938.439423625428,1564.64976565113,3.83229840243704,25.688,357.671247426043,514.44370922259,8.01540783204589,0,163.804918250294,0,11.8441722128838,0,28.1761386918921,0,28.5579411471997,0,6.43487750995265,0,59.7583570439008
-4.031478,6.172398,CIV,"Adzopé - Côte d’Ivoire",TRUE,156.488,3289.988,28.5378806552521,514843642.144,4465835.86797909,,,,0,12,220.985877798672,156.488,6592.54069249427,7883.6756344358,3.67189946938216,224.31661991774,156.488,6734.94649379802,8526.19466292196,3.64853356249188,156.488,3621.65822863889,4465.83586797909,5.59820915260739,0,145.839118471344,0,27.8961678936715,0,73.8502773481484,0,39.2019591892391,0,131.955212052483,0,29.3272164568989
-4.183454,14.484661,MLI,"Mopti - Mali",TRUE,175.604,2287.68401478936,27.9093141499409,401726463.733071,4900987.20198623,,,,0,9,260.283462163536,175.604,9346.56380165482,9359.87300102238,3.42315878720003,268.993195815567,175.604,9796.54647617501,9813.00524567266,3.37521024999528,175.604,4899.37958979934,4900.98720198622,4.77673804285797,0,161.224511894674,0,26.3321521259083,0,132.346982950421,0,29.0632413369183,0,23.6527402550747,0,68.7481585049659
-3.5236499,14.0762997,MLI,"Kamsar - Guinea",FALSE,105,2285.3071,24.7752788915821,239957245.5,2601404.28361612,,,,0,9,244.921710483961,105,5123.47976501486,5138.89553491108,3.51357799606883,253.156426694479,105,5371.32834525214,5388.68668991602,3.46413334914611,105,2583.65413940236,2601.40428361612,5.00286670366349,0,97.5285985865691,0,25.7495710546286,0,81.2804275389426,0,28.2060885141967,0,13.5924486256929,0,68.9742897589269
-0.04122,16.2347698,MLI,"Catabola - Angola",FALSE,49.483,2285.3071,23.3834754351307,113083851.2293,1157084.51495657,,,,0,9,201.072170208967,49.483,1821.53883959232,2150.63553155905,3.82355721839981,206.434944323664,49.483,1891.33644716865,2235.66158566164,3.78065785498033,49.483,941.518593520613,1157.08451495657,5.82580261058839,0,41.642397673162,0,27.7015526466574,0,54.0565001319374,0,24.3133831171261,0,7.80198603520674,0,63.9983952136649
-3.7660499,6.5562596,CIV,"",FALSE,0,3330.13071312614,26.749789223801,0,0,,,,0,12,127.101267655877,1e-06,1.91164836392982e-05,275.401893333365,5.13292003012227,175.357059897756,1e-06,3.02750073319487e-05,349.875777478641,4.49659303662414,1e-06,100.838130832844,2.6749789223801e-05,8.37584488904121,0,13.0622164647455,0,23.271859604223,0,5.91686997911824,0,34.5775445067201,0,6.84616117343333,0,32.1452466037595
-3.199681,5.466835,CIV,"Aboisso - Côte d’Ivoire",TRUE,115.831,3283.31415970208,30.802133925745,380309562.432452,3567841.97475296,,,,0,12,90.6740163084778,115.831,1366.81107030664,8668.62814738501,5.37894633912043,93.272886602128,115.831,1423.11738131992,9654.67370219872,5.31419857985018,115.831,2249.83909963797,3567.84197475297,11.0085717258813,0,128.791486253706,0,46.0111868727473,0,136.992934028563,0,44.6125778984103,0,771.322786958749,0,18.8013129389862
-2.884658,34.416684,MAR,"Taourirt - Morocco",TRUE,321.876,5909.4069394727,41.5215982796711,1902096268.04972,13364805.9678674,,,,0,8,308.060695058768,321.876,21795.3026263431,22100.1099126881,3.18463763644813,342.287629981477,321.876,25335.3591715897,25977.5144561885,3.04404333566994,0,281.554016632463,0,29.2394169954315,321.876,13364.8058890932,13364.8059678674,4.24393108430851,0,194.845171960976,0,35.1483341374863,0,219.955442908188,0,33.0812732103218
-3.3598599,7.0014696,CIV,"",FALSE,0,3315.53558628181,33.597304142047,0,0,,,,0,12,118.618612657965,1e-06,1.73202873429479e-05,896.370611308807,5.3223336241293,158.968951119158,1e-06,2.6315490915203e-05,1628.0102374358,4.73221318462774,1e-06,328.146804303446,3.3597304142047e-05,10.5404375569727,0,93.4182771120493,0,19.7550097880011,0,62.5059945285847,0,24.1508315736074,0,21.7379712394027,0,40.9527584378477
-2.933289,35.166696,MAR,"Nador - Morocco",TRUE,398.424,7606.25038889618,51.3612061101847,3030512704.94557,20463537.1832442,,,,0,8,340.298611717188,398.424,31100.5599474494,32647.5630284905,3.05165547034132,380.403229246394,398.424,36466.0088927969,38309.7911201413,2.90937517894515,0,538.822643436363,0,24.5319158502531,398.424,19752.1663557468,20463.5371832442,4.05179390538384,0,215.932702437598,0,38.752093951528,0,298.573121540868,0,32.9555854436641
-3.483656,6.733739,CIV,"Abengourou - Côte d’Ivoire",TRUE,164.424,3393.50643563291,31.3151713379485,557973902.172505,5148965.73207084,,,,0,12,257.153244306177,164.424,8601.54083702529,9279.04372960439,3.44095507216859,265.818452798412,164.424,9018.57357552005,10136.7976160354,3.39237987854482,164.424,4517.99593225567,5148.96573207084,5.08134639168707,0,164.623024721502,0,26.620489265207,0,121.266795307084,0,31.0163559212594,0,92.6012565920787,0,35.4937558627157
-2.416466,13.583359,BFA,"Ouahigouya - Burkina Faso",TRUE,124.58,1563.41905949248,24.9678181813964,194770746.431573,3110490.78903837,,,,0,13,247.921537288156,124.58,6185.52932885078,6507.96013772945,3.49529433532486,258.590252600345,124.58,6569.26406153213,7084.78318956099,3.43274787854643,124.58,2850.33435455082,3110.49078903836,5.41199175555578,0,176.013447371341,0,21.7787111068338,0,168.371029074655,0,22.2675341358361,0,20.6101402088989,0,63.645116656747
-3.0625598,11.1466293,BFA,"Hohoe - Ghana",FALSE,25.922,1561.522,20.2432159885365,40477773.284,524744.644854843,,,,0,13,240.754996735799,25.922,1234.23698092995,1282.79435784149,3.53951131694659,251.132755858603,25.922,1310.9359936467,1362.02265588194,3.47606336962544,25.922,416.221525176209,524.744644854843,6.28806919424891,0,92.6960874550081,0,13.3244700622213,0,22.8612079856378,0,26.8305286574625,0,4.38845061214949,0,61.2386461299929
-2.7472,11.7775002,BFA,"Sébékoro - Mali",FALSE,40.627,1561.522,21.1605772475616,63439954.294,859690.771836685,,,,0,13,226.890149551299,40.627,1777.23671652025,1981.09459715823,3.63063977676007,229.030494809753,40.627,1801.23559116227,2046.62944932447,3.61606509738565,40.627,574.073626363172,859.690771836685,6.82766202160583,0,139.024381093588,0,13.8742747473361,0,47.8595405730299,0,23.6467978016065,0,6.6097128656773,0,63.6301897728156
-3.03983,6.1229501,GHA,"",FALSE,0,3802.82235998441,26.9757504642009,0,0,,,,0,14,95.8844503721402,1e-06,1.27805175072701e-05,585.182700838041,5.96729681827182,124.865292717618,1e-06,1.86378742579526e-05,829.927764761629,5.38108137712957,1e-06,180.314260408714,2.69757504642009e-05,11.5443332433473,0,21.9564639326698,0,33.0837571797415,0,23.9375089305244,0,31.6850934464411,0,33.6630007051756,0,26.718842108224
-2.75492,6.4242897,GHA,"",FALSE,0,3953.2102,29.0369393929079,0,0,,,,0,14,108.880031369721,1e-06,1.53251826704361e-05,564.162312617489,5.570276197964,128.576717736446,1e-06,1.94342889965017e-05,584.339633476914,5.29670241199343,1e-06,116.233762233498,2.90369393929079e-05,11.8760299950093,0,14.6822473182634,0,33.4150926458974,0,28.8454986383331,0,23.8396583139578,0,17.5510645571293,0,30.5623634271481
-2.366508,12.250045,BFA,"Koudougou - Burkina Faso",TRUE,252.816,1560.77676867213,26.6972220059627,394589339.548613,6749484.87865947,,,,0,13,232.919645726918,252.816,11481.7263551235,14484.5696427252,3.59005849559785,245.299799501083,252.816,12363.3822078888,15381.8170206284,3.51125233927956,0,1076.58294347132,0,13.2721784229138,252.816,4067.30136404831,6749.48487865947,6.82829762333149,0,450.384338539349,0,20.5198779017725,0,38.6196605313761,0,70.0747798613722
-2.883702,7.283584,GHA,"Domaa-Ahenkro - Ghana",TRUE,1000,3838.14915389001,37.1443756204362,3838149153.89001,37144375.6204362,,,,0,14,289.171403131626,1000,61860.8395565329,64883.0905679516,3.2721829138397,307.205354177443,1000,67444.9276456816,71808.3084419248,3.18843112102927,0,1330.12794167173,0,23.4270805330642,0,685.150354961121,0,32.6416518133403,1000,34739.3741459274,37144.3756204362,4.58409004877374,0,358.701297228933,0,45.11266742459
-2.800007,8.033291,CIV,"Bondoukou - Côte d’Ivoire",TRUE,141.568,3415.9826182662,35.1347520530404,483593827.30271,4973956.57864482,,,,0,12,308.205971330252,141.568,9592.50237879374,10020.0829829066,3.18399421776378,324.920606547212,141.568,10344.2242033749,10896.1508730068,3.1127627652845,141.568,4371.60525395437,4973.95657864482,4.91433214021122,0,197.919070248465,0,23.0959413590034,0,295.590789083257,0,18.8987033864859,0,49.0754654490223,0,46.3816820209741
-3.0037599,9.2666302,CIV,"Birkat as Sab‘ - Egypt",FALSE,94.883,3281.84616266209,23.3886063445532,311391409.451867,2219181.13579024,,,,0,12,247.149475066089,94.883,4690.09738515286,4886.69077039729,3.49996966920883,259.698678809172,94.883,5033.96857678099,5321.57124033153,3.42645752407493,94.883,1938.85343678317,2219.18113579024,5.67665419340325,0,137.211699554177,0,21.338827443076,0,145.282088653565,0,20.7376527635212,0,26.518844681634,0,48.5387298083792
-2.500115,10.066876,GHA,"Wa - Ghana",TRUE,107.214,3936.48868750266,37.1891567694194,422046698.141911,3987198.25387653,,,,0,14,265.989823511918,107.214,5886.05062835076,8107.21472402319,3.39149021173782,268.66865661556,107.214,5970.91805780123,8858.80043860506,3.37692576346746,107.214,3105.82966245489,3987.19825387653,5.7031812214993,0,221.311127649467,0,21.3654966840504,0,316.064064188758,0,17.8782390135995,0,32.9075438539056,0,55.4070820222606
-2.7890699,11.0427799,BFA,"",FALSE,0,2197.95807905528,23.1288106598402,0,0,,,,0,13,180.316929880044,1e-06,3.15056829648808e-05,277.290751436293,4.29686331655339,210.927087311058,1e-06,3.94156493640128e-05,329.617178525412,4.09102556000458,1e-06,82.8999099926591,2.31288106598402e-05,8.15755265017226,0,23.8964463268572,0,15.193964345711,0,8.8431449707077,0,24.9766035129032,0,1.41201349120471,0,62.5053820203101
-2.75752,5.2915597,GHA,"Kolda - Senegal",FALSE,27.938,3680.15963132643,31.4353166300399,102816299.779998,878239.876010055,,,,0,14,156.101615877653,27.938,716.331518516458,1344.03694788833,4.26173749248918,163.353374448654,27.938,764.339855093745,1592.11037757947,4.17960406790622,27.938,519.407983861346,878.239876010055,7.31757855603629,0,21.0104895267558,0,36.3834861425194,0,22.72388384276,0,34.9848759402059,0,60.218473699188,0,21.4909992729673
-2.49212,9.0273695,GHA,"Mesra - Algeria",FALSE,10.555,3903.89231157778,29.1246396378985,41205583.3487034,307410.571378019,,,,0,14,152.984910744827,10.555,262.944694262946,1199.30170277984,4.29873298360117,168.838231436223,10.555,302.718511261691,1299.94566581613,4.12085827804657,10.555,274.083123272343,307.410571378019,8.97445796051677,0,36.3696379268906,0,24.6366665582187,0,110.974055714901,0,14.1039307084819,0,8.60927352213235,0,50.6369503424805
-1.911082,34.686468,MAR,"Oujda-Angad - Morocco",TRUE,619.82,7265.94785567517,64.1855171619656,4503579799.90458,39783467.2473295,,,,0,8,392.368591075764,619.82,59295.6277002032,59302.9292123123,2.87101320500219,414.320069670284,619.82,64090.9308722962,68997.4484217423,2.80480722241256,0,492.113374462113,0,33.2113820984345,619.82,38752.9165616435,39783.4672473295,3.74254762388654,0,310.028824206761,0,41.8425838907597,0,677.289441417797,0,28.3095118452097
-2.63341,7.4203897,GHA,"Béchar - Algeria",FALSE,96.471,3953.2102,36.4293790503192,381370141.2042,3514378.62636334,,,,0,14,260.554139699369,96.471,5142.32134244066,8576.35212041683,3.42163426722488,272.009736855287,96.471,5468.32317276889,9275.54695648848,3.35911896412456,96.471,1936.12971199506,3514.37862636334,7.35239209535964,0,381.334034842426,0,16.5669457266448,0,684.01449573683,0,12.3697609394613,0,43.9134217862099,0,48.8198085382888
-2.42713,6.64852,GHA,"",FALSE,0,3953.2102,30.0019266172557,0,0,,,,0,14,117.517656936038,1e-06,1.70910908823976e-05,2249.86357349897,5.34860536207806,151.436617513513,1e-06,2.45524694263577e-05,3155.72822981536,4.85445645369006,1e-06,248.246623683101,3.00019266172557e-05,17.308066027225,0,134.394761500192,0,23.5233845334821,0,451.599625269096,0,12.8325638673365,0,57.3999528333702,0,35.9943785284264
-1.9408599,7.58079,GHA,"Nnewi - Nigeria",FALSE,104.212,3953.2102,38.4258396252504,411971941.3624,4004433.5990266,,,,0,14,194.810822179339,104.212,3666.68130986737,9498.11351759659,3.87574937735386,214.987430299354,104.212,4221.00636370156,10248.0866063891,3.71545896564095,104.212,2073.24788140521,4004.43359902659,8.26053059483165,0,422.237512288657,0,18.3044319280542,0,710.859204183351,0,14.1072315925253,0,72.072290786015,0,44.3047452540146
-2.3793299,11.9639797,BFA,"Gīnīr - Ethiopia",FALSE,8.983,1555.86958355345,20.7091832742223,13976376.4690606,186030.593352339,,,,0,13,150.812780143075,8.983,219.258026339942,677.852030084615,4.32515917201225,183.543215238966,8.983,290.277192280344,821.241069006468,3.97598513078606,8.983,134.683116923571,186.030593352339,9.81801074957091,0,92.9156332894832,0,11.8204890209744,0,32.5176683796995,0,19.9811710738326,0,2.92511341628348,0,66.6205523327482
-2.3323998,7.3266597,GHA,"Matola - Mozambique",FALSE,225.038,3934.99061586051,37.6600902235125,885522418.212017,8474951.38371881,,,,0,14,263.769740305104,225.038,12207.5435631259,17789.3483904587,3.40369462471187,264.904454760045,225.038,12282.6352215631,18826.0979804305,3.3974428196927,0,1118.69290249782,0,13.9372269219983,225.038,4576.21827740811,8474.95138371881,6.89095583425464,0,623.486839814901,0,18.6688751247713,0,124.186323852674,0,41.830681634353
-1.527486,12.368619,BFA,"Ouagadougou - Burkina Faso",TRUE,2497.171,1561.522,38.4954008979503,3899387454.262,96129598.7557355,,,,0,13,290.499533553849,2497.171,155491.655847236,160693.156561171,3.26576307109106,304.084490461353,2497.171,165982.599011107,172388.099397675,3.20241825491999,0,2899.27049893196,0,24.6937503934739,0,1600.31308241751,0,33.2375589885726,2497.171,92097.4869712193,96129.5987557354,4.38134912421476,0,319.408145746159,0,74.3975705505129
-0.85435,10.77911,GHA,"Calabar - Nigeria",FALSE,93.991,3844.83852701892,32.5092252880077,361380217.993035,3055574.59404513,,,,0,14,231.117257493863,93.991,4221.52407326308,6397.17533859134,3.60203075320625,238.842914969745,93.991,4424.55147819789,6726.99831870637,3.55163288910141,93.991,2043.97081355384,3055.57459404513,6.44320403231559,0,149.890291034655,0,23.793151069892,0,375.463324706498,0,15.0332867196062,0,26.9167954182586,0,56.1470008179632
-2.02933,8.1420498,GHA,"",FALSE,0,3909.39329504001,30.4736731110018,0,0,,,,0,14,225.90768501446,1e-06,4.34748593198376e-05,66.2600348326369,3.84787108343378,253.383525773189,1e-06,5.12210779074643e-05,89.0774705322498,3.73155951888495,1e-06,20.8826007072077,3.04736731110018e-05,7.70687110690131,0,2.67268734531227,0,21.5428418997524,0,6.21366603096827,0,14.1287889498197,0,0.548754347861229,0,47.543157151544
-0.852935,9.408997,GHA,"Tamale - Ghana",TRUE,1146.388,3953.2102,39.9885546755501,4531912734.7576,45842399.2173945,,,,0,14,308.445148843249,1146.388,77764.2037582023,81323.9798867637,3.18293585200159,320.063801370373,1146.388,81982.3962173221,86173.3264754692,3.13289724905279,0,2028.5656059815,0,20.4191382218943,0,650.574938547439,0,36.0565235111263,1146.388,43063.1874810994,45842.3992173945,4.43179509312896,0,239.947823194486,0,59.3709175010269
-2.0349898,7.0902801,GHA,"El Wak - Kenya",FALSE,45.153,3953.2102,34.7409805927437,178499300.1606,1568659.49670415,,,,0,14,153.779564809474,45.153,1133.20142891628,4555.99412520639,4.28919870462911,164.03919772231,45.153,1242.73098408073,5454.88312365017,4.17210521243191,45.153,712.743306771914,1568.65949670416,11.5420026270675,0,301.122096562179,0,17.7573023869726,0,497.80451130226,0,13.8107919468486,0,56.1828899638556,0,41.109856325314
-1.89963,5.9580197,GHA,"",FALSE,0,3910.51913372888,33.3768235924992,0,0,,,,0,14,94.982351731794,1e-06,1.26090909008063e-05,1187.74256412243,5.99832198655511,117.258243101145,1e-06,1.70372197398347e-05,3691.74407193205,5.56813066233375,1e-06,226.608153892374,3.33768235924992e-05,22.4743684691368,0,139.059280744739,0,28.6897833210182,0,353.313646649973,0,17.9988132572583,0,228.530801617501,0,22.3796144721987
-1.625058,6.70004,GHA,"Kumasi - Ghana",TRUE,6898.949,3953.2102,55.7015155157662,27272995556.0798,384281914.76598,,,,0,14,352.238679347132,6898.949,565719.534699723,578761.912488059,3.00688516998701,366.07701948168,6898.949,597735.324553507,613659.805284236,2.95764023750948,0,4304.02740867488,0,35.3159484096531,0,3112.19812300011,0,41.5312412476114,6898.949,377202.952960431,384281.91476598,3.77243568049815,0,2285.19789628382,0,48.4670465170873
-2.26566,12.9614601,BFA,"Zomba - Malawi",FALSE,78.833,1627.34871682273,19.3775853082574,128288781.393286,1527593.18260586,,,,0,13,170.498229874095,78.833,2292.76165488665,4112.86138534758,4.10361926552459,186.362556046822,78.833,2603.49754500475,4963.50995424061,3.95009627638503,78.833,1052.75614012077,1527.59318260586,8.57705129454615,0,264.212413296221,0,17.1208536778413,0,309.265164645209,0,15.8247529583461,0,17.3508040305189,0,66.810268533157
-1.083295,13.083043,BFA,"Kaya - Burkina Faso",TRUE,141.824,1561.522,20.6131088024861,221461296.128,2923433.54280379,,,,0,13,215.258438211294,141.824,5754.79159729634,6254.54850864858,3.71345662125532,225.73239259636,141.824,6158.94484472424,6699.05478164583,3.63861925550638,141.824,2327.27744485833,2923.43354280379,6.17332624917913,0,129.361793657873,0,26.1842206807288,0,294.513326031309,0,17.3536899607174,0,25.712672567579,0,58.7311986629539
-2.0190399,12.1964092,BFA,"Sakouéba - Mali",FALSE,41.911,1578.17761345313,20.6985723020877,66143001.9574339,867497.863752799,,,,0,13,147.604516879706,41.911,992.022247955553,3110.32601296902,4.36520155111579,185.303582907095,41.911,1372.9086887261,3877.18762000235,3.95975022661876,41.911,823.779427774231,867.497863752798,8.59054024534391,0,212.016197912764,0,16.9333082320273,0,242.348070257589,0,15.8382393237925,0,11.8143465203053,0,71.7332830962187
-1.9836799,4.92097,GHA,"Bocaranga - Central African Republic",FALSE,27.719,3953.2102,37.6841551729159,109579033.5338,1044567.09723805,,,,0,14,116.824176554193,27.719,469.75925877426,3142.57099722398,4.82539623670348,151.285424594766,27.719,679.599429599787,2977.38024741382,4.31936301529485,27.719,349.381331617543,1044.56709723806,12.6091887030394,0,63.6543869538692,0,29.5408291602993,0,82.1200717315819,0,26.008306006737,0,354.691244601783,0,12.5144438319871
-0.78598,32.4087105,DZA,"",FALSE,0,13888.5151898265,38.4111599953153,0,0,,,,0,10,134.922005087741,1e-06,2.08187675450604e-05,404.919718799944,4.9762158405822,165.742244132295,1e-06,2.79317717775103e-05,440.398521584151,4.63019472293453,1e-06,107.285464179101,3.84111599953153e-05,9.38105583908403,0,40.8217799278707,0,15.20814495534,0,1.86716912841689,0,71.1099478904642,0,8.24934971897516,0,33.8308041295085
-0.29448,27.9394188,DZA,"Cuango - Angola",FALSE,77.757,13747.3943974488,41.9438900722357,1068956146.16242,3261431.06034683,,,,0,10,308.14972215584,77.757,5267.36089318584,5521.14907336991,3.18424329480669,315.816273230161,77.757,5455.56611735852,5721.49792153037,3.15088221675218,77.757,3261.43104803864,3261.43106034683,4.17333254808044,0,95.7640684158667,0,24.354850607948,0,15.829388417942,0,59.9038757550322,0,22.7253904140006,0,49.9955508087459
-1.735029,8.052471,GHA,"Kintampo - Ghana",TRUE,111,3953.2102,31.8375771190788,438806332.2,3533971.06021775,,,,0,14,276.775732093708,111,6449.95794153937,8090.13260116729,3.33420382217092,290.192593181083,111,6901.22051179691,8796.91015835936,3.26723452645809,111,2398.75149537854,3533.97106021775,6.25678080220212,0,195.900823768228,0,21.8942856726796,0,584.189709856905,0,12.6785584004803,0,44.2001567123366,0,46.0929211500401
-1.704435,4.940486,GHA,"Sekondi - Ghana",TRUE,345.041,3953.2102,55.5145875968161,1364019600.6182,19154808.818993,GHTKD,Takoradi,AI,343.8114,14,527.843874421958,345.041,50424.7625430737,54747.1086659976,2.52831026666953,532.999982173437,345.041,51129.8918280607,60188.2828098461,2.51779898277392,0,610.293124725416,0,25.003904560381,0,892.055263974393,0,20.681460452132,0,473.668744623022,0,28.3817721844243,345.041,28560.2111152929,31875.830618993,3.65507529702322
-1.66741,7.6862698,GHA,"",FALSE,0,3953.2102,34.7148244506919,0,0,,,,0,14,242.0758709835,1e-06,4.79871117045236e-05,71.4503188784288,3.72186745797584,262.783886656942,1e-06,5.39571774500675e-05,110.922642420891,3.66479136829791,1e-06,26.6352826975211,3.47148244506919e-05,7.47877400249895,0,3.01443085689996,0,22.2308499085202,0,7.71007436233309,0,13.9005132095028,0,0.736387129350308,0,44.9786952089628
-1.2003399,5.16293,GHA,"Lubango - Angola",FALSE,242.548,3953.2102,47.126908309488,958843227.5896,11430537.3566497,,,,0,14,224.928237885554,242.548,10479.4896805817,28281.5580175706,3.6441780235583,239.657691523045,242.548,11473.4373805718,30280.3957147016,3.54644947431669,0,298.97865091729,0,35.6906331134405,242.548,6943.55450017286,11430.5373566497,7.40599996744819,0,921.955512053117,0,20.3244891497818,0,1851.57383900942,0,14.3418082297587
-0.983493,7.750098,GHA,"Atebubu - Ghana",TRUE,105.938,3953.2102,32.7029046576606,418795182.1676,3464480.31362325,,,,0,14,197.348994464779,105.938,3796.98080611991,7804.1935054221,3.85430720270761,192.884989873045,105.938,3674.88220486362,8464.08364052999,3.89229387858876,105.938,2028.02182552036,3464.48031362325,7.95171247530046,0,183.571529633297,0,26.4294344012941,0,634.829322391904,0,14.2123995842745,0,67.6048124132114,0,43.5518521451084
-0.47613,6.2894998,GHA,"Benguela - Angola",FALSE,186.596,3915.11583355947,41.0997756355816,730544954.078863,7669053.73449698,,,,0,14,191.414583572223,186.596,6402.45087155033,17832.0784114385,3.90507283364871,211.815852406612,186.596,7399.11429437221,19484.7366629173,3.73920024669401,186.596,6386.44474447758,7669.05373449698,6.53124529155855,0,181.613531233654,0,38.7303140319212,0,387.206504665215,0,26.525059406451,0,703.232620575133,0,19.6823496648435
-1.26867,12.4855795,BFA,"Kuvango - Angola",FALSE,33.296,1548.55313505811,24.8504324087384,51560625.1848949,827419.997481354,,,,0,13,119.693213614067,33.296,584.174267724027,2272.37716629348,4.77548197669515,136.035275960699,33.296,701.366955955732,2535.40539045163,4.52060645008947,33.296,478.490210702082,827.419997481354,10.4059968645453,0,57.5987782034925,0,29.9925476086305,0,297.149731379263,0,13.2048425069363,0,13.329601190332,0,62.346413536194
-0.433167,12.249994,BFA,"Pouytenga - Burkina Faso",TRUE,181.256,1596.38093961074,25.259614458178,289353623.590084,4578456.67823152,,,,0,13,257.694032454113,181.256,9510.57556010022,9799.31613318523,3.43785846817608,271.077041713627,181.256,10223.9511566163,10557.5960427292,3.36407064114866,181.256,4139.34201546397,4578.45667823151,5.37257306539468,0,191.794146028262,0,24.9591103137383,0,343.450021831366,0,18.6515734353259,0,36.3737302994444,0,57.3129810661668
-0.199998,5.549954,GHA,"Accra - Ghana",TRUE,3048.022,3953.2102,68.5172293751128,12049471660.2244,208842022.51439,GHTEM,Tema,QQ,7407.89336449,14,674.027521267137,3048.022,631634.358812008,641393.180810128,2.27681645138144,693.537675891692,3048.022,657914.133858158,668159.48578925,2.2491431905242,0,2544.63818074698,0,36.4454703995607,0,1784.51970556818,0,43.5207529849101,0,1061.0892630426,0,56.4392625117515,3048.022,479068.692169652,482934.07700052,2.65618502353438
1.65764,13.7969694,NER,"",FALSE,0,908.340884736449,18.21835659222,0,0,,,,0,15,121.489741847154,1e-06,1.79222831354882e-05,505.959913899914,5.25572439595457,153.49081264629,1e-06,2.50296307589261e-05,500.669631688443,4.82014047080632,1e-06,59.2877824916835,1.821835659222e-05,14.0072333535962,0,10.0519300041359,0,34.0181656434891,0,97.7140330927722,0,10.9108051054517,0,2.62528596506513,0,66.5653803412516
0.05265,8.85392,GHA,"Chinde - Mozambique",FALSE,8.6,3953.2102,29.5972745903776,33997607.72,254536.561477247,,,,0,14,139.772328419479,8.6,188.306575878617,840.955935084034,4.46840175593584,139.089397344786,8.6,186.993566738068,1041.45406078236,4.47780631789716,8.6,254.536571731605,254.536561477247,9.0575745843255,0,31.8133274062385,0,25.6199511237911,0,45.7656462116635,0,21.3606425216552,0,15.3037712773249,0,36.9390053188765
-0.233454,11.049927,GHA,"Bawku - Ghana",TRUE,100.737,3443.348943435,35.8736219329596,346872642.514812,3613801.05266056,,,,0,14,324.326534234184,100.737,7341.52783993113,7586.20890011308,3.11517956452485,342.469811164329,100.737,7935.19514600344,8211.66167983178,3.04332849769501,100.737,3456.00103719312,3613.80105266055,4.69111508361859,0,160.110565345251,0,21.7950233395329,0,198.357049908541,0,19.5813287616572,0,25.9391334990802,0,54.1489674102898
-0.82513,9.98067,GHA,"Aioun - Mauritania",FALSE,12.666,3608.44598300667,29.1684758976839,45704576.8207625,369447.915720064,,,,0,14,147.574947375018,12.666,299.715064060838,1105.97677891581,4.36557642322812,158.980032969325,12.666,333.345201915357,1246.55417756813,4.22850338573812,12.666,199.448143459058,369.447915720064,10.5713148290952,0,29.1007598101185,0,27.6749067894164,0,167.787542223315,0,11.5255678832976,0,8.04384889107988,0,52.6392186739337
-0.01374,9.4424696,GHA,"Luuq - Somalia",FALSE,52.008,3953.2102,30.0437969546538,205598556.0816,1562517.79201763,,,,0,14,192.068543775328,52.008,1793.20568750256,4012.98453682031,3.89936896323243,214.389606966846,52.008,2098.17061156997,4835.58542497356,3.7198979992906,52.008,1452.2428867617,1562.51779201763,6.78790596679983,0,133.056686224655,0,22.4252501266544,0,202.767857636886,0,18.165867260542,0,31.9834490832937,0,45.7396865331702
-0.22433,9.9239798,GHA,"Diallassagou - Mali",FALSE,10,3953.2102,25.3205514237845,39532102,253205.514237845,,,,0,14,219.06767214418,10,416.066627633346,663.776717276264,3.68564464205386,204.765427134278,10,377.811170766492,725.751245017784,3.79384779666221,10,198.940602024488,253.205514237845,7.24623418447313,0,17.6175931831378,0,24.3500189625749,0,43.102826928511,0,15.5675776562706,0,4.29539792631528,0,49.3142290667907
-0.23763,32.7311096,DZA,"",FALSE,0,13822.566,39.9593271920494,0,0,,,,0,10,162.944759206991,1e-06,2.72607196351642e-05,306.117551918438,4.51989364996885,205.840986049244,1e-06,3.80649366819648e-05,286.398841236381,4.14196861778197,1e-06,60.2466573931957,3.99593271920494e-05,9.03079262965204,0,39.6258703815414,0,11.1353305834208,0,0.901163497730676,0,73.8398478713265,0,3.67583133939379,0,36.5607093145093
0.062,34.1462479,DZA,"Magu - Tanzania",FALSE,18.568,13822.566,39.034247987274,256657405.488,724787.916627704,,,,0,10,327.892523218483,18.568,1374.50681191537,1720.25628303351,3.10061460657667,360.20621075361,18.568,1572.02963675205,1942.65649444324,2.97819848797599,18.568,724.787702975332,724.787916627704,4.87580396363054,0,115.066079776833,0,12.2370852392496,0,3.0467263664458,0,75.2029594229034,0,21.9147786348061,0,28.0403294966387
-0.633443,35.696881,DZA,"Oran - Algeria",TRUE,725.418,13680.5691624158,63.5150657543658,9924131120.66136,46074971.9694005,DZORN,Oran,AI,255.6159,10,430.874293496847,725.418,79327.8916233009,83251.1525772866,2.75810655407085,461.757716604762,725.418,87573.7364091284,97317.1197378183,2.67748261748715,0,1393.7676287188,0,22.3730961079526,0,1030.55068349352,0,26.0187600229408,0,169.696086000523,0,64.1187962767075,725.418,52667.8567967741,55532.7602694005,3.63955648356036
-0.34739,35.5365906,DZA,"Kouribga - Morocco",FALSE,90.859,13775.9879587745,55.3395627750259,1251672489.94629,5028097.33417608,,,,0,10,267.87787243073,90.859,5038.81902628863,11114.6687706857,3.38122501806783,318.206128467848,90.859,6443.85075081896,12017.7291549594,3.14071889676141,90.859,3519.02351158246,5028.09733417608,5.80402392715854,0,772.213549994001,0,12.3900071194127,0,19.9861669247121,0,77.0150337741307,0,325.612139343662,0,19.0805100244482
0.05872,6.15661,GHA,"Zagora - Morocco",FALSE,34.381,3953.2102,38.8969776080709,135915319.8862,1337316.98714309,,,,0,14,303.385647273919,34.381,2277.74602907624,2820.54072691042,3.20557748862068,289.429261971063,34.381,2129.54737895893,2895.83175757848,3.27084252310102,34.381,966.285603339205,1337.31698714309,5.66219056042497,0,26.9104827284683,0,33.931031024248,0,32.6434728424259,0,30.8078961712379,0,139.873673532162,0,14.8829957581489
0.36174,12.0579901,BFA,"Mazabuka - Zambia",FALSE,73.2,1564.24563399205,22.6391773750371,114502780.408218,1657187.78385272,,,,0,13,202.365671031688,73.2,2719.39246369778,3949.14017950538,3.81306382072937,210.419492983623,73.2,2875.3116909412,4297.59961323016,3.74983156011834,73.2,1249.8008456672,1657.18778385272,6.95352335429162,0,127.807820989194,0,21.7442136436369,0,216.806228416581,0,16.6951350648131,0,17.4223090349079,0,58.8937700940883
0.3068,35.7280197,DZA,"Kassala - Sudan",FALSE,468.678,13822.566,55.9459393267844,6478332587.748,26220630.9517987,,,,0,10,378.988940482079,468.678,42668.401184513,45093.8783651514,2.91402165636904,405.51266965338,468.678,46997.5031276795,48842.1979887172,2.83075477197347,0,1287.19710760637,0,17.437223464648,468.678,24869.0136870059,26220.6309517987,3.96707638725726,0,49.8034616477276,0,88.6482333499563,0,414.892102936706,0,30.7137095880455
0.17407,26.7181301,DZA,"Asamankese - Ghana",FALSE,20.402,13754.6295522982,35.5508752420232,280621952.125989,725308.956687758,,,,0,10,241.579786196276,20.402,976.168130416325,1260.87451721525,3.53432722117358,254.390370845755,20.402,1050.9495681883,1333.92079540844,3.45695858508831,20.402,693.889746800439,725.308956687757,4.79309697545165,0,30.0497908871289,0,23.0320047430914,0,5.05446069392396,0,56.1586913373502,0,6.0079481675929,0,51.5099774990766
1.0877,26.958849,DZA,"Kherrata - Algeria",FALSE,18.598,13747.3415581596,37.6662944731761,255673058.298652,700517.744612129,,,,0,10,284.905550781341,18.598,1126.31906791328,1264.0154104814,3.2930912300916,292.521385047559,18.598,1169.57524020198,1313.77781076445,3.25606870486274,18.598,700.517739612464,700.517744612129,4.45907775795894,0,29.6908354916208,0,21.6592189103452,0,4.25590307972438,0,57.2082552131327,0,5.1386705739414,0,52.0630081402937
2.101906,34.108919,DZA,"Aflou - Algeria",TRUE,114.592,13822.566,42.5694418617965,1583955483.072,4878117.48182698,,,,0,10,326.318222803079,114.592,8424.61547300036,9354.75176311751,3.10701664385124,348.564344152802,114.592,9256.92415116214,10178.2352012998,3.02042872019095,114.592,4069.00573057098,4878.11748182698,4.7770598220949,0,633.265836762176,0,12.109097836579,0,15.6335704696235,0,77.0682958889963,0,63.6768351620686,0,38.1868777966171
3.666624,32.483817,DZA,"Ghardaïa - Algeria",TRUE,210.733,13822.566,54.3332823474776,2912870800.878,11449815.588931,,,,0,10,369.223942119527,210.733,18482.8565073577,19581.0858735356,2.94680469531483,385.291104026434,210.733,19642.484357219,20806.3189656683,2.89350092426304,0,685.560496581086,0,15.9403479302134,210.733,10446.9466510769,11449.815588931,4.08344563571754,0,39.0521693767226,0,66.7879623472234,0,92.1843229162151,0,43.4702632877681
0.20933,10.8734493,TGO,"Al Manāqil - Sudan",FALSE,58.071,1468.95664149522,31.2532292472104,85303781.1282692,1814906.27561475,,,,0,16,279.908014481877,58.071,3429.06014152514,3923.64859340711,3.31816194158248,288.480966604494,58.071,3580.07399958667,4215.07271344741,3.27553296030719,58.071,1398.1743005558,1814.90627561476,5.68726732934532,0,188.083862698176,0,15.5063391447021,0,90.8453814178779,0,22.3117179231634,0,18.3678330899037,0,49.6198920575707
0.05048,5.7687697,GHA,"Ténès - Algeria",FALSE,37.402,3953.2102,53.4407004820401,147857967.9004,1998789.07942926,,,,0,14,147.679291562567,37.402,885.936169877031,5073.62185358894,4.36425416524603,164.192686265873,37.402,1030.779058946,5717.25751917003,4.1704182555487,37.402,721.412143634089,1998.78907942926,11.7403043640492,0,112.688738865999,0,29.705330927387,0,73.0859290055157,0,36.885698045806,0,875.50335824302,0,10.6572694616101
0.77777,18.9019699,MLI,"",FALSE,0,2285.3071,12.4608224567388,0,0,,,,0,9,70.1694195223058,1e-06,8.18151491217732e-06,364.668675241861,7.12012890084755,88.9127745849379,1e-06,1.14739809629523e-05,442.928795692301,6.49710444616249,1e-06,103.507121884063,1.24608224567388e-05,13.4400954042831,0,18.6305773569202,0,31.6790571046548,0,18.3415901348371,0,31.9277388590715,0,5.16655213471642,0,60.1570297790162
1.4786099,14.2064199,NER,"Namakgale - South Africa",FALSE,19.262,902.661251353596,18.3109624941318,17387061.023573,352705.759561966,,,,0,15,104.440660275684,19.262,278.150872243095,687.151070633049,5.06277478551508,120.909912484644,19.262,342.867693756364,721.563758015573,4.7548170502178,19.262,151.235897344811,352.705759561967,10.3858856900431,0,15.6737147886282,0,32.2617377491547,0,76.4250336798853,0,14.6100707284536,0,3.47074220059996,0,68.5583889830511
0.46922,10.3394394,TGO,"Hamma Bouziane - Algeria",FALSE,34.791,1791.52743346508,23.7423490738048,62329030.9376835,826020.066626741,,,,0,16,211.91469389089,34.791,1380.49158268967,1906.32125424096,3.7384559099765,233.024396916095,34.791,1581.0605699229,2228.19686071955,3.58936244341312,34.791,634.149759658445,826.020066626743,6.72817882353465,0,126.495561541689,0,15.0645895879386,0,52.6400373502495,0,23.3526501823035,0,12.3839229885845,0,48.146701811993
1.14132,9.47579,TGO,"Cacongo - Angola",FALSE,33.327,1373.44357100469,23.4389778775196,45772753.8908734,781150.815724097,,,,0,16,205.877788132886,33.327,1268.91417126672,2099.26580942857,3.78504903747604,235.568768251583,33.327,1538.20923812574,2493.14515243394,3.57270318361568,33.327,792.674033571344,781.150815724096,6.33612203541284,0,127.425435741059,0,15.8031112528146,0,35.1446243205415,0,30.0913031842436,0,20.7968776152999,0,39.1175225519653
0.59562,6.0068398,GHA,"",FALSE,0,3953.2102,37.1738924725988,0,0,,,,0,14,204.027271802651,1e-06,3.75867010594971e-05,1093.30740793863,4.04322114002405,281.341837630011,1e-06,5.94820294502809e-05,1276.95537616746,3.54354228818102,1e-06,92.4637224544172,3.71738924725988e-05,13.1687610793179,0,23.5808905108284,0,26.0761691860835,0,10.5335531234856,0,39.0153078810082,0,324.617587512952,0,7.0280960901245
0.50771,7.5739598,GHA,"Kayanza - Burundi",FALSE,11.503,3218.33666164992,33.5632575458883,37020526.618959,386078.151550353,,,,0,14,136.161613069209,11.503,242.627643526359,1283.35195301284,4.51880471909685,157.661331819442,11.503,299.156292204636,1543.36306075671,4.24362285744605,11.503,386.078154704421,386.078151550353,8.48464826657983,0,42.4881634094905,0,25.5761172066587,0,35.7720842042146,0,27.873924163331,0,50.9441456190799,0,23.3574003831091
0.470198,6.611847,GHA,"Ho - Ghana",TRUE,183.715,3893.07070546691,38.4335396256206,715215484.654853,7060817.73232089,,,,0,14,291.328140801916,183.715,11486.0463007509,15898.2354288588,3.26177899906702,309.190371320528,183.715,12505.1781176608,17969.2484419789,3.17967130766319,183.715,5341.32949663097,7060.81773232089,5.83210779026776,0,210.449561138229,0,29.3811681513252,0,181.028399678929,0,31.6789012549948,0,1089.22878747288,0,12.9146968458292
0.14396,34.7495003,DZA,"Meknès - Morocco",FALSE,128.413,13832.7356266939,48.9472390691589,1776303080.03064,6285461.8105879,,,,0,10,355.093785856279,128.413,10652.114957223,12635.5302823038,2.99649984943508,363.727383956262,128.413,11024.0208473094,13614.5892939698,2.96580798330743,128.413,4737.58815296593,6285.4618105879,5.02766888103822,0,1017.63246161493,0,10.8480030557185,0,20.0317635271196,0,77.3189034211614,0,131.684678388594,0,30.1562725106185
1.316772,35.366641,DZA,"Tiaret - Algeria",TRUE,273.948,13822.566,52.0993930151733,3786664310.568,14272524.5177207,,,,0,10,370.813902525914,273.948,24175.2297273946,26124.8134076659,2.94138296602742,393.981868801641,273.948,26361.549550117,28710.1824350575,2.86596887743542,0,1404.61720183141,0,12.9571800849697,273.948,12487.7636323976,14272.5245177207,4.34557345602396,0,32.4493717500485,0,85.2484138970508,0,210.757007433021,0,33.4501791231632
0.83412,11.1550198,BFA,"Missour - Morocco",FALSE,13.579,1539.16365357952,21.9358482617815,20900303.2519562,297866.88354673,,,,0,13,184.721039764921,13.579,442.820701463177,999.307815633877,3.96510126708682,205.97263710597,13.579,517.35610665613,1169.28580516373,3.7843064698375,13.579,297.866885746159,297.866883546731,7.49783789634967,0,73.3653341708072,0,15.107765784581,0,34.7436396811146,0,21.9537973669126,0,6.13191613875258,0,52.2572546024165
1.064238,10.697912,BEN,"Matéri - Benin",TRUE,260.509,1341.27023884108,22.6149908758556,349412968.65025,5891408.65807827,,,,0,17,229.988481132958,260.509,11618.9845499971,13568.4967253713,3.60959671831417,244.833476276563,260.509,12705.006988521,14790.1632029226,3.51411924951821,0,1273.51163905053,0,11.9757037160956,260.509,3899.41404503917,5891.40865807827,6.84389710349153,0,223.289528188733,0,28.6001953199507,0,72.9376831898325,0,50.0411636315652
1.331625,36.164677,DZA,"Chlef - Algeria",TRUE,575.939,13822.566,54.0496792570843,7960954839.474,31129318.2216458,,,,0,10,380.809272557948,575.939,52793.5803073213,53306.6492501926,2.90804369182642,399.935130029952,575.939,56621.8465853775,57178.131339112,2.84760702551588,0,1299.37574203675,0,18.889816058138,575.939,30516.8090041436,31129.3182216459,3.89785301857207,0,56.5216702594058,0,90.570661347517,0,435.303910250309,0,32.6361382594212
