lon,lat,iso3c,city_country,city_port,population,gdp_cap,IWI,gdp,wealth,port_locode,port_name,port_status,outflows,ctry,uj_orig,Lj_orig,Cj_orig,Dj_orig,PCj_orig,uj,Lj,Cj,Dj,PCj,Lj_1,Dj_1,Yj_1,Pj_1,Lj_2,Dj_2,Yj_2,Pj_2,Lj_3,Dj_3,Yj_3,Pj_3,Lj_4,Dj_4,Yj_4,Pj_4
-17.446713,14.692814,SEN,"Dakar - Senegal",TRUE,3223.755,2287.6685,70.2606002240275,7374882765.2175,226502961.27521,SNDKR,Dakar,AI,2417.263262,1,948.318394559869,3223.755,1088011.06806887,1121772.34640751,1.96689366221536,987.898736806901,3223.755,1153459.23290409,1184583.22970176,1.9327256649842,0,2324.42062877109,0,123.311662582354,0,3728.52967200004,0,89.9888924316972,0,783.757814762328,0,254.541953634673,3223.755,312160.046006132,315941.70196921,4.70214159669591
-17.044529,14.7029696,SEN,"Yaoundé - Cameroon",FALSE,505.227,2302.16270413245,52.2935947198641,1163114756.52073,26420135.9795328,,,,0,1,697.092870154417,505.227,109852.496443702,222523.679598582,2.24421928937323,747.354785807707,505.227,121340.134641458,242745.84650326,2.17824626122262,0,2591.65026225486,0,44.9252537883782,505.227,19746.3041595376,26420.1359795328,11.6024855092397,0,333.785699538288,0,176.155541456811,0,3163.01663216803,0,39.3375352631229
-16.6384888,15.1122198,SEN,"Dzolokpuita - Ghana",FALSE,74.508,2361.8791047779,42.0766985704881,175978888.338792,3135050.65708993,,,,0,1,606.771483036408,74.508,13287.1777058455,25287.7363164388,2.38173454141702,619.767067862686,74.508,13695.5779292655,26474.1295179967,2.36020165711761,74.508,1148.67925594838,3135.05065708993,19.1145620104564,0,793.723627363695,0,24.4559262893896,0,52.0729827140686,0,150.344850232778,0,254.596371688822,0,52.1909722858861
-16.4633198,14.7565098,SEN,"Gusau - Nigeria",FALSE,113.325,2297.65604456748,38.0772661124075,260381871.25061,4315106.18218858,,,,0,1,590.309721516899,113.325,19430.81229119,32978.1616538849,2.40997602549562,658.207354006199,113.325,22700.62456048,34308.1573076687,2.30011064944695,113.325,1103.69710280534,4315.10618218858,22.7394691018011,0,1348.32276317521,0,19.8983866927354,0,62.6422394043613,0,153.969756530686,0,364.042929461636,0,47.6334309445946
-16.4205399,14.3423595,SEN,"Chipinge - Zimbabwe",FALSE,18.416,2269.64499576379,37.4244716433748,41797782.2419859,689209.069784391,,,,0,1,421.575944184208,18.416,1952.07956325725,13442.976483262,2.78401551238479,507.460415700184,18.416,2544.10573492341,16158.9781141672,2.57134494657531,18.416,496.058695371926,689.20906978439,26.2269366253245,0,597.108207230971,0,23.1775523609101,0,33.7217835893872,0,157.457214760727,0,186.561237459695,0,50.3371548056937
-17.033333,20.933297,MRT,"Nouadhibou - Mauritania",TRUE,118,5196.45446473013,38.9206658183864,613181626.838156,4592638.5665696,MRNDB,Nouadhibou,AI,197.0295,2,1096.42666164023,118,48999.268459276,52415.8246265544,1.84828977939458,1221.88985481749,118,57201.4993191476,60990.4361757034,1.76443188954452,0,397.491911192311,0,50.5700865090081,0,221.698187090844,0,74.6341874634402,0,71.3291204103791,0,158.952728034753,118,10375.5998663247,11882.7300665696,5.74694944341114
-16.8981705,21.2914486,MRT,"",FALSE,0,5538.53368337853,18.6296720206833,0,0,,,,0,2,475.888039603388,1e-06,0.000126033631257529,8145.90849357281,3.22912093216451,855.813847564518,1e-06,0.000291469358817168,8818.41355082385,2.72321632332945,1e-06,132.944474101295,1.86296720206833e-05,44.6233496849259,0,69.6141379204664,0,68.6874534830554,0,20.9387565820867,0,153.005997979573,0,655.396055036768,0,15.4054127819525
-15.978542,18.085588,MRT,"Nouakchott - Mauritania",TRUE,1440.712,3726.39485774327,41.8651880562521,5368661788.28902,60315678.8148991,MRNKC,Nouakchott,AI,334.524,2,752.666812918763,1440.712,349533.901582999,374616.74094275,2.17164451146098,841.044107417526,1440.712,409608.831700697,438147.863941363,2.07073977927454,0,3021.38002644095,0,57.1568341504596,0,1584.47197596529,0,87.8919070178324,0,749.355340211417,0,144.792720752229,1440.712,67689.8034235544,72693.0668148991,7.19213540691228
-15.67383,23.8871498,ESH,"",FALSE,0,7041.16211331411,31.3978211479454,0,0,,,,0,3,584.178819878057,1e-06,0.000168922656394423,11425.1936558164,2.88450498795535,1001.27961911823,1e-06,0.000364743269648547,11577.5105770587,2.48382166125726,1e-06,616.215157749221,3.13978211479454e-05,17.5539802007084,0,168.80011081019,0,41.6180811380005,0,19.6953279310359,0,174.296389619251,0,203.878388447305,0,36.6958051545132
-16.2439098,15.6356897,SEN,"Banikoara - Benin",FALSE,93.802,2287.6183979327,43.5760615586268,214583180.962884,4087521.72632231,,,,0,1,724.725002835519,93.802,21560.2346350494,32638.7542256073,2.20713965120089,786.605594159425,93.802,24237.4799569374,38991.659356183,2.13098170060317,93.802,2594.90526719765,4087.52172632231,12.9761658870563,0,675.652282336287,0,31.8233270021287,0,70.5408802361439,0,143.526994102817,0,382.854016137104,0,46.4735031727544
-16.577537,13.453171,GMB,"Banjul - Gambia, The",TRUE,976.753,1827.81084253539,39.6195599018914,1785319723.87897,38698523.9928521,GMBJL,Banjul,AI,184.275,4,799.278598149573,976.753,258211.780349034,276025.895101637,2.11643523155456,904.745433824922,976.753,308229.004119539,334455.741781447,2.00694581430747,0,3845.03350829076,0,39.3998648901654,0,1566.38086062507,0,71.6962587755494,0,501.931148095518,0,153.108290046063,976.753,39955.2905832578,45516.6989928521,8.27393013937644
-16.2409897,12.7924099,SEN,"Quelimane - Mozambique",FALSE,91.883,2295.74090262069,36.7829540931087,210939561.355497,3379728.1709371,,,,0,1,530.005047155577,91.883,13506.5164590386,27227.5509331897,2.52388684421297,636.627027764191,91.883,17549.505216312,28645.2335662447,2.33320766362781,91.883,994.992990706889,3379.72817093711,21.9166906375011,0,185.647989006771,0,67.1214707441233,0,56.3956862441515,0,148.533494196778,0,1358.25404913833,0,17.8101515960288
-16.076402,14.138908,SEN,"Kaolack - Senegal",TRUE,187.932,2278.7640345833,45.3761239685572,428252682.54731,8527625.72965889,,,,0,1,842.666306770608,187.932,53578.2327032118,71601.1038394562,2.06902801824456,881.857702213533,187.932,57173.2002986748,86051.8420597007,2.02910639805096,187.932,6611.07107931427,8527.62572965889,11.2278664744104,0,866.203964823896,0,43.5242470389557,0,146.280494224073,0,142.458120455373,0,1184.00333649785,0,35.3380763792861
-15.6096001,13.5730095,GMB,"Bria - Central African Republic",FALSE,70.315,1877.21348753621,26.69126049904,131996266.376109,1876795.98199,,,,0,4,508.076939785735,70.315,9730.6339647341,19214.7579365567,2.57000746843368,569.888587226358,70.315,11464.9030678553,22525.9254964623,2.44661477415588,70.315,919.312452230378,1876.79598199,20.6401090572326,0,223.819571708964,0,52.9365035795468,0,55.358161306946,0,134.348536441617,0,644.014169081539,0,26.1671872264472
-16.50258,16.034409,SEN,"Saint-Louis - Senegal",TRUE,154.555,2616.38725725041,41.8228350121846,404375732.544337,6463928.26530819,,,,0,1,918.634179511625,154.555,49845.2207057675,50391.430866121,1.99388531163914,992.897584269438,154.555,55699.9420345652,56710.7221245674,1.92854947963597,154.555,5762.50740249173,6463.92826530819,8.85658776087848,0,609.686139239701,0,39.5916496508304,0,85.8123537772944,0,146.321352729243,0,439.203582982875,0,49.2678617418487
-15.804984,16.512799,MRT,"Rosso - Mauritania",TRUE,159.231,3119.63824766881,37.3432812371366,496743117.814552,5946208.0146705,,,,0,2,617.795200716805,159.231,29135.8697203465,48918.11865288,2.36342222767028,627.256926062895,159.231,29775.4198490219,59896.0872803904,2.34808211483563,159.231,3325.30767924943,5946.2080146705,16.1345732096547,0,671.631690858807,0,46.8696604209966,0,142.906273408197,0,131.505720398747,0,1065.71797803459,0,34.45223796581
-15.883334,14.866839,SEN,"Touba - Senegal",TRUE,597.23,2294.61226912889,41.7294708957356,1370411285.49184,24922091.9030602,,,,0,1,810.543631483203,597.23,161070.525515798,184542.183302517,2.10377810851721,866.260961105902,597.23,177117.830082321,204939.230353882,2.04468474160592,0,3235.41675121224,0,32.490466190501,597.23,17965.764364706,24922.0919030602,10.3612707526202,0,310.419683099392,0,155.02788662005,0,1407.12170737645,0,56.6006920223364
-15.575626,11.856113,GNB,"Bissau - Guinea-Bissau",TRUE,503.968,1367.43735056953,29.1359647460553,689144666.691825,14683593.88114,GWOXB,Bissau,AI,114.309,5,724.349710173332,503.968,115750.528632388,123349.021755974,2.20763014689715,799.413564365774,503.968,133259.756407927,140219.304763402,2.11628171342401,0,1710.78807559511,0,39.9314019710698,0,549.536791576765,0,85.1361849187034,0,261.794911537184,0,139.574014753625,503.968,16394.7012941086,18913.02688114,8.85067369330076
-15.65446,14.4204092,SEN,"",FALSE,0,2255.07749469541,31.0289501068166,0,0,,,,0,1,688.833016897159,1e-06,0.000213760823669867,5876.910820088,2.63841292748166,1074.04619549638,1e-06,0.000403192465752715,7896.0747208135,2.3847018437439,1e-06,364.411094446019,3.10289501068166e-05,18.5344860301376,0,163.879310696827,0,31.5761254441882,0,17.3540709610717,0,141.071923782783,0,104.415447208836,0,42.6447032181891
-15.5441999,14.1010094,SEN,"Debre Zeyit - Ethiopia",FALSE,69.357,2287.6685,33.2273419593215,158665824.1545,2304548.75627266,,,,0,1,757.748414909569,69.357,16989.363219394,20401.6040017122,2.16539067951229,810.272777873883,69.357,18696.3747328945,24007.4208710637,2.10407934905944,69.357,1719.00018935674,2304.54875627266,12.2023043191795,0,312.671222474408,0,38.0102325780157,0,46.848427695552,0,134.739757759057,0,271.67066715209,0,41.7443056212641
-13.9632597,17.0292988,MRT,"Fritissa - Morocco",FALSE,15.521,3680.26830758623,24.3321127914395,57121444.4020459,377658.722635932,,,,0,2,256.019272245657,15.521,806.842595755822,13544.6571023058,3.44747769143271,336.473385569912,15.521,1192.14450858001,13811.1791592348,3.06647744477959,15.521,437.916969514689,377.658722635932,30.6101157075277,0,154.354486996986,0,61.3452164412057,0,57.6780353168484,0,118.24607358797,0,368.721511936919,0,34.3290782847449
-15.945537,23.708077,ESH,"Ad Dakhla - Morocco",TRUE,106.277,6999.25678566019,41.685948396546,743860013.409608,4430257.53773972,,,,0,3,766.790629615125,106.277,26478.0346430106,28878.9092513889,2.15441005675412,856.77118922238,106.277,31026.0028026412,33069.8821488533,2.05435926537325,106.277,3283.60603856952,4430.25753773972,9.58070494906173,0,302.170261515508,0,47.0035157159305,0,40.4288157911109,0,179.6818194109,0,356.709320841155,0,42.0812394904721
-14.2343597,16.6268101,MRT,"Had Zraqtane - Morocco",FALSE,10.415,3292.61139046978,26.1754116436426,34292547.6317428,272616.912268538,,,,0,2,333.885623309992,10.415,791.185792254745,2857.63339393901,3.07663603433817,388.689811805493,10.415,983.041749419426,2768.48398698744,2.88262797984047,10.415,119.50069705397,272.616912268538,23.4262515845526,0,33.9931299229148,0,54.1613073108164,0,9.74871936888901,0,124.542678504197,0,52.3267681870005,0,40.6257084886252
-13.9593992,16.1129189,SEN,"",FALSE,0,2493.74395561908,28.4022929330901,0,0,,,,0,1,560.15377087124,1e-06,0.000159086321793686,1403.27371304132,2.95153136611193,613.839458495172,1e-06,0.000181307194614708,2873.43112893081,3.32228221408269,1e-06,107.60800238713,2.84022929330901e-05,29.6806660883276,0,37.0535502127359,0,60.4158968915202,0,13.5868013040568,0,117.93031994419,0,52.3258285349743,0,47.9983350891216
-13.203346,27.153675,ESH,"Laâyoune - Morocco",TRUE,217.732,7166.58209753815,43.2531834575172,1560394253.26118,9417602.14057214,,,,0,3,791.973082888988,217.732,56808.9491711598,75710.8988868402,2.12477983332916,855.076684663307,217.732,63384.1297954113,82133.324201437,2.05610335497405,0,1625.6791433785,0,28.0996727989298,217.732,5725.38623040492,9417.60214057213,12.1391453845789,0,123.662446971472,0,156.518569963167,0,690.40746627326,0,49.7340888189472
-14.2115793,13.3027792,GMB,"Tarkwa - Ghana",FALSE,61.291,1770.86443929862,23.1067512092836,108538052.349052,1416235.8883682,,,,0,4,544.263832395996,61.291,9357.83889923244,12060.4796421572,2.4953337406703,566.425474126275,61.291,9906.89188503877,13792.1107968283,2.45301420654172,61.291,903.839218546569,1416.2358883682,15.0912917881418,0,110.277644591033,0,61.3473188881932,0,37.2948772363909,0,126.382750077049,0,235.620231527076,0,36.9810152201542
-15.3329,12.0479898,GNB,"",FALSE,0,1367.45133840083,18.1778592380354,0,0,,,,0,5,535.25726363543,1e-06,0.000149082317211972,4616.45290207683,3.02597623225191,835.541965035736,1e-06,0.000281656636192443,5166.44753289411,2.76204691780696,1e-06,162.045806283041,1.81778592380354e-05,27.7715765584909,0,37.2347191786221,0,74.0276022316353,0,16.4896684281544,0,127.414188018491,0,210.753281220088,0,23.3082410228798
-13.6763992,13.7135201,SEN,"Khénifra - Morocco",FALSE,78.8,2287.6685,28.5775553827832,180268277.8,2251911.36416331,,,,0,1,648.371259081682,78.8,15448.8765555925,20001.5291115805,2.31501595594622,680.431293614962,78.8,16551.6200471811,23493.8200889711,2.26763056567607,78.8,2101.69356106752,2251.91136416332,11.3370628360187,0,218.219710350644,0,51.3185531121016,0,63.9195568619509,0,116.353969143425,0,196.398631566387,0,55.0526169691616
-14.8474998,12.0527,GNB,"Misséni - Mali",FALSE,54.756,1394.43121299449,18.6469722659379,76353475.4987265,1021033.6133937,,,,0,5,487.874613651911,54.756,7150.75068153628,9149.12384615686,2.61508824371965,465.652433334753,54.756,6690.033433474,9720.62708568505,2.66786173599857,54.756,479.040359137569,1021.0336133937,19.8477560274213,0,77.2656399484997,0,66.9836144692746,0,32.4294764098798,0,119.490365884812,0,223.555166756281,0,32.9890431237418
-14.299376,10.940929,GIN,"Boké - Guinea",TRUE,116.27,1146.57562365401,27.5929884020649,133312347.762251,3208236.76150809,,,,0,6,596.371488196772,116.27,20228.8587598319,23719.7020573544,2.39945167551203,623.355365516057,116.27,21548.9867094121,25529.1891382133,2.35436899747318,116.27,2065.76139303875,3208.23676150809,12.5847823344226,0,199.830670462403,0,59.7206392189156,0,77.5712032194249,0,112.227391759811,0,287.239848527288,0,46.8888450954889
-13.3009596,12.4839897,GIN,"Kalfou - Cameroon",FALSE,13.99,1189.02775135884,23.7319650851646,16634498.2415102,332010.191541452,,,,0,6,553.255371565489,13.99,2186.56564308544,3650.82932029616,2.47787085943599,558.415136298336,13.99,2215.75565453975,4274.60535405345,2.46803317379775,13.99,325.284340403552,332.010191541453,13.7437800994281,0,34.8910868624388,0,60.8796404496504,0,13.7271751955901,0,113.386386190054,0,50.2375349996144,0,47.7451722763352
-13.6282301,10.0732899,GIN,"",FALSE,0,1176.62521698137,26.8793431772143,0,0,,,,0,6,453.53553874965,1e-06,0.000117662654099385,3858.41351601132,3.31682477713798,680.184192214243,1e-06,0.000209936978108293,4198.15247211823,3.12258141001861,1e-06,156.821405375655,2.68793431772143e-05,27.9436147161652,0,50.5291889543039,0,59.4551915311511,0,16.5113000590292,0,125.323254145066,0,90.875567299876,0,40.2027033516331
-13.1784992,11.1257696,GIN,"",FALSE,0,1125.84335585272,17.2149499541175,0,0,,,,0,6,681.101947793274,1e-06,0.000210341756124497,525.601465587863,2.65443383033336,839.331211782168,1e-06,0.00028348317139696,1228.14365848943,2.75464481073803,1e-06,68.3043503120102,1.72149499541175e-05,18.9059949717459,0,14.7227564706454,0,52.5902893807145,0,5.21148722897663,0,105.097049148585,0,14.4662859645726,0,53.2100569090518
-13.0830994,11.79953,GIN,"Bethlehem - South Africa",FALSE,7.461,1135.4866,20.8461390559678,8471865.5226,155533.043496575,,,,0,6,497.35574613724,7.461,1001.51688330816,1598.90605842416,2.59360488679528,466.253970565837,7.461,913.260271455619,2142.25574682398,2.66638691523068,7.461,130.484938119731,155.533043496576,17.2238604654051,0,23.1877076261941,0,54.4919234397623,0,8.42730046817534,0,106.998670855127,0,25.2169211341578,0,51.527923682014
-13.8246593,13.3325996,SEN,"",FALSE,0,2141.07888826552,23.0399064754911,0,0,,,,0,1,680.184890545523,1e-06,0.000209937286019827,1121.38638596071,2.65640052224581,918.902848340121,1e-06,0.000322642733897769,1574.58482357851,2.61161617346062,1e-06,100.786410676089,2.30399064754911e-05,16.3212611863467,0,15.7301290938951,0,56.3029048302585,0,4.9720032272615,0,121.338332984924,0,21.2013626233445,0,46.143416908678
-13.7090893,13.0267,SEN,"",FALSE,0,2287.6685,21.3110377398114,0,0,,,,0,1,679.062618871835,1e-06,0.000209442623580834,438.258966735315,2.65873774983573,903.590864433838,1e-06,0.000314989812967346,822.259267256393,2.63748562056459,1e-06,49.4312233949701,2.13110377398114e-05,17.1868324742454,0,8.14812457041158,0,57.168528428029,0,2.70533123906821,0,119.228978902529,0,12.0534106045593,0,44.0340649903049
-11.400062,16.629969,MRT,"Kiffa - Mauritania",TRUE,110.714,3692.66927840016,24.5103198098448,408830186.488796,2713635.54742716,,,,0,2,479.299743134965,110.714,14096.814991593,21755.2568410145,2.63503577488099,545.702110328619,110.714,16967.5355284679,25448.56984977,2.49249953924954,110.714,2568.9371335315,2713.63554742716,11.4966541672448,0,131.749900590499,0,83.2872835569478,0,101.45989628688,0,99.1328625379786,0,212.329995910721,0,60.5908999831924
-12.2216101,14.4544096,SEN,"Sidi Redouane - Morocco",FALSE,20.065,2223.952360451,30.4239054818422,44623604.1124494,610455.663493164,,,,0,1,386.493018920672,20.065,1878.60476220716,7440.50202908585,2.88963779933856,413.231808576904,20.065,2066.99013979197,8396.11799555896,2.80797011520912,20.065,610.45566078774,610.455663493164,16.1191540664584,0,79.3978003509221,0,62.7922148336155,0,38.2067489168251,0,102.255012862631,0,72.8076819485645,0,66.5262799173116
-13.712215,9.509116,GIN,"Conakry - Guinea",TRUE,1667.864,2150.37966857964,47.7173443768735,3586540835.55592,79586040.8617897,GNCKY,Conakry,AI,676.60790476,6,750.945305874766,1667.864,403322.182165308,418239.244675405,2.17377803263176,803.675290695386,1667.864,444380.923312764,461353.185749329,2.11146452256209,0,1660.78558592911,0,89.893953555769,0,1183.757807162,0,112.658601617492,0,552.324502615742,0,187.273633835998,1667.864,101485.105510391,104620.53333791,5.79434768211123
-13.5013895,9.7055101,GIN,"",FALSE,0,1177.39094451741,47.8186094627483,0,0,,,,0,6,346.06533997721,1e-06,7.99554971175164e-05,22387.9924703547,3.86497045121777,567.261223933402,1e-06,0.000161977786690202,26773.4654438907,3.485738618792,1e-06,582.099770622358,4.78186094627483e-05,44.7472341567207,0,314.106255887327,0,67.5118977246808,0,102.832944794353,0,142.126898985429,0,1025.28914802557,0,30.680818966359
-12.1095896,12.6156893,SEN,"Ādēt - Ethiopia",FALSE,11.216,2258.58745277728,29.7127985122773,25332316.87035,333258.748113702,,,,0,1,408.278778834057,11.216,1135.67980485884,4779.16293999993,2.82252450030943,444.549318650519,11.216,1282.50891115954,5286.07566066863,2.72140977536415,11.216,333.258787996401,333.258748113702,17.1801208337749,0,62.7243380296054,0,52.3110867985847,0,22.8404081839902,0,102.584499102617,0,49.6833020931876,0,61.1050690663327
-12.9784594,10.6564093,GIN,"Bawku - Ghana",FALSE,30.311,1134.95099453162,19.5251633744116,34401499.5952479,591827.22704179,,,,0,6,470.108521465556,30.311,3754.09935064274,4890.61999862139,2.656995978526,574.086341216207,30.311,4994.31454857879,6709.56169193982,2.43892699040312,30.311,423.884345954627,591.82722704179,15.3754980815804,0,79.5993421659253,0,46.8872735877255,0,21.3446223875216,0,112.75512515527,0,78.0468191906773,0,47.5072077564771
-12.854191,10.049703,GIN,"Kindia - Guinea",TRUE,181.126,1272.4382327917,31.7736110513414,230471647.35263,5755027.07528526,,,,0,6,618.762152848374,181.126,33216.3159268757,50252.0094654775,2.36184141425608,642.587139119762,181.126,35058.3823443246,54383.4523397225,2.32391070515943,181.126,3327.1982888194,5755.02707528526,14.9673617973519,0,831.2489844054,0,37.7320309691307,0,161.790465525976,0,112.34700438898,0,532.72597715451,0,50.7606557820042
-12.7595196,8.4948397,SLE,"",FALSE,0,1525.79033972791,18.3068914371631,0,0,,,,0,7,364.167728485167,1e-06,8.59966806208009e-05,20148.8409648911,3.75397088715736,599.204143141175,1e-06,0.000175163501205024,22900.844931058,3.37133570626299,1e-06,296.733915634499,1.83068914371631e-05,61.1117190793785,0,486.053998928178,0,43.9791220663839,0,92.9150291601146,0,132.529420828268,0,813.735827305434,0,31.1923262118328
-13.234314,8.484392,SLE,"Freetown - Sierra Leone",TRUE,1035.246,1636.18751938735,51.9455928614036,1693856584.69567,53776467.2273966,SLFNA,Freetown,AI,292.305,7,782.292758409759,1035.246,265404.264207259,279332.127289995,2.13601093563212,834.341949207813,1035.246,290985.838081058,305718.384322768,2.0778523101116,0,916.112263238381,0,99.9683086251392,0,1214.55190494745,0,82.835692850382,0,408.112071229814,0,171.385978039542,1035.246,61943.4860138401,64591.7522273966,6.0232729319322
-11.6982899,26.7553997,ESH,"Malakal - South Sudan",FALSE,57.035,6390.125709182,25.1492270818786,364460819.823195,1434386.16661495,,,,0,3,594.059657583884,57.035,9868.14278184351,14222.650576075,2.40344465249265,654.311531666832,57.035,11328.4487553651,15976.5783094031,2.3059706048607,57.035,934.494395949595,1434.38616661495,15.3035393658349,0,415.723892728749,0,26.2607023525822,0,31.5507989498886,0,146.499405688393,0,109.63907276089,0,63.8556428188924
-11.1610899,28.4597492,MAR,"Kukawa - Nigeria",FALSE,73.209,6295.70213058728,39.2491173607986,460902057.278165,2873388.6328667,,,,0,8,744.714234671073,73.209,17493.8921861536,23667.8782586201,2.18155281430233,807.140785961939,73.209,19625.8640441038,26344.7117839305,2.10757513657122,73.209,1957.40358057209,2873.3886328667,11.9250019316189,0,495.483690298599,0,29.8006556376225,0,48.481680926487,0,140.343895648142,0,183.909024039116,0,57.700111860576
-12.283231,11.316916,GIN,"Labé - Guinea",TRUE,127.747,1146.98337636056,35.8287216279254,146523685.379933,4577011.70180259,,,,0,6,679.420634741521,127.747,26775.8207415916,38281.2151183451,2.26905091080691,681.153681493127,127.747,26873.4440452417,41742.9525225416,2.26657671205642,127.747,3081.56450406749,4577.01170180259,12.8798709833483,0,532.195981129043,0,41.5315773590869,0,156.200232672332,0,94.0383528760562,0,293.79100569202,0,61.7163198659037
-12.08277,10.383497,GIN,"Mamou - Guinea",TRUE,376.269,1135.61305456118,26.8662514052221,427295988.426679,10108937.5499915,,,,0,6,629.819315867779,376.269,70771.436553353,95620.0182907373,2.34398877908381,671.764167333273,376.269,77599.5562330874,102998.006017542,2.28010495422247,0,2336.28618656958,0,28.4548563761668,376.269,5236.21537227944,10108.9375499915,16.6148669604961,0,406.962554118436,0,91.229856332092,0,688.602456923569,0,64.2481279691503
-11.74007,7.956451,SLE,"Bo - Sierra Leone",TRUE,249.807,1496.9442,25.5146367561591,373947139.7694,6373734.86414584,,,,0,7,549.842769746109,249.807,38699.9733116297,57285.8162606535,2.48445250894343,605.800272290511,249.807,44446.8091007948,59726.5371018769,2.38337158831046,0,1014.0252412287,0,36.0803260589341,249.807,2664.52528233893,6373.73486414584,18.9477088583094,0,165.788532975461,0,120.67008806405,0,908.595535419602,0,38.8201380228059
-10.971644,8.643743,SLE,"Koidu - Sierra Leone",TRUE,300.387,1517.04766003136,22.0121301485176,455701395.453841,6612157.73892276,,,,0,7,585.982821056933,300.387,50966.1705597178,63247.262675346,2.41758683045316,625.876121008188,300.387,55994.3417165839,70571.9846390115,2.35030014589233,0,1214.37866579933,0,35.2621459386053,300.387,4091.86643694065,6612.15773892276,15.6890757838443,0,238.929577865153,0,104.239407585798,0,604.661472075528,0,56.1310242910779
-10.8695793,12.6057196,MLI,"Kawambwa - Zambia",FALSE,10.832,2285.3071,24.4574447781555,24754446.5072,264923.041836981,,,,0,9,157.671094012129,10.832,281.730643927487,9373.41323488758,4.24350042682275,222.35395314648,10.832,460.372612189263,15352.2064317796,3.66219829621728,10.832,529.543868435655,264.92304183698,34.5610849640603,0,214.080035069163,0,63.2128670785826,0,173.085585425596,0,72.8363760172873,0,141.271144555731,0,83.3975973032615
-11.432892,14.449705,MLI,"Kayes - Mali",TRUE,174.373,2363.01954108217,36.6490483544719,412046806.437122,6390604.50871433,,,,0,9,629.817889041377,174.373,32797.2481586208,41601.0173707576,2.3439757870255,716.632752243861,174.373,39441.5582190893,47003.2917074393,2.21778749820261,174.373,5933.26500119456,6390.60450871433,8.813391757555,0,251.369657483205,0,72.5210778348485,0,186.596971766042,0,88.4576080435266,0,211.715324121477,0,81.3148677427319
-11.8790693,12.8341799,SEN,"",FALSE,0,2287.6685,30.2988245952444,0,0,,,,0,1,415.264136696387,1e-06,0.000103739242418458,3807.37049730015,3.48486965534167,680.514909831289,1e-06,0.000210082814845539,3906.58880109093,3.12167464393155,1e-06,214.418769416143,3.02988245952444e-05,21.6144440520433,0,44.5047831910703,0,61.6569497604131,0,24.5178177246334,0,91.7483395582132,0,36.4375583977816,0,70.4508911991742
-11.5879192,10.1457901,GIN,"",FALSE,0,1178.37874359219,21.1600028678453,0,0,,,,0,6,750.353241337121,1e-06,0.000241547265326628,1438.9595899894,2.52038137667358,1092.03423494092,1e-06,0.000412873597702744,1240.99400902357,2.3619027850226,1e-06,34.4004747187199,2.11600028678453e-05,25.7868798649398,0,53.5295216151051,0,19.2034842363531,0,4.95712794930747,0,93.8184527385101,0,8.24400534363885,0,66.8367954081514
-9.299825,10.383689,GIN,"Kankan - Guinea",TRUE,198.013,1153.17201735961,31.112356240142,228343050.673428,6160650.99617924,,,,0,6,733.976621929878,198.013,46345.2323107939,61221.0952719422,2.19517249155862,816.357693977089,198.013,53951.3829935193,68192.0812700724,2.09734389999616,198.013,5812.02958928476,6160.65099617924,10.8294626086373,0,881.477728405431,0,38.078926974925,0,328.006048169233,0,73.6045837910735,0,261.019830573753,0,85.71231468047
-11.3188601,7.3100801,SLE,"",FALSE,0,1344.94827331861,15.4784810906556,0,0,,,,0,7,487.801304777302,1e-06,0.000130564974683409,14103.2645723145,3.18510761983293,836.765714165147,1e-06,0.000282246134169812,15760.9233726431,2.75966247103012,1e-06,353.146305892821,1.54784810906556e-05,34.722184651881,0,316.184356377631,0,37.3780432301393,0,55.4419461634844,0,119.312070212924,0,401.654886137964,0,31.8670879526798
-11.1890097,7.8601699,SLE,"Khartoum North - Sudan",FALSE,188.463,1485.97140072144,26.5325861186727,280050628.094164,5000410.77768342,,,,0,7,585.37457652418,188.463,31928.8035365431,46715.199966862,2.41866322436189,633.687437933946,188.463,35758.9219891014,48508.1705581958,2.33784076382816,188.463,1606.28462273688,5000.41077768341,22.671297906946,0,1360.37125778343,0,25.3271632999261,0,156.089325277115,0,107.261158396188,0,570.606460319757,0,45.1995486572703
-2.216954,31.616774,DZA,"Béchar - Algeria",TRUE,179.119,13194.7313701357,47.9612505819522,2363427088.28733,8590771.24298869,,,,0,10,789.018622072339,179.119,46485.4820299593,51639.3230297606,2.12818663202112,842.565916028168,179.119,51057.0109930185,56221.5607629255,2.06913477917437,179.119,8168.42258467152,8590.7712429887,7.48685005490334,0,451.564919113664,0,51.5913299784872,0,101.364014988529,0,139.679927289556,0,198.672708097272,0,89.1862743267276
-10.0955496,9.1883497,GIN,"Mongu - Zambia",FALSE,66.815,1121.84293071791,25.8338628216588,74955935.4159169,1726089.54442914,,,,0,6,554.172298716512,66.815,10467.5771211253,16898.0330836162,2.47611467421231,634.832889910545,66.815,12710.2106755368,19422.4436421578,2.33603234555031,66.815,797.359610653434,1726.08954442913,19.6296290017098,0,586.080661306356,0,24.1014516848377,0,84.4909505343141,0,87.6612879869942,0,114.137067729144,0,71.7348282513356
-10.3059597,14.7111797,MLI,"Ikot Abasi - Nigeria",FALSE,18.328,2285.3071,26.3038363987401,41885108.5288,482096.713516109,,,,0,9,292.30465376069,18.328,1151.37595048803,7110.40754999162,3.2571157119873,324.135526917885,18.328,1334.58739223244,9340.67430043338,3.11596751431073,18.328,585.515837858389,482.096713516109,19.746343687915,0,72.9886495601008,0,79.1299507975684,0,100.183769456373,0,64.0688132741433,0,57.987274134927,0,92.2477789447893
-9.6050797,16.6627998,MRT,"Abū Ḩamad - Sudan",FALSE,24.199,3760.08548182476,19.5791653774687,90990308.5746773,473796.222969366,,,,0,2,257.008179975674,24.199,1264.90636433117,8674.86700622178,3.44178766160752,296.637763852809,24.199,1552.49096455351,10824.0472446971,3.23662336594061,24.199,473.796356174818,473.796222969365,26.0588505546621,0,139.096304019292,0,58.994171771954,0,97.3495465165557,0,74.8394896613942,0,93.7755354511732,0,76.7291183234989
-10.801398,6.313299,LBR,"Monrovia - Liberia",TRUE,1110.25,967.725459213548,41.2600904571139,1074417191.09184,45809015.4300107,LRMLW,Monrovia,AI,467.27200002,11,796.764162400063,1110.25,292184.540553576,317820.657253392,2.11931640380835,873.452964453686,1110.25,333174.02518793,366012.913729962,2.03746783623232,0,1899.98618948751,0,67.9596605585292,0,1793.81237379614,0,70.6155190851476,0,564.951033565792,0,152.549553583929,1110.25,58090.5903697296,63098.0794307507,6.95057668452739
-10.132382,8.567176,GIN,"Guéckédou - Guinea",TRUE,221.715,1099.39487496181,19.6079430369351,243752334.702158,4347375.09043406,,,,0,6,625.088061852272,221.715,41254.9821505812,46108.2600881989,2.3515713343302,699.090239710488,221.715,48405.3756886577,52554.9708487348,2.24146964233609,0,1116.54739496073,0,29.2207020025857,221.715,2941.68573151311,4347.37509043407,15.3183247348336,0,183.891959086258,0,97.2523555844851,0,353.103120948261,0,62.9517220192355
-10.066664,28.983267,MAR,"Guelmim - Morocco",TRUE,118.318,6238.3237,43.0273185293868,738105983.5366,5090906.27375998,,,,0,8,950.191078056262,118.318,40044.7942667707,42120.7892716821,1.9652316279099,1003.34461677076,118.318,43282.89680063,47262.7606770188,1.91991795578542,118.318,4697.09961164677,5090.90627375999,8.94833442813809,0,479.399592103431,0,40.9729249245033,0,83.8607565540605,0,130.995445312053,0,373.960810610463,0,48.3516548749894
-10.4223099,8.6459198,GIN,"",FALSE,0,1227.60079775481,18.0701264188066,0,0,,,,0,6,777.932741094989,1e-06,0.000254329548947703,1409.09032719098,2.47243785422597,1143.9837589309,1e-06,0.000441215573715785,1256.06799586989,2.29943897605573,1e-06,28.9115967460397,1.80701264188066e-05,28.4172881470907,0,64.6405441491631,0,16.6198603620514,0,4.62380508067782,0,96.4489661315435,0,8.50361118270002,0,64.2532309985082
-9.4627399,13.0295696,MLI,"Ghardaïa - Algeria",FALSE,57.187,2269.38964058337,35.3665191502151,129779585.376041,2022505.13064335,,,,0,9,199.844294837996,57.187,2086.79326922362,21925.1469487233,3.83360860592925,244.039586870935,57.187,2776.09590355729,26420.8150964601,3.51901535833567,57.187,583.915915098286,2022.50513064335,44.6839709576393,0,170.264234890507,0,101.617761064813,0,1266.94738684684,0,26.6611962392909,0,129.745780429654,0,121.802566644828
-9.4801102,7.0074396,LBR,"Zuwārah - Libya",FALSE,34.046,786.9167,15.4325262289124,26791365.9682,525415.787989552,,,,0,11,287.89478090387,34.046,2092.84388048319,14651.4113598202,3.27839555106166,368.848866654289,34.046,2981.75573535731,21031.3978326326,2.94808829186203,34.046,513.295491277392,525.415787989552,35.0381209184108,0,460.01363262307,0,37.6939812742167,0,81.3634749733435,0,119.628020234727,0,429.260556066486,0,39.4734882991417
-9.544252,15.181505,MLI,"Nioro - Mali",TRUE,116.376,2301.37386339613,31.0032048103123,267824684.726588,3608028.96300491,,,,0,9,543.681935291449,116.376,17741.020928985,24371.0154676711,2.49648230591544,537.30177273012,116.376,17444.352405319,27254.2309154362,2.5091424818007,116.376,2306.99206142373,3608.0289630049,13.0152062182013,0,175.842210109842,0,72.3989068759264,0,244.95765012187,0,58.0435288687345,0,126.587231439359,0,90.1337426753482
-9.5260296,14.5371294,MLI,"Rundu - Namibia",FALSE,52.399,2258.05105134941,26.6645356098404,118319617.039658,1397195.00142003,,,,0,9,228.40177158213,52.399,2314.05285382916,14339.8880994073,3.62032009794046,250.591649325143,52.399,2641.78664542886,16288.991445162,3.47928535929545,52.399,537.604481061798,1397.19500142003,33.8151094230795,0,117.493349140991,0,93.1987834046482,0,462.69011134073,0,37.3731697351358,0,96.4332472033373,0,106.316671197747
-9.4735699,8.5450697,GIN,"Manzini - Eswatini",FALSE,43.102,1096.84397846855,22.3680314344588,47276169.1599514,964106.890888042,,,,0,6,524.710342292101,43.102,6245.63345357879,10627.9187364316,2.53477271130336,603.639103847334,43.102,7629.85216039258,12331.8215789008,2.38702407476792,43.102,458.935725840401,964.106890888043,21.4144603028206,0,401.993756460085,0,23.3917162337978,0,53.761338073393,0,89.4461128764677,0,75.9791491146282,0,71.0251112618692
-9.716798,29.717562,MAR,"Tiznit - Morocco",TRUE,108.998,6238.3237,44.8746618567915,679964806.6526,4891248.39306656,,,,0,8,591.768604080947,108.998,18754.9177793517,44342.5421154545,2.40742813019397,632.806552481995,108.998,20640.195356754,48076.1628202552,2.33923439020464,108.998,2171.39645815857,4891.24839306656,18.4445266381433,0,479.735501807003,0,50.4691158954182,0,145.747237310064,0,111.676048309945,0,1099.56084072504,0,29.0322556666983
-9.599649,30.433289,MAR,"Agadir - Morocco",TRUE,1070.86,6374.8461531175,58.0517269919173,6826567751.5274,62165272.3665645,MAAGA,Agadir,AI,593.66057139,8,1077.59235835355,1070.86,433800.616134557,466753.618603438,1.86206663939147,1166.90940369141,1070.86,486064.531287281,525333.140676687,1.79959203583592,0,3113.65859476117,0,54.9477376894552,0,1608.42370557526,0,85.3486847837313,0,1510.18387040824,0,89.0110493335704,1070.86,78934.6017769376,84130.7135079945,6.36725758097612
-5.986109,14.249942,MLI,"Niono - Mali",TRUE,128.619,2285.3071,33.8806562465947,293933913.8949,4357696.12578076,,,,0,9,708.175663884848,128.619,28603.2072480592,36581.8307389853,2.22909877962346,774.753528013258,128.619,32520.8024423225,41314.445002807,2.14490124420337,128.619,3383.96835595357,4357.69612578076,11.3725801029871,0,481.645596125657,0,41.7178977783374,0,297.16300952746,0,57.5631626824479,0,128.404879765042,0,100.71321989444
-8.8621101,31.2670689,MAR,"Dayr Mawās - Egypt",FALSE,41.579,6727.27118707371,36.8417125347524,279713208.687338,1531841.56548247,,,,0,8,564.956625366856,41.579,6695.82043010867,47887.6522387953,2.45574574016839,651.090850842928,41.579,8200.52460721167,55220.1166917018,2.31085148113716,41.579,1011.23352932124,1531.84156548247,33.261044625695,0,864.754712215118,0,36.918292427625,0,750.372179936698,0,40.5806574064864,0,838.188360130723,0,37.6943211067899
-9.551909,13.355745,MLI,"Balandougou - Mali",TRUE,1631.251,2258.59960670909,27.9096560141396,3684342867.04381,45527654.2827213,,,,0,9,487.113046896856,1631.251,212555.078524211,223912.516516587,2.6168415792154,558.112573995809,1631.251,258159.845957079,276112.462745633,2.46861010631042,0,1996.89121705903,0,66.0094833802031,0,785.609396342166,0,122.943286052997,1631.251,41436.456462016,45527.6542827212,8.74155346572568,0,656.957341731039,0,138.511060452264
-9.1929197,14.5529394,MLI,"Cahama - Angola",FALSE,43.276,2285.3071,27.938885275401,98898950.0596,1209083.19917825,,,,0,9,225.525536898366,43.276,1876.87304769839,15719.0091340519,3.64003851277126,278.962138279018,43.276,2543.0963179811,18074.8880987236,3.32297842954125,43.276,626.831795300564,1209.08319917825,31.2471726569137,0,126.897346221048,0,90.630873829082,0,524.524213462202,0,35.1885048012834,0,97.0574327569548,0,108.365752695741
-8.816789,7.750291,GIN,"N’Zérékoré - Guinea",TRUE,195.027,1164.86349690503,28.8972795876179,227179833.210898,5635749.74613435,,,,0,6,653.232977961508,195.027,38645.6135156408,49095.449034028,2.3076036197233,696.707228011035,195.027,42371.5936295945,55197.9897800558,2.24475146693315,195.027,3492.96028584355,5635.74974613436,14.1358251698637,0,994.089772145748,0,32.6713288220436,0,189.247515346839,0,98.7257299216134,0,370.267876469766,0,63.1112261601412
-8.1639996,7.2641697,CIV,"",FALSE,0,3149.8581711304,28.2093242708592,0,0,,,,0,12,652.94680994291,1e-06,0.000198031197122253,4420.6691496108,2.71553535831419,967.470539205488,1e-06,0.000347277295651814,5574.13367385715,2.53406844689508,1e-06,166.346270256909,2.82093242708592e-05,26.3387072267671,0,188.51216525851,0,24.2313148768566,0,19.2459583166731,0,110.928614455694,0,55.6246169726646,0,54.6712155913401
-7.5722198,9.5049696,CIV,"Bariadi - Tanzania",FALSE,86.279,3289.988,39.2309187365728,283856874.652,3384804.43767277,,,,0,12,885.716153918194,86.279,26412.2571719791,31195.5176789657,2.02531941707024,864.258982441247,86.279,25502.9420240703,34577.7167542528,2.04671109953682,86.279,2758.87271240761,3384.80443767276,11.0433135829531,0,559.287023442376,0,32.0010698281064,0,153.164090421055,0,75.8838838184253,0,122.30938961996,0,88.1619234526355
-8.002662,12.639193,MLI,"Bamako - Mali",TRUE,4552.105,2286.20141850059,45.3510168389582,10407028908.1636,206442590.507706,,,,0,9,715.685626830423,4552.105,1027700.54111921,1119420.14176199,2.2190470252147,756.620823488561,4552.105,1112692.46864536,1208930.31508938,2.16677791182213,0,6527.03817595363,0,70.4049986619592,0,4989.82751567394,0,84.2087977520151,4552.105,193519.41261286,206442.590507706,7.34964422550729,0,2151.93492309352,0,147.523596882594
-9.166742,11.416769,GIN,"Siguiri - Guinea",TRUE,183.875,1135.4866,32.4018248026735,208787598.575,5957885.53559159,,,,0,6,437.434433306858,183.875,20546.3698327444,57940.6735667913,2.74029902986855,476.665698359428,183.875,23228.5526497343,61400.6061650056,2.64126790256421,183.875,2938.5634594671,5957.88553559159,20.0371917804878,0,756.290104960912,0,49.5223835629012,0,860.609313476278,0,45.4351215273332,0,275.225125305731,0,97.1557855695832
-7.4854398,11.42488,MLI,"Souk Ahras - Algeria",FALSE,95.222,2285.3071,32.0476990885096,217611512.6762,3051646.00260606,,,,0,9,417.835616952839,95.222,9965.75980795481,44810.2567862864,2.79467416028048,469.435748895425,95.222,11769.3987184295,49852.6706799687,2.65862712521492,95.222,2020.55750166537,3051.64600260606,22.5321249661901,0,986.66749626155,0,36.3359374283404,0,550.356217091944,0,53.6232853297166,0,217.246878526244,0,99.6507369098017
-9.233368,32.283274,MAR,"Safi - Morocco",TRUE,395.857,6780.39513730578,50.0776184680819,2684066877.86845,19823575.8139195,,,,0,8,1010.37349420949,395.857,146263.175882987,172467.37463983,1.91418412092816,1109.59529711593,395.857,167206.474096186,196186.03576632,1.83885637617227,0,1624.648008544,0,44.924894009789,395.857,14231.7665908273,19823.5758139195,10.571920384841,0,1295.47477127537,0,52.2445022262338,0,1410.75456013812,0,49.3581713357791
-8.500158,33.233179,MAR,"El Jadid - Morocco",TRUE,467.017,7268.41013196153,54.5650407804857,3394471094.59828,25482801.6501801,,,,0,8,854.172203686267,467.017,135748.283156345,236867.710401189,2.05703501120247,960.935635657899,467.017,160621.67564138,261537.102121564,1.95578400235422,0,1795.23847750206,0,54.1495632586885,467.017,18255.2576851139,25482.8016501801,11.5367737663707,0,1484.32336567127,0,61.4691740046965,0,2778.87661513308,0,40.4666371416064
-8.3035603,32.2542381,MAR,"Funtua - Nigeria",FALSE,139.815,6725.98050128035,37.1479411148004,940392963.786512,5193839.38696582,,,,0,8,807.226107876242,139.815,37487.256592406,58788.2612314903,2.1074783164025,851.170243681468,139.815,40436.2743440308,59844.2384910069,2.06014109877114,139.815,1034.26489237299,5193.83938696582,30.8193926255961,0,1733.835501026,0,21.8393638034208,0,751.30089605359,0,38.1390056941119,0,492.568843762361,0,50.5359328417435
-8.2107401,31.9539585,MAR,"Ouled Fayet - Algeria",FALSE,38.613,6720.5864,38.3004049757337,259502002.6632,1478893.53732801,,,,0,8,640.466823134076,38.613,7438.64893230536,24321.6465479796,2.32720120823278,726.19647609361,38.613,8900.88822843267,29766.8715609547,2.20522009417722,38.613,450.097650964748,1478.89353732801,36.0636410009676,0,755.934939209052,0,25.5241531410608,0,522.895939153986,0,32.6335446503229,0,233.986603440778,0,55.7800997341368
-8.008349,31.630015,MAR,"Marrakech - Morocco",TRUE,1132.514,6720.5864,58.6646890573813,7611158186.2096,66438581.6631311,,,,0,8,1039.77862490095,1132.514,435952.062130168,506142.114120421,1.89079203158566,1130.15361304866,1132.514,491075.371899565,566101.614458085,1.82444549867173,0,3100.99426488851,0,58.711948031508,0,4172.46550400239,0,48.172432285285,1132.514,54790.3462651487,66438.5816631311,8.65481460552119,0,2780.2257841736,0,63.1452409767193
-7.6750998,8.2902699,CIV,"Krugersdorp - South Africa",FALSE,55.013,3186.43542100719,24.1835686231057,175295371.815869,1330410.66066291,,,,0,12,540.181797413281,55.013,8309.4720058667,14562.5302138656,2.50341276619966,587.195415498018,55.013,9361.57088033814,16107.1023542857,2.41544536758896,55.013,550.528984486505,1330.41066066291,22.9344369093719,0,597.316031167938,0,21.7206593061937,0,73.5286689316801,0,87.7750643233006,0,87.9754928179358,0,77.8815966788966
-7.583329,33.53329,MAR,"Casablanca - Morocco",TRUE,4219.891,9656.635,70.9405986874118,40749947126.785,299361593.935621,MACAS,Casablanca,AI,2434.0279715,8,1146.4098280372,4219.891,1867524.94721114,2021581.5429453,1.81331630138776,1192.37701324083,4219.891,1975410.71064731,2141118.0616009,1.78301974386334,0,6151.61227223423,0,88.2246481455221,0,7226.35330336666,0,79.2446129110497,0,7089.53118034532,0,80.2609467080466,4219.891,373582.209999388,389420.628881121,5.71030910440122
-7.9837198,32.2262306,MAR,"Qillīn - Egypt",FALSE,132.168,6742.80992422409,43.2105007592418,891183702.06485,5711045.46434747,,,,0,8,680.659230749086,132.168,27774.6380713172,83649.6110411658,2.26728292920626,774.447380352132,132.168,33399.2897884368,91097.5348402892,2.14525638767874,132.168,1216.81704896303,5711.04546434747,38.1065930556244,0,1820.92341395048,0,29.1265454597908,0,1729.61072396493,0,30.1428706805713,0,1031.64765625971,0,42.5398876915449
-7.59407,7.3604698,CIV,"Pikine - Senegal",FALSE,241.969,3331.50044575431,31.6783867627629,806119831.358724,7665187.56659899,,,,0,12,676.158769841747,241.969,50369.3132262577,58138.0773147374,2.27383632422063,736.259870655066,241.969,56885.0433795435,66161.1893237083,2.19225399780996,0,873.784725051706,0,39.2364703435799,241.969,5573.39421739276,7665.18756659898,11.4080987110163,0,202.258597173062,0,104.077067097495,0,386.650549301975,0,67.5689984517533
-7.408295,32.048099,MAR,"El Kelaa des Srarhna - Morocco",TRUE,223.364,6725.77294838356,38.3125407240053,1502295548.84275,8557642.34627671,,,,0,8,753.055941551391,223.364,54230.7966242569,86029.6015028244,2.17116222766442,865.716280384919,223.364,66182.5688795715,98408.1864927011,2.04523403426075,0,797.155579954935,0,50.7070889691086,223.364,4491.21178159364,8557.64234627672,16.0147831424922,0,1523.10859193238,0,32.9313880741761,0,702.978081792691,0,55.1403685328566
-6.26652,13.449454,MLI,"Ségou - Mali",TRUE,240.936,2285.3071,34.5068161376911,550612751.4456,8313934.25295074,,,,0,9,549.109069263105,240.936,37254.5503827965,91246.2937318805,2.48587458268639,602.487753740419,240.936,42533.968774301,96414.7937513251,2.38898050440474,0,2450.60466748529,0,27.6350091463323,240.936,3081.47891547141,8313.93425295074,23.7211483548237,0,1430.45274041005,0,39.5663562747906,0,281.396918288091,0,116.975548776173
-7.350092,6.733084,CIV,"Duekoué - Côte d’Ivoire",TRUE,284.596,3302.72447034709,26.4823462879371,939942173.3629,7536769.82416175,,,,0,12,668.03392405408,284.596,58228.3993212928,58549.4288166526,2.2852579080678,730.469530500769,284.596,66155.8949171941,66423.5788720801,2.19968459320956,0,555.635296657358,0,53.38041953917,284.596,7351.43731787346,7536.76982416175,9.54246259903665,0,168.585762618515,0,118.221008927309,0,390.471287736037,0,67.5329634985372
-6.841593,34.020894,MAR,"Rabat - Morocco",TRUE,1891.455,7891.94605770258,67.9275739994679,14927260830.5718,128481949.479164,,,,0,8,971.757385283357,1891.455,661021.226290823,811321.859795798,1.94642101166583,1025.35028741377,1891.455,713709.868855733,872062.685207361,1.90215451656867,0,1514.80434035946,0,131.635193428786,0,5690.39242423462,0,54.4730288115328,1891.455,116211.782808759,128481.949479164,7.29085801113171,0,5269.80875495595,0,57.3341289889963
-6.5227799,32.8590393,MAR,"Randburg - South Africa",FALSE,178.623,9675.0688844993,45.6605596927238,1728189829.35592,8156026.1539934,,,,0,8,565.305431327238,178.623,28790.5571028849,98345.1587751988,2.45509628657723,626.734770821363,178.623,33361.9149595763,100627.304827817,2.3489200393934,178.623,1673.01325118552,8156.0261539934,36.0589063507354,0,2570.82333268911,0,27.0788794166665,0,883.177399365089,0,55.2051997960516,0,1461.35579615875,0,39.4616184566498
-6.4903197,9.5225697,CIV,"Kikuyu - Kenya",FALSE,92.792,3289.988,40.8585933304043,305284566.496,3791350.59231487,,,,0,12,773.05645037281,92.792,23388.7037921323,32246.9901766953,2.14690027186916,797.143299107009,92.792,24436.6766125093,33861.785778803,2.11886238996509,92.792,1807.89602442893,3791.35059231488,14.9437775939515,0,1099.05046342387,0,20.8240098981867,0,131.876876635358,0,85.5980078381064,0,107.857335187149,0,97.8758892434708
-5.666994,11.316457,MLI,"Sikasso - Mali",TRUE,315.73,2285.3071,34.5993127669643,721540010.683,10924041.0199136,,,,0,9,745.467834898225,315.73,75555.3682767568,92633.9813917677,2.18061647935526,783.701646832243,315.73,81151.4979895752,98717.3731498328,2.13436256030815,0,2058.70100576828,0,28.1710972190832,315.73,7148.79037420124,10924.0410199136,12.2849807550095,0,511.495597811515,0,71.2801509503748,0,242.273593434363,0,117.307722776851
-6.36073,32.339077,MAR,"Béni Mellal - Morocco",TRUE,559.315,9578.10692231839,51.2521768542167,5357178873.25651,28666111.2972162,,,,0,8,1022.23765467983,559.315,210133.790060866,224385.431279438,1.90462860031643,1109.44348121934,559.315,236203.503036685,248645.805902253,1.83895727512031,0,1234.09093809369,0,63.2017823161696,559.315,25593.3671739842,28666.1112972162,8.37282862353449,0,1832.60977632478,0,48.5564974991366,0,1140.73799623012,0,66.6044945055966
-6.9510198,6.7373199,CIV,"",FALSE,0,3289.988,26.0983083598812,0,0,,,,0,12,740.677399690089,1e-06,0.000237109928572009,821.884660507854,2.53786329498442,1208.59450382953,1e-06,0.000477240869032768,607.136185250663,2.22803231681828,1e-06,4.77213329777826,2.60983083598812e-05,56.3599281046086,0,66.5058369170407,0,9.73208366847603,0,1.5132526905153,0,121.200519964722,0,3.97754471462253,0,63.6358828858099
-6.59448,6.48704,CIV,"",FALSE,0,3289.988,30.2351215412896,0,0,,,,0,12,541.036355984048,1e-06,0.000151387082658093,3168.03993116033,3.00813615121372,930.518150033009,1e-06,0.000328484668619631,3467.46137892179,2.59244656115546,1e-06,30.6964372893629,3.02351215412896e-05,60.5794758513342,0,277.740425292014,0,13.9516302273055,0,10.533926834585,0,123.592078424688,0,35.5480711253424,0,54.9338560463204
-6.450154,6.883246,CIV,"Daloa - Côte d’Ivoire",TRUE,466.205,3289.988,31.5809428623859,1533808855.54,14723193.4671586,,,,0,12,694.741530355077,466.205,100879.762049146,103504.471494423,2.2474742960748,761.078161021507,466.205,114916.938641693,118118.374831194,2.16132668123226,0,902.055473331809,0,55.7326447529908,466.205,13661.3212979199,14723.1934671586,9.10480177331773,0,277.835319230021,0,122.20066143818,0,722.246973773194,0,64.6360280611083
-5.51861,33.8304405,MAR,"Ibadan - Nigeria",FALSE,713.763,5725.32862494757,52.8535171786926,4086527735.32846,37724884.9820151,,,,0,8,939.898069198588,713.763,237843.815230025,301661.42017444,1.97442684282017,1021.77931169986,713.763,267987.919162175,336847.275384326,1.90499687736192,0,1098.66331835632,0,86.6176127040799,713.763,30461.4476635233,37724.8849820152,9.45546729371859,0,4504.51330221421,0,33.8130315478357,0,1526.56286896857,0,69.5621147449647
-6.633194,4.750108,CIV,"San-Pédro - Côte d’Ivoire",TRUE,390.654,3573.43717303907,31.4114659961222,1395977525.39641,12271014.8372491,CISPY,San-Pdro,AI,2312.50202864,12,1383.34482446575,390.654,226107.715180501,288438.825306779,1.67298635874119,1443.29403022298,390.654,240234.79176543,311926.448174832,1.6428549912733,0,389.943272000417,0,141.571682409324,0,710.012345549256,0,94.9438428965281,0,230.000746805091,0,201.291076106891,390.654,93979.1907995836,97833.5898969291,3.65545389346478
-6.600167,5.783308,CIV,"Soubré - Côte d’Ivoire",TRUE,310.768,3216.67761193904,26.8544558285881,999640468.107073,8345505.52893867,,,,0,12,374.128950835216,310.768,27775.4201172183,75894.1588349967,2.93018394411926,388.83119948989,310.768,29347.7371627776,86365.3456135487,2.88217788500738,0,763.535161773209,0,67.4105358452986,310.768,4460.34288491769,8345.50552893867,20.7826944874311,0,294.814617858076,0,127.129930890861,0,1704.77816405377,0,39.4610106491918
-4.034,5.317569,CIV,"Abidjan - Côte d’Ivoire",TRUE,9022.419,3473.84868051719,53.7001420652593,31342518338.2232,484505182.072294,CIABJ,Abidjan,AI,3248.84543344,12,702.28348817732,9022.419,1982663.2937195,2034055.91104112,2.23710012982434,755.405379779808,9022.419,2200333.02675016,2254160.14290489,2.1682699889502,0,4347.92170699099,0,139.931245119122,0,4807.62333184336,0,130.862631044159,0,2551.21885235001,0,199.650635740588,9022.419,598108.3244605,604712.463109575,5.25110060754796
-5.93669,6.13259,CIV,"Gagnoa - Côte d’Ivoire",TRUE,277.044,3292.32142843847,37.4502145097444,912117897.820308,10375357.2286376,,,,0,12,594.114197376309,277.044,47940.1827347495,67969.9443438049,2.40334539245355,629.139642043529,277.044,52028.1553413069,74683.6391604084,2.34506956778435,0,597.401966806073,0,58.6310827362059,277.044,6449.27783754713,10375.3572286376,12.0032565821684,0,208.306843653132,0,118.350481122361,0,765.641416415561,0,49.692261451721
-5.900032,35.008948,MAR,"Ksar El Kebir - Morocco",TRUE,481.749,7708.3994,48.126429375983,3713513702.5506,23184859.2254504,,,,0,8,668.620658260397,481.749,98689.638478803,241414.292276537,2.28468726996552,743.979697670536,481.749,114955.710188738,274215.594771643,2.18247281346308,0,1013.77122815552,0,91.281795612204,481.749,16664.0711111591,23184.8592254504,14.1195893188219,0,3445.15753326538,0,40.3835879542854,0,2909.77865330983,0,45.1964137175618
-5.667584,32.939324,MAR,"Khénifra - Morocco",TRUE,381.704,5810.59514758978,38.7930319415803,2217927410.21561,14807455.4642289,,,,0,8,821.427043300043,381.704,104924.356161356,128493.640024957,2.09178738176868,895.578777177933,381.704,118712.773359947,147442.576650411,2.01573011288691,0,788.567708899205,0,65.9103570956879,381.704,11533.2977860578,14807.455464229,11.020819364269,0,1722.74267588741,0,39.1470566246145,0,731.217956438468,0,69.3130759276984
-5.759602,10.555472,MLI,"Kadiolo - Mali",TRUE,317.492,2328.09481993824,27.1998768923998,739151480.571833,8635743.31432181,,,,0,9,737.00714094779,317.492,74748.1640448608,77874.4703217876,2.19131035767046,796.309299428017,317.492,83486.2486022625,86160.94764012,2.11981376391036,0,1477.61024389671,0,31.8759738326777,317.492,7288.62593355478,8635.7433143218,11.000400217112,0,403.15629938627,0,75.7743777329054,0,216.170781116521,0,114.80819519239
-5.6370897,9.4510393,CIV,"Nneyi-Umuleri - Nigeria",FALSE,286.071,3289.988,35.5292803371237,941170157.148,10163896.7553213,,,,0,12,818.385206881917,286.071,78220.6974839381,84844.0151106252,2.09511644261205,904.811799893041,286.071,90283.4386167211,96331.2177800485,2.00688447983745,0,2009.69922467841,0,26.4817024332732,286.071,7299.52129283841,10163.8967553213,11.2073904734449,0,411.659149934473,0,76.209341079347,0,260.220464230125,0,103.468077171476
-5.30024,6.8373399,CIV,"Arzew - Algeria",FALSE,37.253,3289.988,41.8178867554655,122561922.964,1557841.73530136,,,,0,12,407.03800525391,37.253,3755.699217664,13224.2219972609,2.82620423533641,442.766173770707,37.253,4235.35727268153,14609.7114831423,2.72611351451385,37.253,305.412499773378,1557.84173530136,35.9236318531165,0,746.737622879709,0,19.7936876047527,0,63.4688212656314,0,102.391655291911,0,100.588732609347,0,75.3249058497592
-5.7609501,12.9448795,MLI,"Béni Mellal - Morocco",FALSE,89.799,2275.85166218126,32.5280080868355,204369203.412215,2920982.59818974,,,,0,9,638.391415703614,89.799,17219.4115056739,23200.1822854637,2.33043899620587,709.844377715257,89.799,20037.3976381409,25210.9346598225,2.22685333207752,89.799,1660.06857756407,2920.98259818974,13.6563269722636,0,412.824201989783,0,34.5335192481612,0,234.291038925102,0,50.3786725381202,0,57.9951267477297,0,127.787814630295
-5.0414901,6.5430398,CIV,"Chipata - Zambia",FALSE,39.005,3289.988,39.0763581540411,128325981.94,1524173.34979837,,,,0,12,298.256990690766,39.005,2521.90871570565,16878.7969461467,3.22908527318018,385.149547901867,39.005,3633.75936158459,18753.2824255512,2.89395452261754,39.005,431.926808486104,1524.17334979837,35.7494715088627,0,669.908711579118,0,26.6808564871323,0,98.9741950157921,0,95.4688644246317,0,178.768418258553,0,64.369866159491
-4.6909499,5.9060397,CIV,"",FALSE,0,3289.988,32.1998889870533,0,0,,,,0,12,289.11361032189,1e-06,6.18431784611367e-05,39421.1338315193,4.288240764939,534.051331122479,1e-06,0.000148602717716436,51011.3767454702,3.61683779804229,1e-06,873.469414821267,3.21998889870533e-05,54.4429453395346,0,1148.00855558324,0,45.3743710606723,0,287.657681314003,0,114.162359988194,0,1143.09939266881,0,45.5041637853764
-5.803895,35.77671,MAR,"Tangier - Morocco",TRUE,1007.037,7897.3692983517,60.3686019577755,7952943086.1042,60793415.8097524,MAPTM,Tanger Med,AI,29213.26830742,8,4168.40464641321,1007.037,2817802.59306185,2965503.67439658,1.0428041669235,4331.22322192894,1007.037,2976343.05451262,3140472.54053544,1.02583536367009,0,2363.8303994898,0,123.97197544094,0,3608.19242891226,0,93.5135376336349,0,2489.07908006859,0,119.777507648056,1007.037,1132363.7150526,1141684.34318429,2.02497528770293
-5.003295,34.043295,MAR,"Fès - Morocco",TRUE,1380.105,4852.60936283408,54.7499901257426,6697110444.69412,75560735.122488,,,,0,8,922.058813587518,1380.105,447467.19122587,521834.280468474,1.99070659256765,997.792004735104,1380.105,500881.072860756,597393.205221751,1.92448913830844,0,1788.3093253168,0,92.6533440328101,0,6590.98369255781,0,38.8319752318519,1380.105,63171.066121376,75560.735122488,8.60616976654239,0,2464.28452323553,0,74.821741961374
-4.31988,35.1186104,MAR,"Niangoloko - Burkina Faso",FALSE,87.889,5072.45692357448,40.7110698682004,445813166.556038,3578055.21964627,,,,0,8,319.262317596777,87.889,6262.79119670268,53653.403266111,3.13626092659024,476.506794064277,87.889,11097.5503895544,57951.903975439,2.64164668491997,87.889,647.232943164692,3578.05521964626,52.8703954982028,0,1195.77643385236,0,35.114351398978,0,517.43500739706,0,61.3784614850127,0,1483.75597491689,0,30.4097948285045
-5.466706,12.38318,MLI,"Koutiala - Mali",TRUE,173.39,2285.3071,34.2337289247921,396249398.069,5935786.2582697,,,,0,9,798.636991888366,173.39,45784.3563979666,52028.0084409058,2.11717040503444,845.569727083799,173.39,49675.8938459435,56499.0250151259,2.06598052783684,173.39,4148.83570734271,5935.7862582697,11.7815808960088,0,1032.77084088712,0,29.7726227076966,0,406.803101593187,0,55.4068238749388,0,109.610919272609,0,132.81594314308
-4.88414,13.22997,MLI,"Techiman - Ghana",FALSE,62.939,2285.3071,27.7750123769379,143834943.5669,1748131.5039921,,,,0,9,679.120222451298,62.939,13183.7067618002,15138.0540549321,2.26947876502594,729.251164663178,62.939,14595.6660575134,16715.013549898,2.20125417755509,62.939,1330.86257687011,1748.13150399209,11.8937431269899,0,228.789309516927,0,38.4696353982585,0,136.375191205235,0,54.3148021523665,0,36.1090340277215,0,131.723903925052
-5.1606898,9.9698601,CIV,"",FALSE,0,3219.81194498956,23.6325528252283,0,0,,,,0,12,791.100045714467,1e-06,0.00026050147800119,2693.3101048484,2.45050492183629,1160.38423109202,1e-06,0.000450279530114508,2026.92323013599,2.28068605734987,1e-06,62.7857145244341,2.36325528252283e-05,23.1232943876863,0,94.6994426902431,0,17.5816256541813,0,12.4566422894518,0,67.9760827904876,0,5.8783865575409,0,112.146264106499
-5.31213,8.7883997,CIV,"",FALSE,0,3289.988,26.5663110545579,0,0,,,,0,12,734.328868250152,1e-06,0.000234211943316817,4000.51329740414,2.54957310295818,1098.88759232543,1e-06,0.000416580141640699,3792.83493837006,2.35339868372203,1e-06,87.3622933289685,2.65663110545579e-05,29.0707040065914,0,223.97547275233,0,15.519262036876,0,19.5763597295451,0,78.7982739114782,0,13.649044799952,0,100.215948679576
-5.199932,9.583411,CIV,"Ferkessédougou - Côte d’Ivoire",TRUE,160.267,3267.52578171889,28.1654532445121,523676554.458741,4513992.69513822,,,,0,12,664.270106304245,160.267,32527.0536792513,41641.8137197587,2.29108927614229,742.174212715385,160.267,38110.6513940466,46020.5904538258,2.18474934692249,160.267,2091.93826383755,4513.99269513822,17.1528823544801,0,1492.88800986159,0,21.4792113637759,0,271.709724434166,0,66.8805005484857,0,135.836383521615,0,106.175857692342
-4.93154,12.8220196,MLI,"Siliana - Tunisia",FALSE,24.889,2270.88540033439,28.0674148072147,56520066.7289225,698569.887136766,,,,0,9,767.431204118323,24.889,6208.2898988626,6586.9671930386,2.15365792766162,802.587071080573,24.889,6618.53039470853,7307.09856440238,2.11269125321418,24.889,562.984849900817,698.569887136767,11.668156447979,0,118.102876209868,0,33.0490227718589,0,54.5743385251761,0,55.2933634615752,0,14.6784342073906,0,132.702474145018
-4.805582,12.183353,MLI,"Kouri - Mali",TRUE,137.964,2215.83852651061,27.169998873553,305705946.47151,3748481.72459086,,,,0,9,709.970637681944,137.964,30792.5700543611,35431.9507259389,2.22669361160533,741.22589060072,137.964,32747.2461874469,39532.1451281115,2.18594768430444,137.964,2416.40526577879,3748.48172459087,14.087247839107,0,896.483321346859,0,27.284254306129,0,296.928858273507,0,56.9954140817841,0,81.3433303370975,0,135.121577188471
-4.8452396,10.9798899,BFA,"Tiko - Cameroon",FALSE,33.422,1561.522,23.9344297130372,52189188.284,799936.50986913,,,,0,13,593.32360973346,33.422,5772.41075938978,7923.16735982493,2.40472275229118,676.244388324876,33.422,6958.52657707311,8653.42943353785,2.27361592658005,33.422,251.480375179957,799.936509869129,24.0532690694819,0,452.63522106748,0,16.2558557477156,0,51.865390870669,0,68.9060289105362,0,22.2119941239304,0,121.278569223952
-5.016623,7.683365,CIV,"Bouaké - Côte d’Ivoire",TRUE,659.233,3289.988,40.2539059826232,2168868659.204,26536703.2026426,,,,0,12,796.498573739213,659.233,173407.768390168,185141.789155357,2.11960104194622,862.385453173291,659.233,194257.466456439,210677.620824805,2.04862535000418,0,2290.84228676595,0,41.739078810922,659.233,23390.1263642495,26536.7032026426,8.86859880363965,0,706.181502289778,0,91.466535656955,0,685.406501128312,0,93.3055720942576
-3.2846298,9.6600199,CIV,"",FALSE,0,3217.02361233922,19.5825015048918,0,0,,,,0,12,559.573153774287,1e-06,0.000158850805551021,4651.898078128,2.95311868207048,880.612682565283,1e-06,0.000303609410941905,4436.51586853683,2.67778754293051,1e-06,154.746547032676,1.95825015048918e-05,25.0836152242782,0,97.7406337640335,0,34.0738090471263,0,61.5728061001408,0,46.367272743773,0,15.7703783754961,0,114.967774107431
-4.758877,10.630955,BFA,"Banfora - Burkina Faso",TRUE,126.236,1561.522,24.6889188876878,197120291.192,3116630.36470615,,,,0,13,645.299555855198,126.236,24581.4580842651,29634.6071618079,2.31971901182651,711.978764511933,126.236,28288.8795395909,32943.7692243787,2.22399015104116,126.236,1337.29556464432,3116.63036470616,18.8292008099503,0,1194.83272919504,0,20.2974898633876,0,215.004548195789,0,63.681878311735,0,87.3935626300501,0,116.054461857124
-4.1257401,6.7047696,CIV,"Cidade de Nacala - Mozambique",FALSE,74.281,3289.988,36.3507584903294,244383598.628,2700170.69142016,,,,0,12,616.808047678417,74.281,13560.8204139386,21701.9606204747,2.36504910168198,626.115224321546,74.281,13854.0810946386,23806.4648613212,2.34991773493481,74.281,1572.58006531209,2700.17069142016,14.3805163548463,0,319.984696819449,0,41.5683866270815,0,134.445750168089,0,74.0998805086719,0,138.644578227696,0,72.5961242004249
-3.98735,7.06142,CIV,"Ilesa - Nigeria",FALSE,101.136,3289.988,30.9159129234854,332736226.368,3126711.76942962,,,,0,12,600.483763104423,101.136,17769.4058321159,29561.2396394962,2.39239263745718,675.760160644106,101.136,21035.1791150996,37070.5316947892,2.27431584325504,101.136,1992.74020564479,3126.71176942962,15.9674597063778,0,665.758464456576,0,33.1634984843068,0,238.784900024618,0,65.6948705185815,0,197.507069241079,0,74.5556893404141
-4.016502,34.216732,MAR,"Taza - Morocco",TRUE,215.147,4756.2676,43.2527353559962,1023296705.3372,9305696.25363651,,,,0,8,698.933865352517,215.147,46956.4245871537,73246.0553691463,2.24169068405895,826.691204768212,215.147,59682.6655584115,93515.4601574418,2.08607608576047,0,541.27817315647,0,64.7099068464407,215.147,7841.92465957229,9305.69625363651,10.8886184157625,0,821.209260165902,0,49.0096362181797,0,513.640167494888,0,67.0107494280216
-4.1851397,14.0335598,MLI,"Rubengera - Rwanda",FALSE,35.513,2285.3071,26.5762081399309,81158111.0423,943800.879673367,,,,0,9,706.093873516722,35.513,7864.48807683554,8597.03010570175,2.23191253900516,753.142058339574,35.513,8623.64980549707,9433.00838041264,2.17105132695734,35.513,916.784135043277,943.800879673366,10.2704943947445,0,91.3786958239131,0,47.7757876071262,0,78.8941375495274,0,52.691544463321,0,18.0172701433255,0,141.030017371773
-3.4726,12.4589195,BFA,"Al Marj - Libya",FALSE,63.617,1561.522,23.9784948796488,99339345.074,1525439.90875862,,,,0,13,545.090050172276,63.617,9734.04064896965,14786.4186660603,2.49370939967268,615.580836872921,63.617,11580.9924860922,16544.6350657722,2.36706503380178,63.617,889.333142691966,1525.43990875862,16.6189841300849,0,324.593976368821,0,32.5403218646624,0,179.0193876076,0,48.3855433028832,0,37.8021135199028,0,136.44927488736
-4.283237,11.183756,BFA,"Bobo-Dioulasso - Burkina Faso",TRUE,903.887,1563.71297280047,35.5323045529694,1413419827.8457,32117188.1654698,,,,0,13,799.976080273099,903.887,239247.058081861,257411.71203068,2.11564235119652,867.764925595195,903.887,268726.825323719,289009.468734946,2.04316670644478,0,4739.38266041414,0,31.6541377948753,903.887,24709.9908131384,32117.1881654699,10.5276333648414,0,1671.1737196702,0,63.4205207324191,0,576.887963057044,0,128.879481057107
-3.4547899,10.1577702,BFA,"",FALSE,0,1561.522,18.5995770061625,0,0,,,,0,13,622.894661338973,1e-06,0.000185140092365866,942.431104547364,2.78560678561328,928.966481784999,1e-06,0.000327702436172869,1156.288237445,2.59498447677343,1e-06,41.0491925901652,1.85995770061625e-05,24.0238090832987,0,33.7782321320274,0,27.3581888910313,0,12.0087877204067,0,54.5146847567298,0,3.53835856953898,0,123.115145205437
-3.932213,35.247186,MAR,"Al Hoceïma - Morocco",TRUE,157.146,5081.60594467335,48.3370623895879,798554047.781638,7595976.00627419,,,,0,8,584.769018651351,157.146,26583.8410131413,74776.3840137043,2.41973568538104,698.980567625654,157.146,34300.820743603,67287.5094252059,2.24162172900454,157.146,1019.36378091789,7595.97600627418,36.6128110000983,0,2192.76775881108,0,21.9713448864937,0,484.783132002487,0,60.092445124829,0,930.302064553725,0,38.9137149151331
-3.8383498,11.7186594,BFA,"",FALSE,0,1561.522,21.1535394343159,0,0,,,,0,13,724.231969197436,1e-06,0.000229624998243422,2493.86189181165,2.56850307503502,1052.23400707469,1e-06,0.000391546134031044,3538.14579096259,2.41320772356143,1e-06,116.327071473116,2.11535394343159e-05,23.5138646438804,0,135.865010939309,0,21.20186111636,0,32.2709311886775,0,55.2803640474696,0,8.38680665921588,0,135.741989328871
-3.516123,11.495237,BFA,"Houndé - Burkina Faso",TRUE,102.324,1561.522,23.1279888600729,159781177.128,2366548.3321181,,,,0,13,626.721014180449,102.324,19110.7390629152,24782.4590748584,2.34894054891286,703.070467499191,102.324,22521.5531860133,26990.0044366616,2.23602082346696,102.324,1111.41853679976,2366.5483321181,18.7510536461879,0,832.662510428687,0,22.7317096028382,0,251.335361790871,0,50.517535320341,0,60.2023851715752,0,130.979161635072
-3.2551699,10.9504795,BFA,"Abū Za‘bal - Egypt",FALSE,25.688,1559.68196236009,20.0266158993534,40065110.249106,514443.709222591,,,,0,13,552.609497152167,25.688,4008.2092978971,7435.59347894618,2.47911278767598,644.605190993788,25.688,4994.43947111554,8932.41228071173,2.32078695387877,25.688,348.338332870144,514.44370922259,20.1812005030214,0,276.941733303514,0,23.5155731072202,0,84.3475947329327,0,51.9476364303222,0,22.157988336464,0,126.646803206718
-4.031478,6.172398,CIV,"Adzopé - Côte d’Ivoire",TRUE,156.488,3289.988,28.5378806552521,514843642.144,4465835.86797909,,,,0,12,434.576085462317,156.488,17323.1198032926,32124.3993736277,2.74799565259279,456.084474225326,156.488,18560.8035017351,36195.0769849221,2.69170414978071,156.488,2171.31189763653,4465.83586797909,17.5648507706209,0,340.349965615325,0,60.4196189603891,0,235.263207916446,0,77.2842907522496,0,339.256034339225,0,60.5492665864308
-4.183454,14.484661,MLI,"Mopti - Mali",TRUE,175.604,2287.68401478936,27.9093141499409,401726463.733071,4900987.20198623,,,,0,9,720.244393972918,175.604,40006.2767162686,40283.2803750237,2.2130151385621,767.47370302274,175.604,43805.9700247798,44163.3021828003,2.15358585182746,175.604,4653.38237828876,4900.98720198622,9.65362401800169,0,365.550272756328,0,52.6307026371059,0,371.4198827513,0,52.0746519086892,0,80.2636902188862,0,144.607480875642
-3.5236499,14.0762997,MLI,"Kamsar - Guinea",FALSE,105,2285.3071,24.7752788915821,239957245.5,2601404.28361612,,,,0,9,693.022071257471,105,22640.1343731495,22826.1423280062,2.24986078345549,737.76007935949,105,24756.5744074872,24975.110281058,2.19034088421498,105,2472.3173582824,2601.40428361612,10.2356127285076,0,216.313474320338,0,51.9351010620387,0,228.71750377257,0,50.0399655282281,0,46.2777796220112,0,145.189419534055
-0.04122,16.2347698,MLI,"Catabola - Angola",FALSE,49.483,2285.3071,23.3834754351307,113083851.2293,1157084.51495657,,,,0,9,468.04087901781,49.483,6090.13264092152,9496.07465261573,2.66202133033724,515.041310958661,49.483,6982.2552417781,10042.642848268,2.5550531067754,49.483,713.323593131599,1157.08451495657,14.8972947382592,0,93.157819730443,0,57.8744468957946,0,137.554427851064,0,44.6321692269945,0,25.5318975345336,0,137.165058009909
-3.7660499,6.5562596,CIV,"",FALSE,0,3330.13071312614,26.749789223801,0,0,,,,0,12,475.385828615025,1e-06,0.000125843667133833,2968.80098103187,3.23102043746021,797.848309737344,1e-06,0.000263681752812857,3732.03778539166,2.83861773617193,1e-06,161.323945497908,2.6749789223801e-05,23.046497334243,0,49.4861558321333,0,50.6697019567378,0,32.1600900122951,0,67.5345872284708,0,33.264885605387,0,66.0308778649407
-3.199681,5.466835,CIV,"Aboisso - Côte d’Ivoire",TRUE,115.831,3283.31415970208,30.802133925745,380309562.432452,3567841.97475296,,,,0,12,153.902191783349,115.831,2910.31399519766,48069.9670206346,4.2877333726639,187.580720242101,115.831,3861.14512405376,55915.9687802756,3.93908013703702,115.831,1554.26043024385,3567.84197475297,42.9275791323842,0,407.030331407446,0,104.873740658226,0,420.348118920451,0,102.646939121285,0,1623.89942982094,0,41.6913768932768
-2.884658,34.416684,MAR,"Taourirt - Morocco",TRUE,321.876,5909.4069394727,41.5215982796711,1902096268.04972,13364805.9678674,,,,0,8,764.83256470734,321.876,79900.3592463921,82318.2934032397,2.15677796924334,922.472064430609,321.876,104427.688201723,111697.369924109,1.9903347529339,0,528.788410042323,0,70.5933378238852,321.876,13364.8058089825,13364.8059678674,8.19688244878122,0,472.239188309627,0,76.1222460939981,0,625.973612841625,0,63.0834393398809
-3.3598599,7.0014696,CIV,"",FALSE,0,3315.53558628181,33.597304142047,0,0,,,,0,12,503.417182416045,1e-06,0.000136576757820942,11120.942842728,3.13002472572169,832.749066120714,1e-06,0.000280312641623098,18512.6079890405,2.76751422411034,1e-06,632.228938431022,3.3597304142047e-05,26.2917125865255,0,274.386002139762,0,45.8662937946263,0,295.655492375865,0,43.6392727470723,0,104.565742194885,0,87.2586427177983
-2.933289,35.166696,MAR,"Nador - Morocco",TRUE,398.424,7606.25038889618,51.3612061101847,3030512704.94557,20463537.1832442,,,,0,8,810.753929123359,398.424,107493.177480543,117967.103951496,2.10354420731884,992.811077117691,398.424,143569.807452928,153212.198522582,1.92862172788929,0,802.749090677658,0,63.9326163921586,398.424,18912.5927665869,20463.5371832442,7.77932643127893,0,540.903329424979,0,83.1820380347655,0,837.202683002131,0,62.1663694074579
-3.483656,6.733739,CIV,"Abengourou - Côte d’Ivoire",TRUE,164.424,3393.50643563291,31.3151713379485,557973902.172505,5148965.73207084,,,,0,12,577.868130242868,164.424,27347.29965464,36744.3293099099,2.4320858176611,580.647069994797,164.424,27535.367129695,40475.4403422934,2.42708211310589,164.424,2862.01472428958,5148.96573207084,14.1937716669762,0,330.956588216657,0,59.7994969148338,0,350.344012206188,0,57.5726022211912,0,234.872378905926,0,75.1607316352722
-2.416466,13.583359,BFA,"Ouahigouya - Burkina Faso",TRUE,124.58,1563.41905949248,24.9678181813964,194770746.431573,3110490.78903837,,,,0,13,675.453285747567,124.58,25894.4660217413,28799.0842706705,2.27475608480386,708.671095237171,124.58,27732.6785633819,31128.7502521465,2.2284316137622,124.58,2359.58574250911,3110.49078903836,12.4418001049974,0,312.389632914455,0,47.8971212635342,0,405.305557635806,0,40.264175222352,0,62.0245147527916,0,140.733691094026
-3.0625598,11.1466293,BFA,"Hohoe - Ghana",FALSE,25.922,1561.522,20.2432159885365,40477773.284,524744.644854843,,,,0,13,638.832853633884,25.922,4975.58527527294,5508.12397970592,2.32975024233019,701.655420866388,25.922,5689.04510284402,6154.51848766728,2.23795207644858,25.922,288.908780508977,524.744644854843,17.1978006488804,0,156.067978619803,0,25.9281290077137,0,60.1383640237237,0,48.9642236867189,0,14.0535533660239,0,129.059375734823
-2.7472,11.7775002,BFA,"Sébékoro - Mali",FALSE,40.627,1561.522,21.1605772475616,63439954.294,859690.771836685,,,,0,13,574.930120136485,40.627,6708.13187009849,8687.47480070926,2.43739727834816,649.165789216888,40.627,7978.94098590091,9559.21741716907,2.31378660296242,40.627,403.671511101247,859.690771836685,19.0803448046283,0,235.659604269643,0,27.3158534185996,0,116.432483839069,0,43.7074388543581,0,21.3154230523714,0,135.563281712156
-3.03983,6.1229501,GHA,"",FALSE,0,3802.82235998441,26.9757504642009,0,0,,,,0,14,301.535255047013,1e-06,6.56736528507599e-05,6391.73085450195,4.18456737050017,612.325216938761,1e-06,0.000180668596522948,10769.3385345058,3.3272692058461,1e-06,425.317498021568,2.69757504642009e-05,28.6905740860792,0,102.063343262939,0,74.2961671665438,0,106.830422025676,0,72.0693336204926,0,136.166464637286,0,61.3056435736313
-2.75492,6.4242897,GHA,"",FALSE,0,3953.2102,29.0369393929079,0,0,,,,0,14,429.537132021886,1e-06,0.000108870244092503,7400.22549549324,3.41931589030651,668.209139750763,1e-06,0.000204676869544734,8512.86979222178,3.156143952373,1e-06,309.946178829344,2.90369393929079e-05,28.7309414933775,0,74.4741866557158,0,74.3367293687499,0,130.314650516999,0,51.1931642117842,0,83.6769062786743,0,68.7813457317734
-2.366508,12.250045,BFA,"Koudougou - Burkina Faso",TRUE,252.816,1560.77676867213,26.6972220059627,394589339.548613,6749484.87865947,,,,0,13,563.132335964991,252.816,40525.4349797017,58627.9724264289,2.45915143191992,586.323325611734,252.816,42930.4891196089,58061.5807124201,2.41698405119981,0,1464.9298266738,0,28.0966821830995,252.816,2021.16147792178,6749.48487865947,22.6707303179803,0,916.94327381125,0,38.3976795571758,0,125.498594195691,0,144.579675414783
-2.883702,7.283584,GHA,"Domaa-Ahenkro - Ghana",TRUE,1000,3838.14915389001,37.1443756204362,3838149153.89001,37144375.6204362,,,,0,14,726.264359956411,1000,230546.108436568,256375.867788314,2.20513389456703,805.387861814068,1000,267248.597694881,302953.620996394,2.1095407755737,0,2821.75209162542,0,47.653268590801,0,1683.96847078327,0,67.2278411817474,1000,30368.1522435156,37144.3756204362,9.7759754662482,0,980.674221179975,0,96.402483151309
-2.800007,8.033291,CIV,"Bondoukou - Côte d’Ivoire",TRUE,141.568,3415.9826182662,35.1347520530404,483593827.30271,4973956.57864482,,,,0,12,750.703724232234,141.568,34218.1831562988,40805.3068699845,2.17408206276389,794.346745058416,141.568,37095.0792787583,45279.5526695874,2.12205913305156,141.568,2570.73667133174,4973.95657864482,14.3655280696509,0,425.953402753501,0,47.6193620707678,0,783.755195536336,0,31.7130375773948,0,140.56962344119,0,99.7157910074536
-3.0037599,9.2666302,CIV,"Birkat as Sab‘ - Egypt",FALSE,94.883,3281.84616266209,23.3886063445532,311391409.451867,2219181.13579024,,,,0,12,663.776963034744,94.883,19236.597822402,21946.8234588364,2.29181864452758,691.238676084226,94.883,20383.5341493808,24112.045825601,2.25234500593507,94.883,1266.16652841232,2219.18113579024,16.0618988552345,0,309.498813873623,0,41.0851627489914,0,357.131381277008,0,37.345576327927,0,74.7410637666854,0,105.946055470335
-2.500115,10.066876,GHA,"Wa - Ghana",TRUE,107.214,3936.48868750266,37.1891567694194,422046698.141911,3987198.25387653,,,,0,14,642.837848816791,107.214,20763.6925773849,37189.1965271048,2.32351949591299,688.016144086722,107.214,22879.3368703683,42212.9441260769,2.25685790550992,107.214,2175.1718034045,3987.19825387653,16.2981439774675,0,538.814669563772,0,41.3214900451893,0,727.36286880323,0,33.8298884345984,0,105.928723517115,0,122.215422794121
-2.7890699,11.0427799,BFA,"",FALSE,0,2197.95807905528,23.1288106598402,0,0,,,,0,13,650.919877212855,1e-06,0.000197153574231403,2589.51555950761,2.72006967733631,989.24471272228,1e-06,0.000358496521592261,3175.76166921298,2.50138584015042,1e-06,125.179170099096,2.31288106598402e-05,21.5968878074688,0,75.226406564844,0,30.3272232401107,0,41.5188353813896,0,45.0729132778758,0,8.14891807747131,0,133.45843905586
-2.75752,5.2915597,GHA,"Kolda - Senegal",FALSE,27.938,3680.15963132643,31.4353166300399,102816299.779998,878239.876010055,,,,0,14,188.417670270701,27.938,937.235383271168,5576.03640892688,3.93156912436231,226.361263896909,27.938,1218.08595061216,7618.75084884347,3.63427289489845,27.938,220.125630140652,878.239876010055,38.5975995374234,0,68.3149897834434,0,84.2032147418001,0,71.1175927203635,0,81.9763271530744,0,158.173435466994,0,48.1117322791965
-2.49212,9.0273695,GHA,"Mesra - Algeria",FALSE,10.555,3903.89231157778,29.1246396378985,41205583.3487034,307410.571378019,,,,0,14,468.76178889096,10.555,1301.9186501996,8166.9364142262,2.66026282037352,552.032730003525,10.555,1644.48704040645,8925.58541203663,2.48022260377015,10.555,318.758821774255,307.410571378019,22.8703756382868,0,105.185472511793,0,47.8936577937037,0,228.001331857659,0,28.5950298161534,0,29.2951492838949,0,112.301280973287
-1.911082,34.686468,MAR,"Oujda-Angad - Morocco",TRUE,619.82,7265.94785567517,64.1855171619656,4503579799.90458,39783467.2473295,,,,0,8,920.745557596374,619.82,200553.562553213,200633.1743057,1.99192669585617,1035.8004298237,619.82,237291.651655783,278321.892315339,1.89390083801026,0,1049.18500395058,0,78.190496477674,619.82,36903.3051369916,39783.4672473295,7.28358710601858,0,806.185955422318,0,93.2034773125372,0,1966.66880899172,0,51.4321457701421
-2.63341,7.4203897,GHA,"Béchar - Algeria",FALSE,96.471,3953.2102,36.4293790503192,381370141.2042,3514378.62636334,,,,0,14,617.362074279906,96.471,17634.4542891649,36000.7706098952,2.36413858452808,679.25450552894,96.471,20213.2962379608,35980.4726336023,2.2692914884643,96.471,1032.5434405865,3514.37862636334,24.2100807821349,0,424.540756288079,0,43.7846421563094,0,1141.13470938051,0,22.6487096312029,0,120.576553804224,0,101.335011057408
-2.42713,6.64852,GHA,"",FALSE,0,3953.2102,30.0019266172557,0,0,,,,0,14,477.549026104354,1e-06,0.000126662520552836,19965.9433391089,3.22287886486386,753.361106071671,1e-06,0.000242931689686061,27796.4847948029,2.93720039623374,1e-06,473.525013339563,3.00019266172557e-05,44.3640632234353,0,286.316682480633,0,62.0434016198452,0,1078.87381192473,0,25.622016538142,0,180.411895081209,0,84.4144392107359
-1.9408599,7.58079,GHA,"Nnewi - Nigeria",FALSE,104.212,3953.2102,38.4258396252504,411971941.3624,4004433.5990266,,,,0,14,435.544980298965,104.212,11572.961237567,48202.5132963497,2.74539294892909,506.429943294392,104.212,14354.7768576487,49903.0840843505,2.57358528877921,104.212,1332.54118832039,4004.43359902659,28.8073456748215,0,650.043799958189,0,46.4866532516665,0,1448.71009105227,0,27.2459752811593,0,198.615766138559,0,102.474183014747
-2.3793299,11.9639797,BFA,"Gīnīr - Ethiopia",FALSE,8.983,1555.86958355345,20.7091832742223,13976376.4690606,186030.593352339,,,,0,13,432.243876423104,8.983,986.79725759682,4478.60617743406,2.75435755163755,543.089671974665,8.983,1367.28910914183,4504.93644015414,2.49764420188743,8.983,153.888217341826,186.030593352339,23.7239023907666,0,102.720923596794,0,31.0611094168502,0,77.8116989465327,0,37.3788969392701,0,10.7110157977737,0,140.206870929676
-2.3323998,7.3266597,GHA,"Matola - Mozambique",FALSE,225.038,3934.99061586051,37.6600902235125,885522418.212017,8474951.38371881,,,,0,14,506.561462678432,225.038,31009.5651580539,64067.6375780235,2.57330068501172,535.561186860945,225.038,33576.4033662443,61525.1667804441,2.51263124741287,0,1280.81693804542,0,33.2026497733636,225.038,1299.5154563302,8474.95138371881,32.883356261122,0,1376.78051813726,0,31.6412884148607,0,284.937930944919,0,90.4337343785486
-1.527486,12.368619,BFA,"Ouagadougou - Burkina Faso",TRUE,2497.171,1561.522,38.4954008979503,3899387454.262,96129598.7557355,,,,0,13,730.952674348041,2497.171,581029.602938887,618989.411177668,2.19906102695846,797.827889562475,2497.171,658434.351310772,704490.411751794,2.11808265903878,0,6560.03253890328,0,47.8544518896801,0,3870.83175288342,0,68.0231721714322,2497.171,85858.0910041262,96129.5987557354,8.61665508273847,0,1138.8724779333,0,153.77169563601
-0.85435,10.77911,GHA,"Calabar - Nigeria",FALSE,93.991,3844.83852701892,32.5092252880077,361380217.993035,3055574.59404513,,,,0,14,533.101895523782,93.991,13931.8585940188,27929.0057734873,2.51759236022197,609.843480812102,93.991,16882.9869491327,31165.0861916072,2.37658522766134,93.991,1292.87963769143,3055.57459404513,19.8317177489403,0,346.8693262705,0,47.674724024878,0,784.544690670525,0,27.6685954390661,0,80.9733198823738,0,125.748954913061
-2.02933,8.1420498,GHA,"",FALSE,0,3909.39329504001,30.4736731110018,0,0,,,,0,14,701.805815486559,1e-06,0.000219535035463316,290.333554216496,2.61209270973928,1044.41601895141,1e-06,0.000387396836382775,671.302130099242,2.42366751300327,1e-06,20.1821267514923,3.04736731110018e-05,25.0672357219861,0,7.14486703927894,0,50.0905208246672,0,21.7827252671524,0,23.8237993621696,0,2.27160334293603,0,107.530061837654
-0.852935,9.408997,GHA,"Tamale - Ghana",TRUE,1146.388,3953.2102,39.9885546755501,4531912734.7576,45842399.2173945,,,,0,14,784.042585555947,1146.388,294837.126300028,320846.078900863,2.13396737851647,846.668117827615,1146.388,329047.56054364,358100.560903803,2.0648359694665,0,3782.34601569007,0,42.8923793148232,0,1898.3520171057,0,67.9156307647862,1146.388,39256.4031696031,45842.3992173945,9.01467471817344,0,744.543787307829,0,126.753618276832
-2.0349898,7.0902801,GHA,"El Wak - Kenya",FALSE,45.153,3953.2102,34.7409805927437,178499300.1606,1568659.49670415,,,,0,14,377.359076270468,45.153,4085.49330279802,25739.7783679753,2.91940995002864,434.728216833085,45.153,5000.90760765016,29970.7087020819,2.7476003534102,45.153,590.35350095971,1568.65949670416,37.6712570253321,0,331.469763088347,0,55.3505857812538,0,1148.43564119233,0,24.1739259732264,0,147.24125079158,0,95.0747670585958
-1.89963,5.9580197,GHA,"",FALSE,0,3910.51913372888,33.3768235924992,0,0,,,,0,14,378.636041681381,1e-06,9.09188267264056e-05,12243.6433499851,3.67166169219763,606.312959926681,1e-06,0.000178139743552251,35125.0760647346,3.34726085525056,1e-06,482.940775931308,3.33768235924992e-05,58.3227054217565,0,324.648107579915,0,76.0020649319705,0,863.824899097853,0,39.580806383058,0,615.700861011774,0,49.6045544844441
-1.625058,6.70004,GHA,"Kumasi - Ghana",TRUE,6898.949,3953.2102,55.7015155157662,27272995556.0798,384281914.76598,,,,0,14,806.105711997929,6898.949,1846082.52096419,1955894.05495227,2.10873744310225,874.379781009456,6898.949,2073439.00729658,2202980.96701932,2.03652532958619,0,9067.0030056979,0,79.2965768412771,0,6704.24060362675,0,96.9759065442158,6898.949,366027.812777956,384281.91476598,6.73836133209565,0,6726.44350199767,0,96.76239291309
-2.26566,12.9614601,BFA,"Zomba - Malawi",FALSE,78.833,1627.34871682273,19.3775853082574,128288781.393286,1527593.18260586,,,,0,13,482.35375946197,78.833,10129.0143385384,21494.1647642055,2.62787368367395,572.296233152933,78.833,12931.4156440464,27561.8855898846,2.44219773372045,78.833,1133.78128346084,1527.59318260586,20.4943248837768,0,405.676868134123,0,40.663059975811,0,615.535845169434,0,30.7953255083507,0,57.9610254232558,0,148.786239676381
-1.083295,13.083043,BFA,"Kaya - Burkina Faso",TRUE,141.824,1561.522,20.6131088024861,221461296.128,2923433.54280379,,,,0,13,552.233102664259,141.824,22107.8801966085,26486.2030051996,2.47984170907168,596.108871184642,141.824,24659.2675254476,28552.8354022143,2.39990230898134,141.824,1458.68899812954,2923.43354280379,17.4308318881103,0,276.011038436877,0,52.8861382815324,0,630.5022796988,0,30.4907977906683,0,70.8320027155727,0,130.960259315559
-2.0190399,12.1964092,BFA,"Sakouéba - Mali",FALSE,41.911,1578.17761345313,20.6985723020877,66143001.9574339,867497.863752799,,,,0,13,454.298794370343,41.911,4943.21947301334,19099.5435801429,2.69623586676787,554.055383589304,41.911,6564.01121322311,22752.118211488,2.47633908346581,41.911,867.497863566464,867.497863752798,21.8598055597472,0,349.093787099801,0,40.1047883514425,0,532.963173756219,0,30.2477402151724,0,48.6253495955831,0,149.250564316899
-1.9836799,4.92097,GHA,"Bocaranga - Central African Republic",FALSE,27.719,3953.2102,37.6841551729159,109579033.5338,1044567.09723805,,,,0,14,249.285040496952,27.719,1387.10361699297,20458.7589212564,3.48708683737805,363.387278111193,27.719,2376.44732313098,17195.3925235833,2.96699723179526,27.719,239.018189648425,1044.56709723806,51.3221293452479,0,154.119457304723,0,68.7628055995315,0,184.81681018214,0,60.9205954861409,0,624.443511312328,0,27.0559671966174
-0.78598,32.4087105,DZA,"",FALSE,0,13888.5151898265,38.4111599953153,0,0,,,,0,10,542.449110788896,1e-06,0.000151952115825222,3721.9481005039,3.00386600502743,833.959356289282,1e-06,0.000280894818821249,3942.06153761398,2.76516015966057,1e-06,212.545345650475,3.84111599953153e-05,19.3746962335791,0,95.4403136258227,0,33.0406020808115,0,9.71388798593467,0,151.56780957626,0,30.5329395140987,0,70.6355787470108
-0.29448,27.9394188,DZA,"Cuango - Angola",FALSE,77.757,13747.3943974488,41.9438900722357,1068956146.16242,3261431.06034683,,,,0,10,739.599490961577,77.757,18398.6382073273,21224.863164147,2.18803252804967,798.239383924758,77.757,20517.4604507269,23297.1308319899,2.11761842716458,77.757,3260.50636271185,3261.43106034683,7.85585609076328,0,212.653527931763,0,48.4841602618655,0,50.8456826999786,0,125.857442111347,0,66.8565280529917,0,104.862302758176
-1.735029,8.052471,GHA,"Kintampo - Ghana",TRUE,111,3953.2102,31.8375771190788,438806332.2,3533971.06021775,,,,0,14,633.324215209004,111,21043.8683513914,29268.3774859362,2.33841444656495,690.169655682973,111,23793.2526003872,32127.8993621608,2.25384108362985,111,1021.6321818227,3533.97106021775,22.4551268684235,0,304.467007009347,0,50.3288996184415,0,1112.77685417211,0,21.2115778483043,0,99.1667987956573,0,106.316399062907
-1.704435,4.940486,GHA,"Sekondi - Ghana",TRUE,345.041,3953.2102,55.5145875968161,1364019600.6182,19154808.818993,GHTKD,Takoradi,AI,343.8114,14,1164.20180447586,345.041,156095.61147673,192625.716274636,1.80138369931767,1153.11316394695,345.041,153976.0121584,223629.756570251,1.80878769967849,0,957.908759273227,0,68.5790025662855,0,1545.64103434799,0,49.8503664525004,0,1215.47543969364,0,58.5117753936947,345.041,23409.5173870328,31875.830618993,8.14352234024835
-1.66741,7.6862698,GHA,"",FALSE,0,3953.2102,34.7148244506919,0,0,,,,0,14,717.370809812791,1e-06,0.000226523605303825,541.108897138726,2.58160771173946,973.567010634037,1e-06,0.000350407729139288,976.051271522088,2.5247837661288,1e-06,28.2617655358812,3.47148244506919e-05,26.7756355896597,0,10.5033749181759,0,51.7988285562821,0,30.3514324703565,0,25.5321044028137,0,3.82708760755473,0,101.537579154235
-1.2003399,5.16293,GHA,"Lubango - Angola",FALSE,242.548,3953.2102,47.126908309488,958843227.5896,11430537.3566497,,,,0,14,414.516192872322,242.548,25097.0285914406,136115.233988912,2.80423888509986,477.27387755846,242.548,30696.4571729444,140556.015673127,2.63982547427649,0,698.982661948735,0,90.6073880795293,242.548,3599.26081790697,11430.5373566497,30.3854978167764,0,1913.2948562497,0,46.3041698035636,0,3637.53484966616,0,30.1719434529286
-0.983493,7.750098,GHA,"Atebubu - Ghana",TRUE,105.938,3953.2102,32.7029046576606,418795182.1676,3464480.31362325,,,,0,14,387.249454760521,105.938,9946.28986706878,33485.9842988567,2.88722048008623,401.359153315036,105.938,10468.0184358875,33228.842450442,2.84327383556942,105.938,772.877179323795,3464.48031362325,34.8942891619434,0,343.487889479221,0,59.9174916768053,0,1127.53937990152,0,27.1274327249271,0,171.944692743954,0,95.0393806937331
-0.47613,6.2894998,GHA,"Benguela - Angola",FALSE,186.596,3915.11583355947,41.0997756355816,730544954.078863,7669053.73449698,,,,0,14,388.56850634197,186.596,17604.4054295115,98543.6560634393,2.88300657379204,458.491820927153,186.596,22298.9396136092,106994.395520544,2.68564226468613,186.596,4321.51310931452,7669.05373449698,22.8138805130777,0,592.932824529075,0,85.7601421427259,0,1166.19557880912,0,54.6311289795192,0,1842.06259729662,0,40.2796314840271
-1.26867,12.4855795,BFA,"Kuvango - Angola",FALSE,33.296,1548.55313505811,24.8504324087384,51560625.1848949,827419.997481354,,,,0,13,391.431850801465,33.296,3174.43314839738,13701.1107731892,2.8739571243007,473.420273047913,33.296,4165.36329700044,15122.6779862209,2.649013120494,33.296,481.950207265034,827.419997481354,26.353309936733,0,140.638132451184,0,59.9010465327389,0,563.963919006962,0,23.7320798512846,0,40.2302821377553,0,137.975197937193
-0.433167,12.249994,BFA,"Pouytenga - Burkina Faso",TRUE,181.256,1596.38093961074,25.259614458178,289353623.590084,4578456.67823152,,,,0,13,684.351812816418,181.256,38385.8509381484,42506.9844339164,2.26203383312333,739.099987310795,181.256,42846.901325899,47373.8415437644,2.18863971245057,181.256,2974.37709801365,4578.45667823151,13.8548828446531,0,469.998341314524,0,47.40262088778,0,791.096231508775,0,33.5001723839597,0,109.132654192548,0,125.476755674006
-0.199998,5.549954,GHA,"Accra - Ghana",TRUE,3048.022,3953.2102,68.5172293751128,12049471660.2244,208842022.51439,GHTEM,Tema,QQ,7407.89336449,14,1364.9619164752,3048.022,1730777.83335504,1804374.26170471,1.68266263889849,1469.84129610135,3048.022,1923843.62311334,1996907.85371355,1.63010949736982,0,5176.08999264854,0,86.3881989979874,0,4017.47765101166,0,102.286879622148,0,3233.89802012168,0,118.205544079417,3048.022,473528.408253504,482934.07700052,4.25491987901251
1.65764,13.7969694,NER,"",FALSE,0,908.340884736449,18.21835659222,0,0,,,,0,15,540.2129103718,1e-06,0.00015105803595324,3690.98509110734,3.01069833266171,837.304331630175,1e-06,0.000282505711289497,3373.28177461155,2.75861018190991,1e-06,91.0738115684264,1.821835659222e-05,30.6523298707902,0,28.7548256784933,0,66.1076933805055,0,154.007052620801,0,21.5955562107677,0,8.92735804627882,0,144.181712837524
0.05265,8.85392,GHA,"Chinde - Mozambique",FALSE,8.6,3953.2102,29.5972745903776,33997607.72,254536.561477247,,,,0,14,305.587819157568,8.6,575.66841174042,7296.59417527761,3.19565474868975,428.096851290458,8.6,931.802389890606,9235.9168351089,2.76576211004841,8.6,338.675049542049,254.536561477247,25.057975982146,0,119.864279352674,0,50.0811185904898,0,148.866319648097,0,43.3448978127188,0,54.0158250926652,0,85.202900578523
-0.233454,11.049927,GHA,"Bawku - Ghana",TRUE,100.737,3443.348943435,35.8736219329596,346872642.514812,3613801.05266056,,,,0,14,865.861039961397,100.737,29855.4202862685,33165.9040372634,2.04508440844976,880.916145931227,100.737,30599.7589634624,35188.7315567483,2.03003455321863,100.737,2370.6636436786,3613.80105266055,12.2609993547817,0,400.753130661759,0,40.1040189655209,0,468.718438561833,0,36.1269223518037,0,79.223266692756,0,118.178284512922
-0.82513,9.98067,GHA,"Aioun - Mauritania",FALSE,12.666,3608.44598300667,29.1684758976839,45704576.8207625,369447.915720064,,,,0,14,458.038152388066,12.666,1511.49657563915,6535.03788285007,2.68678189325926,533.355070105843,12.666,1878.69744325074,7830.45574966035,2.51708286958855,12.666,208.714957950871,369.447915720064,28.2089301545645,0,74.5155752393292,0,56.0518213531224,0,319.152265517235,0,21.2532008656667,0,23.9877301536629,0,119.333485164427
-0.01374,9.4424696,GHA,"Luuq - Somalia",FALSE,52.008,3953.2102,30.0437969546538,205598556.0816,1562517.79201763,,,,0,14,521.397212223298,52.008,7468.2584308408,24346.9649902098,2.54166079183743,619.594687362537,52.008,9555.97542651396,30332.1424321904,2.360483695749,52.008,1414.99564287217,1562.51779201763,18.2151589039186,0,386.900953400149,0,43.2384071923098,0,498.803654033918,0,36.5020247415363,0,106.663463651322,0,102.076498600604
-0.22433,9.9239798,GHA,"Diallassagou - Mali",FALSE,10,3953.2102,25.3205514237845,39532102,253205.514237845,,,,0,14,598.959865155389,10,1750.61497215873,4269.35095500294,2.39499782490374,616.561089354112,10,1824.56680107674,5445.85594310053,2.3654541775558,10,230.608199619161,253.205514237845,19.4704304638848,0,60.8780700671686,0,47.3134087347313,0,121.611341565692,0,29.8292919083252,0,17.0346957104013,0,110.595022589488
-0.23763,32.7311096,DZA,"",FALSE,0,13822.566,39.9593271920494,0,0,,,,0,10,650.947009486511,1e-06,0.000197165314259838,2606.68150789385,2.72001924607835,972.381386909979,1e-06,0.000349798271824506,2570.74806820719,2.52658404075952,1e-06,130.183831136734,3.99593271920494e-05,18.4587235387071,0,86.690603014799,0,24.2061409078475,0,5.18078650343003,0,158.359219643026,0,15.1537810899966,0,77.4271072700934
0.062,34.1462479,DZA,"Magu - Tanzania",FALSE,18.568,13822.566,39.034247987274,256657405.488,724787.916627704,,,,0,10,856.846067470907,18.568,5421.33055154872,8527.48166388621,2.05428942511267,857.384699565231,18.568,5426.19973074678,8946.82408209664,2.05372963987942,18.568,552.682714581491,724.787916627704,13.1423235018264,0,250.258044122392,0,22.2876193405255,0,12.9217134987992,0,160.73443841467,0,59.5429116078427,0,58.0455723624562
-0.633443,35.696881,DZA,"Oran - Algeria",TRUE,725.418,13680.5691624158,63.5150657543658,9924131120.66136,46074971.9694005,DZORN,Oran,AI,255.6159,10,955.641209723247,725.418,247532.388975493,281338.977456865,1.96041882557781,1148.39176983571,725.418,321829.002391844,397212.196560831,1.81197111117706,0,3019.84598449586,0,46.8644076952412,0,2880.16211302055,0,48.3676538118472,0,622.58116209574,0,134.287525962599,725.418,47785.3313019755,55532.7602694005,7.43538140527946
-0.34739,35.5365906,DZA,"Kouribga - Morocco",FALSE,90.859,13775.9879587745,55.3395627750259,1251672489.94629,5028097.33417608,,,,0,10,601.650919885548,90.859,16008.1012868895,54823.3835391874,2.39039338214389,769.219014862701,90.859,22739.2505423169,55674.9084250246,2.15149291124093,90.859,2180.33539403738,5028.09733417608,18.6565252970366,0,1706.56910153485,0,21.9666420825208,0,81.965671777827,0,166.248667899414,0,710.529671135749,0,39.3965419371611
0.05872,6.15661,GHA,"Zagora - Morocco",FALSE,34.381,3953.2102,38.8969776080709,135915319.8862,1337316.98714309,,,,0,14,429.352442441196,34.381,3740.76890262905,10872.2004308804,2.76229190682015,450.161976916296,34.381,4002.44139379855,11217.2860457918,2.70682629052903,34.381,284.045865467001,1337.31698714309,31.3901283860462,0,79.1083455403718,0,73.6044481776074,0,95.7129488156818,0,64.8244190309241,0,334.9351583676,0,28.1240889074019
0.36174,12.0579901,BFA,"Mazabuka - Zambia",FALSE,73.2,1564.24563399205,22.6391773750371,114502780.408218,1657187.78385272,,,,0,13,552.580180810052,73.2,11420.8457237164,20412.2129556203,2.4791734136169,611.270911392525,73.2,13192.4235715334,22862.8392661291,2.37420607922262,73.2,974.919542434679,1657.18778385272,19.4517889961155,0,299.669575907083,0,42.7080584320241,0,503.337906222131,0,30.2249599116105,0,55.7358336701925,0,131.073466916528
0.3068,35.7280197,DZA,"Kassala - Sudan",FALSE,468.678,13822.566,55.9459393267844,6478332587.748,26220630.9517987,,,,0,10,921.905352567523,468.678,151921.895194904,168938.775331494,1.99085150744912,1065.20630785779,468.678,186749.523530063,197877.840339914,1.87131555922183,0,2579.23236191882,0,33.7871327878963,468.678,23240.9627038131,26220.6309517987,7.80265794521975,0,196.718558167096,0,187.865933448815,0,1062.85807941877,0,61.0138065973791
0.17407,26.7181301,DZA,"Asamankese - Ghana",FALSE,20.402,13754.6295522982,35.5508752420232,280621952.125989,725308.956687758,,,,0,10,468.776945266661,20.402,2516.62446127999,5500.78600567738,2.66020172866779,530.969498568662,20.402,3006.83006333452,6024.37511592109,2.52192850685567,20.402,609.526634768291,725.308956687757,11.6148862355301,0,77.5084656252169,0,45.9309115276421,0,19.2668923562201,0,116.179945497848,0,21.3125748657571,0,108.621311798371
1.0877,26.958849,DZA,"Kherrata - Algeria",FALSE,18.598,13747.3415581596,37.6662944731761,255673058.298652,700517.744612129,,,,0,10,676.575196750671,18.598,3874.84669701545,5177.59262404234,2.27315103444482,733.009752440437,18.598,4344.69988560342,5696.50098964674,2.19640747324029,18.598,700.517715629115,700.517744612129,8.88187846908828,0,66.0371744199777,0,42.8805138616447,0,14.0614693789205,0,120.253778390342,0,16.0528291240423,0,110.090957803148
2.101906,34.108919,DZA,"Aflou - Algeria",TRUE,114.592,13822.566,42.5694418617965,1583955483.072,4878117.48182698,,,,0,10,826.907011104488,114.592,31800.1489885415,37536.1765324334,2.08583409724354,904.041146563836,114.592,36121.0113985911,42105.755099623,2.00761495696722,114.592,3200.82801912034,4878.11748182698,11.1874933233858,0,1221.09510152337,0,21.2687497409451,0,56.3749141897674,0,165.266301878825,0,169.033996809217,0,79.4802357026135
3.666624,32.483817,DZA,"Ghardaïa - Algeria",TRUE,210.733,13822.566,54.3332823474776,2912870800.878,11449815.588931,,,,0,10,897.745319085602,210.733,65766.1425875987,73420.6564515297,2.01363916484676,966.019508745159,210.733,73026.0354453906,80857.1594608287,1.9513661050566,0,1239.21125279786,0,31.6267056623888,210.733,9383.01805765209,11449.815588931,8.20205673701855,0,129.767646579086,0,142.355263402383,0,255.605745254338,0,90.5949777107843
0.20933,10.8734493,TGO,"Al Manāqil - Sudan",FALSE,58.071,1468.95664149522,31.2532292472104,85303781.1282692,1814906.27561475,,,,0,16,746.611855079532,58.071,13927.0832212925,17431.7313524658,2.17917456460323,795.228914684695,58.071,15240.4974902059,19121.4278521893,2.12104663926393,58.071,1035.64590137816,1814.90627561476,14.8168663757062,0,336.840562439962,0,31.3290657259575,0,215.70426555583,0,42.1687576712663,0,49.3581574104917,0,112.717585495737
0.05048,5.7687697,GHA,"Ténès - Algeria",FALSE,37.402,3953.2102,53.4407004820401,147857967.9004,1998789.07942926,,,,0,14,350.702700241466,37.402,3047.9071453313,24367.8235992473,3.01252219992224,454.095472593233,37.402,4408.58241248447,28510.8712306219,2.69675273298678,37.402,374.265543336559,1998.78907942926,48.461280789394,0,244.539150930979,0,64.3599870062554,0,170.365585720254,0,81.8955190573935,0,1539.15653340273,0,18.8796051905318
0.77777,18.9019699,MLI,"",FALSE,0,2285.3071,12.4608224567388,0,0,,,,0,9,284.764882364378,1e-06,6.0518588862372e-05,4612.16648375486,4.3263130550074,482.140228805319,1e-06,0.000128405734765132,5186.47937560387,3.85193754275069,1e-06,206.068122426179,1.24608224567388e-05,33.0816899569959,0,70.863390734263,0,67.3977847095557,0,78.7552975761159,0,62.8165917122847,0,26.4262104832199,0,130.088192635686
1.4786099,14.2064199,NER,"Namakgale - South Africa",FALSE,19.262,902.661251353596,18.3109624941318,17387061.023573,352705.759561966,,,,0,15,321.838794484052,19.262,1388.42219067265,4307.16949184442,3.12547928796329,388.870429310089,19.262,1819.29153465717,4330.63145497376,2.88205059466817,19.262,164.600871831531,352.705759561967,25.4945992174175,0,37.3971189782984,0,68.4716026290097,0,140.522929913412,0,28.3293709356974,0,11.7966476041677,0,147.762218875654
0.46922,10.3394394,TGO,"Hamma Bouziane - Algeria",FALSE,34.791,1791.52743346508,23.7423490738048,62329030.9376835,826020.066626741,,,,0,16,571.553544077807,34.791,5696.38408254201,9982.26958079039,2.44355978503739,676.42503041375,34.791,7246.31944302634,11089.8622299267,2.27335610705922,34.791,538.661964919689,826.020066626743,17.0768262964773,0,203.826319276273,0,32.6421103761287,0,128.360205607034,0,44.4287971936008,0,33.8291113124361,0,108.083195908146
1.14132,9.47579,TGO,"Cacongo - Angola",FALSE,33.327,1373.44357100469,23.4389778775196,45772753.8908734,781150.815724097,,,,0,16,578.488178905067,33.327,5551.50598078171,13072.2439081761,2.43096307464984,736.043869300474,33.327,7831.63686238417,16664.8221521776,2.19252924853032,33.327,887.890597385555,781.150815724096,15.4848027688147,0,330.811882001004,0,29.9060515735648,0,127.922922556928,0,56.3439275190649,0,62.8810309593868,0,90.461973059354
0.59562,6.0068398,GHA,"",FALSE,0,3953.2102,37.1738924725988,0,0,,,,0,14,710.362409525323,1e-06,0.000223368754819011,9451.13588658846,2.59522259193146,1095.57800130024,1e-06,0.000414788954148217,12080.2433833934,2.35749030533696,1e-06,177.073603025144,3.71738924725988e-05,39.360848353623,0,113.321454011165,0,53.0020310910445,0,54.721413827575,0,86.1116235875824,0,657.155829102397,0,16.4205686535862
0.50771,7.5739598,GHA,"Kayanza - Burundi",FALSE,11.503,3218.33666164992,33.5632575458883,37020526.618959,386078.151550353,,,,0,14,272.997333495151,11.503,655.415970028399,10367.648240676,3.35390478312412,371.202254779182,11.503,1016.63023112556,13146.6688158128,2.9400698896525,11.503,386.07815830575,386.078151550353,30.887771672247,0,168.804354552692,0,53.6180331853154,0,144.327967382703,0,59.5206189169788,0,170.748222752608,0,53.2104144754596
0.470198,6.611847,GHA,"Ho - Ghana",TRUE,183.715,3893.07070546691,38.4335396256206,715215484.654853,7060817.73232089,,,,0,14,580.026105431365,183.715,30718.9540477853,70894.5008929726,2.42819665504296,624.529260974053,183.715,34140.593617113,79210.9823600464,2.35247269956526,183.715,2714.56210646601,7060.81773232089,22.2971052268208,0,569.584827165412,0,63.1454990312313,0,498.13375907164,0,69.0479407967919,0,2087.51531173099,0,26.5641012577452
0.14396,34.7495003,DZA,"Meknès - Morocco",FALSE,128.413,13832.7356266939,48.9472390691589,1776303080.03064,6285461.8105879,,,,0,10,868.763281738228,128.413,38240.1204699019,50760.6669585066,2.04216098242654,937.755144191218,128.413,42651.1433247569,55723.0706470123,1.97635935661386,128.413,3568.98986534324,6285.4618105879,12.3459878809748,0,1738.8850921054,0,19.9392408355554,0,72.1118628278895,0,166.424781195428,0,304.269012438005,0,63.7358916133821
1.316772,35.366641,DZA,"Tiaret - Algeria",TRUE,273.948,13822.566,52.0993930151733,3786664310.568,14272524.5177207,,,,0,10,933.760280013938,273.948,90435.962209487,101512.207921613,1.9799793642657,1029.77109619528,273.948,104007.108626788,114629.654547507,1.89864551884531,0,2209.59837562572,0,26.4098724743195,273.948,11241.1863217075,14272.5245177207,8.92826598068364,0,123.676672362866,0,180.488673748686,0,545.121864568706,0,67.1397186674527
0.83412,11.1550198,BFA,"Missour - Morocco",FALSE,13.579,1539.16365357952,21.9358482617815,20900303.2519562,297866.88354673,,,,0,13,559.870197294219,13.579,2158.67104516798,6637.40445562683,2.46528150969773,639.991996542921,13.579,2613.17304910983,7286.18562422303,2.32794082687914,13.579,297.866889597671,297.866883546731,19.616614304041,0,156.358628466108,0,30.1456040229134,0,97.5688446347222,0,41.2823906968806,0,20.0594556169205,0,118.511124215386
1.064238,10.697912,BEN,"Matéri - Benin",TRUE,260.509,1341.27023884108,22.6149908758556,349412968.65025,5891408.65807827,,,,0,17,617.596226296852,260.509,47645.6486202652,58725.9064989718,2.36375438094298,682.972750868175,260.509,55011.0607375802,63695.9321602773,2.26398826841785,0,1993.51236957192,0,22.7965689664731,260.509,2265.53436351654,5891.40865807827,20.9331640239499,0,610.992414612664,0,50.1484768934267,0,188.296270070815,0,109.914336120053
1.331625,36.164677,DZA,"Chlef - Algeria",TRUE,575.939,13822.566,54.0496792570843,7960954839.474,31129318.2216458,,,,0,10,962.529010546619,575.939,198552.723605024,201328.873930604,1.95439680674475,1052.11491572122,575.939,225470.228712398,228237.621853171,1.88126147781866,0,2537.15574570435,0,37.7695634920943,575.939,29862.2174620945,31129.3182216459,7.29950203720626,0,221.627071226349,0,191.848363026066,0,1123.9001105237,0,64.9962323645855
