lon,lat,iso3c,city_country,city_port,population,gdp_cap,IWI,gdp,wealth,port_locode,port_name,port_status,outflows,ctry,uj_orig,Lj_orig,Cj_orig,Dj_orig,PCj_orig,uj,Lj,Cj,Dj,PCj,Lj_1,Dj_1,Yj_1,Pj_1,Lj_2,Dj_2,Yj_2,Pj_2,Lj_3,Dj_3,Yj_3,Pj_3,Lj_4,Dj_4,Yj_4,Pj_4
-17.446713,14.692814,SEN,"Dakar - Senegal",TRUE,3223.755,2287.6685,70.2606002240275,7374882765.2175,226502961.27521,SNDKR,Dakar,AI,2417.263262,1,1650.23819036064,3223.755,1037367.29744854,1078653.46868189,0.512833172413073,1661.01432621607,3223.755,1107133.5219352,1143404.32727415,0.483654693254642,0,2146.37954952072,0,31.7831994287479,0,3544.43670799194,0,22.7494277669413,0,637.408674250181,0,71.4041271430411,3223.755,311884.696250545,315941.70196921,1.14993312378592
-17.044529,14.7029696,SEN,"Yaoundé - Cameroon",FALSE,505.227,2302.16270413245,52.2935947198641,1163114756.52073,26420135.9795328,,,,0,1,1607.60436659029,505.227,125136.070353454,221759.791390326,0.649057549201648,1622.87132565484,505.227,137540.820032026,242749.324146498,0.596127325289036,0,2622.98121012298,0,12.1968475661677,505.227,19861.0476479055,26420.1359795328,3.16307590205598,0,299.535588228901,0,51.8177752942967,0,3253.58503450704,0,10.5650025918022
-16.6384888,15.1122198,SEN,"Dzolokpuita - Ghana",FALSE,74.508,2361.8791047779,42.0766985704881,175978888.338792,3135050.65708993,,,,0,1,1589.47853779673,74.508,16476.0756297323,26868.9247827316,0.718792935010954,1602.32536605753,74.508,17857.2333941795,29017.6616582346,0.668558539673593,74.508,1264.34884369003,3135.05065708993,5.39928731136336,0,867.431807856514,0,6.94103370351457,0,52.5122016500386,0,45.02021507086,0,292.020524999586,0,14.3429603386388
-16.4633198,14.7565098,SEN,"Gusau - Nigeria",FALSE,113.325,2297.65604456748,38.0772661124075,260381871.25061,4315106.18218858,,,,0,1,1587.45088277079,113.325,24741.890699063,36814.0309087191,0.727098301189194,1606.96401274856,113.325,27957.0554277453,38266.9099823022,0.651389048121169,113.325,1262.24228559686,4315.10618218858,6.33326361394013,0,1470.316642319,0,5.72069508148082,0,64.5797529453857,0,45.9541915757599,0,423.207305893071,0,13.1226217707713
-16.4205399,14.3423595,SEN,"Chipinge - Zimbabwe",FALSE,18.416,2269.64499576379,37.4244716433748,41797782.2419859,689209.069784391,,,,0,1,1564.06524668471,18.416,3466.15641818847,14559.0089893136,0.831001905448596,1588.90019030512,18.416,4057.56668635522,17081.6049026208,0.721151084146047,18.416,539.99244855787,689.20906978439,7.21307172889329,0,626.402901506799,0,6.53345445728969,0,32.6381997664241,0,46.8339994668598,0,201.089684419163,0,13.9353810151734
-17.033333,20.933297,MRT,"Nouadhibou - Mauritania",TRUE,118,5196.45446473013,38.9206658183864,613181626.838156,4592638.5665696,MRNDB,Nouadhibou,AI,197.0295,2,1664.39418292951,118,41356.9106185582,45786.591234445,0.47488668852015,1687.92884582255,118,47591.2977724132,52457.6497730918,0.418512656090017,0,310.486376706171,0,12.7904585983963,0,158.703924176475,0,20.0073409220235,0,45.3975872935792,0,46.084969254702,118,10192.0301595696,11882.7300665696,1.24759611792232
-16.8981705,21.2914486,MRT,"",FALSE,0,5538.53368337853,18.6296720206833,0,0,,,,0,2,1629.38481526701,1e-06,0.000283361495597141,8683.3448403455,0.931141388699264,2186.07749012415,1e-06,0.00535500293340569,9417.4945693432,0.718149148151614,1e-06,143.557905326055,1.86296720206833e-05,11.6811829733728,0,69.7639938469866,0,18.89806533564,0,19.001616530932,0,44.9756938655973,0,752.674146740146,0,3.87049848076163
-15.978542,18.085588,MRT,"Nouakchott - Mauritania",TRUE,1440.712,3726.39485774327,41.8651880562521,5368661788.28902,60315678.8148991,MRNKC,Nouakchott,AI,334.524,2,1602.60399876268,1440.712,345894.441765954,371369.420818203,0.66751254060882,1626.14829671073,1440.712,400205.311894758,430727.667625265,0.585402366166818,0,2961.86067912233,0,16.188746991412,0,1576.15158423616,0,24.6523125148557,0,681.378393615659,0,43.1185433777442,1440.712,67531.4794560866,72693.0668148991,2.01334782669001
-15.67383,23.8871498,ESH,"",FALSE,0,7041.16211331411,31.3978211479454,0,0,,,,0,3,1651.78881900568,1e-06,0.000324824972050593,11536.8962762818,0.825143929452457,2230.85039680333,1e-06,0.00655856246923157,11530.9140257708,0.66280095510113,1e-06,635.312742332198,3.13978211479454e-05,4.57755850139166,0,153.611025269298,0,11.7944408454319,0,19.2771691233284,0,47.05402509143,0,211.542500443354,0,9.52855823380389
-16.2439098,15.6356897,SEN,"Banikoara - Benin",FALSE,93.802,2287.6183979327,43.5760615586268,214583180.962884,4087521.72632231,,,,0,1,1604.3678962722,93.802,22769.6271115677,33205.7235942748,0.660937187405504,1620.96644241253,93.802,25238.0925448993,39492.9631418622,0.602461911110655,93.802,2680.3335008813,4087.52172632231,3.62090267453963,0,698.074415932653,0,8.87854078301363,0,64.9468383413841,0,43.2418301572785,0,384.717252697442,0,13.2083418354497
-16.577537,13.453171,GMB,"Banjul - Gambia, The",TRUE,976.753,1827.81084253539,39.6195599018914,1785319723.87897,38698523.9928521,GMBJL,Banjul,AI,184.275,4,1611.3607763499,976.753,247637.73426033,266574.383103011,0.635566207238567,1636.90889178764,976.753,289823.783317365,318623.261489466,0.551664757463817,0,3633.9473869595,0,10.8878251083298,0,1466.6451925537,0,19.9362521398392,0,416.085698430028,0,46.1748011708974,976.753,39649.7311587663,45516.6989928521,2.21326489112736
-16.2409897,12.7924099,SEN,"Quelimane - Mozambique",FALSE,91.883,2295.74090262069,36.7829540931087,210939561.355497,3379728.1709371,,,,0,1,1568.31754253906,91.883,17769.6698575078,30211.8801283428,0.810942062794745,1598.11843919051,91.883,21450.0831696087,31657.0833213217,0.68456572335754,91.883,1108.86578287559,3379.72817093711,6.39454666476584,0,209.031068078709,0,19.4501008136369,0,58.0605497313902,0,45.6886495497381,0,1511.67253807409,0,5.20104486587516
-16.076402,14.138908,SEN,"Kaolack - Senegal",TRUE,187.932,2278.7640345833,45.3761239685572,428252682.54731,8527625.72965889,,,,0,1,1615.20098730478,187.932,48794.4738079148,67438.2252221841,0.622094941546052,1630.38913121658,187.932,53581.84207392,82180.5060565494,0.57183978525855,187.932,6393.99647280009,8527.62572965889,3.13765589821819,0,835.380183798007,0,12.186082929054,0,127.099955134118,0,42.7585836404041,0,1147.80282886157,0,9.8599651837666
-15.6096001,13.5730095,GMB,"Bria - Central African Republic",FALSE,70.315,1877.21348753621,26.69126049904,131996266.376109,1876795.98199,,,,0,4,1563.99661673686,70.315,13228.4896842021,21496.2318857183,0.831330154301422,1590.53203225357,70.315,15652.2353637647,25726.8051014147,0.714519413218432,70.315,1034.67979623581,1876.79598199,6.08696247316264,0,263.886090112134,0,15.1353896170635,0,58.3870603006188,0,41.3739385525763,0,756.788123198213,0,7.49816624516532
-16.50258,16.034409,SEN,"Saint-Louis - Senegal",TRUE,154.555,2616.38725725041,41.8228350121846,404375732.544337,6463928.26530819,,,,0,1,1632.87043411441,154.555,44740.8781083459,45517.5525332068,0.564066506528976,1649.50404765322,154.555,49513.2124594994,51124.4158823365,0.514891048316902,154.555,5564.31425739712,6463.92826530819,2.25870656349874,0,537.986179977862,0,10.722272358072,0,65.5907268334611,0,43.6086477101739,0,377.64518976763,0,13.5751595583978
-15.804984,16.512799,MRT,"Rosso - Mauritania",TRUE,159.231,3119.63824766881,37.3432812371366,496743117.814552,5946208.0146705,,,,0,2,1581.90799314961,159.231,33569.4338384521,51274.6413068224,0.750351525507192,1596.67926124681,159.231,36839.0698447115,64026.2341781031,0.690139129270009,159.231,3463.97513136072,5946.2080146705,4.82457186933007,0,757.821233468022,0,13.2881374285447,0,144.878105554545,0,40.0411724445821,0,1159.47810407288,0,10.007684134772
-15.883334,14.866839,SEN,"Touba - Senegal",TRUE,597.23,2294.61226912889,41.7294708957356,1370411285.49184,24922091.9030602,,,,0,1,1614.77826738336,597.23,154658.844932786,179862.014214118,0.623562072702792,1630.83863888058,597.23,170748.040834116,199667.80861052,0.570422803137618,0,3186.86137796556,0,8.9982930085569,597.23,17811.4075841527,24922.0919030602,2.8571744082299,0,272.46659469917,0,46.3653351884183,0,1380.06515966328,0,15.7206024372044
-15.575626,11.856113,GNB,"Bissau - Guinea-Bissau",TRUE,503.968,1367.43735056953,29.1359647460553,689144666.691825,14683593.88114,GWOXB,Bissau,AI,114.309,5,1592.46142006115,503.968,113552.407707974,121234.145308244,0.706765919860217,1614.10236795718,503.968,129962.452158524,137215.141091657,0.62591612365121,0,1652.70432888375,0,11.912074121854,0,544.64097446645,0,24.9676282624026,0,239.3263511292,0,43.1973545344999,503.968,16348.5165723493,18913.02688114,2.58502806282266
-15.65446,14.4204092,SEN,"",FALSE,0,2255.07749469541,31.0289501068166,0,0,,,,0,1,1657.91570828486,1e-06,0.000337076637687947,5794.20218128937,0.798505778501184,2219.92674413512,1e-06,0.00624439866812405,7654.02983290049,0.676371903087204,1e-06,357.914308377185,3.10289501068166e-05,5.21106252214548,0,160.254950570622,0,8.90371715797379,0,15.3245950104813,0,42.5781047056714,0,103.281782358924,0,11.933371924042
-15.5441999,14.1010094,SEN,"Debre Zeyit - Ethiopia",FALSE,69.357,2287.6685,33.2273419593215,158665824.1545,2304548.75627266,,,,0,1,1601.94900374299,69.357,16583.6970676933,20277.4631791109,0.669973495288538,1618.48738725189,69.357,18377.5529341253,24300.0076839092,0.610818157468107,69.357,1746.99521697758,2304.54875627266,3.5328218248443,0,320.564013232053,0,10.9405637642294,0,44.349785619441,0,40.8998640294597,0,279.376836765305,0,11.9910150728428
-13.9632597,17.0292988,MRT,"Fritissa - Morocco",FALSE,15.521,3680.26830758623,24.3321127914395,57121444.4020459,377658.722635932,,,,0,2,1515.24193052784,15.521,2127.37321389389,13783.4501704724,1.10549810880475,1546.88926659768,15.521,2615.86994799041,14390.7925472552,0.917831123122391,15.521,440.362853483428,377.658722635932,9.38164085766747,0,167.859729523264,0,17.8452064312387,0,57.83140266876,0,36.3114372338876,0,394.186243865486,0,10.1007032508197
-15.945537,23.708077,ESH,"Ad Dakhla - Morocco",TRUE,106.277,6999.25678566019,41.685948396546,743860013.409608,4430257.53773972,,,,0,3,1614.22072118002,106.277,27426.6430853156,29632.8342431874,0.625503200267386,1636.67210857614,106.277,31489.1030555583,33317.1355330728,0.55238347681981,106.277,3340.90051132064,4430.25753773972,2.55923453188517,0,284.058907176576,0,13.2356977768585,0,40.5022776441352,0,48.4952817572992,0,376.469423468603,0,10.9698151760705
-14.2343597,16.6268101,MRT,"Had Zraqtane - Morocco",FALSE,10.415,3292.61139046978,26.1754116436426,34292547.6317428,272616.912268538,,,,0,2,1534.15449359138,10.415,1616.04864096775,3580.03905751377,0.98872141784218,1557.33848188831,10.415,1877.55909606078,3594.59334539114,0.863870581225449,10.415,149.693876669157,272.616912268538,7.19028055269377,0,46.6005671850883,0,15.6538461286514,0,12.2118554073739,0,38.2261680039505,0,69.2968663714391,0,12.0154340479426
-13.9593992,16.1129189,SEN,"",FALSE,0,2493.74395561908,28.4022929330901,0,0,,,,0,1,1621.8735827029,1e-06,0.000270566603287003,1479.30960036206,0.970006962542982,1908.43768568074,1e-06,0.00137684175645677,2900.61770221675,1.0016394924028,1e-06,105.415207688977,2.84022929330901e-05,9.12927425146923,0,39.4052182983532,0,17.5928396113395,0,13.1748341889448,0,36.5209164069176,0,53.7018890810379,0,14.3123866092057
-13.203346,27.153675,ESH,"Laâyoune - Morocco",TRUE,217.732,7166.58209753815,43.2531834575172,1560394253.26118,9417602.14057214,,,,0,3,1616.78464651947,217.732,57088.4451174046,76937.3901522106,0.616632279611666,1634.33073318518,217.732,63595.4327689859,83603.8555418156,0.559546628119517,0,1566.39681066638,0,7.93205944519742,217.732,5696.00949719878,9417.60214057213,3.35433693081776,0,145.836042131478,0,38.6139213795799,0,726.565470456703,0,13.2374393780077
-14.2115793,13.3027792,GMB,"Tarkwa - Ghana",FALSE,61.291,1770.86443929862,23.1067512092836,108538052.349052,1416235.8883682,,,,0,4,1559.07733439958,61.291,11173.197498212,13667.3389248927,0.855237844477581,1575.79312752167,61.291,12430.6236296277,15868.06158263,0.776967752974201,61.291,947.908050389385,1416.2358883682,5.08442022319166,0,134.058818051629,0,18.7307566796584,0,44.2654757663107,0,39.2080722368773,0,294.11928084701,0,11.0935339167736
-15.3329,12.0479898,GNB,"",FALSE,0,1367.45133840083,18.1778592380354,0,0,,,,0,5,1615.35064343048,1e-06,0.000259879653733289,4172.98656265153,1.00514919774299,2074.8937142023,1e-06,0.00317733304487118,4776.93579526453,0.847167734490382,1e-06,144.964955332768,1.81778592380354e-05,8.70750350059491,0,35.2431988477238,0,22.3538396279116,0,14.7275689473469,0,39.9927839499739,0,201.087064515576,0,7.00077712513105
-13.6763992,13.7135201,SEN,"Khénifra - Morocco",FALSE,78.8,2287.6685,28.5775553827832,180268277.8,2251911.36416331,,,,0,1,1579.93926427776,78.8,16407.1945932776,20276.6306201241,0.758808240632032,1594.07404013687,78.8,17935.5747947637,24087.3851721937,0.700356895703142,78.8,2112.84885109934,2251.91136416332,3.54759112943842,0,228.211929625583,0,15.6418080502412,0,65.0373692994284,0,36.1191236203992,0,207.012268951699,0,16.6922593556781
-14.8474998,12.0527,GNB,"Misséni - Mali",FALSE,54.756,1394.43121299449,18.6469722659379,76353475.4987265,1021033.6133937,,,,0,5,1546.55723245158,54.756,9208.64788811783,10806.9107387195,0.919606036074801,1559.11297966884,54.756,9984.16558185159,12618.0763418894,0.855061849045653,54.756,591.42525849007,1021.0336133937,6.57748274086041,0,100.721023311635,0,21.4081699722957,0,42.822398522907,0,37.862763213293,0,305.575911248173,0,10.2152002851939
-14.299376,10.940929,GIN,"Boké - Guinea",TRUE,116.27,1146.57562365401,27.5929884020649,133312347.762251,3208236.76150809,,,,0,6,1564.99493387839,116.27,22014.1145468236,25202.7602993218,0.826569529963653,1578.34028370222,116.27,23965.0463144306,27491.0023869572,0.765755354435365,116.27,2095.74005457295,3208.23676150809,4.25917498311744,0,220.862222414287,0,19.0898625275223,0,86.9296327292186,0,35.5444553159135,0,329.809759847298,0,14.6119470742787
-13.3009596,12.4839897,GIN,"Kalfou - Cameroon",FALSE,13.99,1189.02775135884,23.7319650851646,16634498.2415102,332010.191541452,,,,0,6,1560.33085400385,13.99,2570.92180145223,3896.34133188008,0.849074034394755,1571.06622282238,13.99,2753.38422468889,4682.22474485336,0.798261887321697,13.99,332.010079700717,332.010191541453,4.6595722500736,0,39.891517969151,0,19.1363831567678,0,15.7275292461778,0,35.5909763023575,0,58.5377985147768,0,14.8191277486412
-13.6282301,10.0732899,GIN,"",FALSE,0,1176.62521698137,26.8793431772143,0,0,,,,0,6,1597.71836945561,1e-06,0.000232866209384207,3561.73365486327,1.10757711820112,1937.7729581508,1e-06,0.00160373681614558,3840.72231681183,0.978390410153736,1e-06,140.202443217871,2.68793431772143e-05,8.89099577466368,0,46.0635419087867,0,18.6730778571925,0,15.051050284922,0,39.361918590517,0,85.8684407973087,0,12.3281641345465
-13.1784992,11.1257696,GIN,"",FALSE,0,1125.84335585272,17.2149499541175,0,0,,,,0,6,1631.03263401376,1e-06,0.000286240245111741,508.630150172372,0.922685924169543,2037.04892421942,1e-06,0.00264313159436869,1158.53760911201,0.886833110588987,1e-06,61.7776560592801,1.72149499541175e-05,6.25980828363513,0,13.983796567377,0,16.8538294280789,0,5.03317357108064,0,33.3084224020524,0,14.2895097042543,0,16.6125808345327
-13.0830994,11.79953,GIN,"Bethlehem - South Africa",FALSE,7.461,1135.4866,20.8461390559678,8471865.5226,155533.043496575,,,,0,6,1550.16465070591,7.461,1284.33855905574,1837.98110964622,0.900524155095226,1558.11865427295,7.461,1351.78150584839,2438.41041161952,0.859985406848187,7.461,141.456422897926,155.533043496576,5.73870411116927,0,26.7956567900481,0,17.3988020881845,0,9.87279454861677,0,33.8533946422846,0,30.1265623534557,0,16.0914766572679
-13.8246593,13.3325996,SEN,"",FALSE,0,2141.07888826552,23.0399064754911,0,0,,,,0,1,1640.92708561794,1e-06,0.000304086420210887,1058.01101127862,0.874759543793801,2106.26348917223,1e-06,0.00369174066335907,1513.76485032597,0.812558455129344,1e-06,93.502430279889,2.30399064754911e-05,5.20009908548267,0,15.4164810826129,0,17.2943160504462,0,4.77630155384154,0,37.7716315921719,0,21.2617158824892,0,13.9581550599252
-13.7090893,13.0267,SEN,"",FALSE,0,2287.6685,21.3110377398114,0,0,,,,0,1,1640.59070802945,1e-06,0.000303463640855686,387.973119105791,0.876325361846595,2090.40850914045,1e-06,0.00342307042962346,796.09391177101,0.830209748588355,1e-06,45.4009177428316,2.13110377398114e-05,5.60343404307588,0,8.08858599963579,0,17.6976511673431,0,2.65484381748938,0,37.1938727879978,0,12.3038948579962,0,13.3803956794833
-11.400062,16.629969,MRT,"Kiffa - Mauritania",TRUE,110.714,3692.66927840016,24.5103198098448,408830186.488796,2713635.54742716,,,,0,2,1543.12527619815,110.714,18210.3620863305,24517.0939987147,0.938178057760363,1566.28120653736,110.714,21135.0899585008,28324.7980907265,0.820480340219809,110.714,2571.68647852182,2713.63554742716,4.06163331859875,0,156.995584685109,0,26.1971734630294,0,122.01316046641,0,30.9914296187186,0,265.570752728691,0,18.4526707009459
-12.2216101,14.4544096,SEN,"Sidi Redouane - Morocco",FALSE,20.065,2223.952360451,30.4239054818422,44623604.1124494,610455.663493164,,,,0,1,1530.39990012587,20.065,3038.03407187107,8489.15323102473,1.01076792546531,1549.36611863016,20.065,3436.24324997931,9188.88395585425,0.904709859611353,20.065,610.455659679361,610.455663493164,5.51546014371646,0,93.2274204726902,0,19.3043591935843,0,43.3239185650157,0,32.176046585375,0,86.1045603950637,0,20.3548106124896
-13.712215,9.509116,GIN,"Conakry - Guinea",TRUE,1667.864,2150.37966857964,47.7173443768735,3586540835.55592,79586040.8617897,GNCKY,Conakry,AI,676.60790476,6,1599.99716211649,1667.864,393964.371394799,409752.698911658,0.677365284543698,1615.28530738324,1667.864,433268.635746212,451229.422474443,0.621802732098146,0,1595.53395847892,0,26.7904616966344,0,1121.91070160082,0,33.8801537352718,0,510.603259599233,0,57.261384465968,1667.864,101402.517885266,104620.53333791,1.68222883661928
-13.5013895,9.7055101,GIN,"",FALSE,0,1177.39094451741,47.8186094627483,0,0,,,,0,6,1575.49179616737,1e-06,0.000202425700172219,21204.7842632743,1.25348910603529,1811.2837738811,1e-06,0.000816524377296504,25323.4140576328,1.06763453145238,1e-06,546.817904748629,4.78186094627483e-05,13.768151361111,0,293.259487057825,0,20.8578434030675,0,94.9395417289483,0,44.2390741471501,0,994.788678705881,0,9.23882824143856
-12.1095896,12.6156893,SEN,"Ādēt - Ethiopia",FALSE,11.216,2258.58745277728,29.7127985122773,25332316.87035,333258.748113702,,,,0,1,1537.17549781464,11.216,1774.91158067741,5207.9587036438,0.971370434292555,1553.39236837924,11.216,1971.3051744794,5597.7579467821,0.883823029078009,11.216,333.417787079871,333.258748113702,5.79493913414044,0,66.2779769312857,0,17.0135612251085,0,25.3861863051477,0,32.2584193891112,0,56.4290731963335,0,18.9396862068953
-12.9784594,10.6564093,GIN,"Bawku - Ghana",FALSE,30.311,1134.95099453162,19.5251633744116,34401499.5952479,591827.22704179,,,,0,6,1545.28385813592,30.311,5055.76797085036,5961.2101620079,0.926448778416853,1572.8134308867,30.311,6032.21128965453,7540.8739106247,0.790316289339665,30.311,446.988201255409,591.82722704179,5.19857936228284,0,91.374831180983,0,14.9806616305302,0,24.8700988526725,0,35.6695021315875,0,93.6273617726173,0,14.7394132608059
-12.854191,10.049703,GIN,"Kindia - Guinea",TRUE,181.126,1272.4382327917,31.7736110513414,230471647.35263,5755027.07528526,,,,0,6,1570.87282712824,181.126,35603.7103500576,51671.5818365184,0.799146745267922,1584.52374842023,181.126,38821.5179176417,56569.5207441853,0.739276731864156,181.126,3361.07466251343,5755.02707528526,4.85523136598345,0,870.99966287783,0,11.9449236738617,0,171.257072479056,0,35.3261541868891,0,572.863405665037,0,15.7940915121057
-12.7595196,8.4948397,SLE,"",FALSE,0,1525.79033972791,18.3068914371631,0,0,,,,0,7,1581.00037914107,1e-06,0.000209615759096469,18927.6864825871,1.21543216667147,1869.14723532168,1e-06,0.0011182510546137,21584.4594270125,1.03039333449741,1e-06,273.893335339675,1.83068914371631e-05,18.9398345926328,0,450.962457162471,0,13.5832459988212,0,85.9810703416138,0,41.0042236874117,0,795.669053743152,0,9.30269637495999
-13.234314,8.484392,SLE,"Freetown - Sierra Leone",TRUE,1035.246,1636.18751938735,51.9455928614036,1693856584.69567,53776467.2273966,SLFNA,Freetown,AI,292.305,7,1606.71259080001,1035.246,254993.858388162,270102.279335866,0.652307037783247,1621.5664605799,1035.246,279573.03535619,295548.761238597,0.6004585493856,0,845.571761137648,0,29.7944574378892,0,1138.30514296689,0,24.4378688478927,0,368.230208497944,0,51.858846513437,1035.246,61843.0995399404,64591.7522273966,1.70362875931349
-11.6982899,26.7553997,ESH,"Malakal - South Sudan",FALSE,57.035,6390.125709182,25.1492270818786,364460819.823195,1434386.16661495,,,,0,3,1590.64713789045,57.035,12705.276443468,16699.3961806789,0.714054208159932,1609.68569787227,57.035,14310.5553812327,18595.854420401,0.641543405144279,57.035,989.679086648516,1434.38616661495,4.53426822549358,0,485.899121243111,0,7.28572420377601,0,44.549711660468,0,35.8322054818125,0,134.321115329803,0,17.1688264658562
-11.1610899,28.4597492,MAR,"Kukawa - Nigeria",FALSE,73.209,6295.70213058728,39.2491173607986,460902057.278165,2873388.6328667,,,,0,8,1613.07807917556,73.209,18759.5561248183,25043.8426939195,0.629502274755747,1631.34367177379,73.209,20995.3582696333,28010.5259053364,0.568835443680957,73.209,1989.12347439134,2873.3886328667,3.31710838425493,0,515.092366028204,0,8.16477238316673,0,60.6181378608425,0,33.9989703654599,0,200.101552066536,0,15.3355910912153
-12.283231,11.316916,GIN,"Labé - Guinea",TRUE,127.747,1146.98337636056,35.8287216279254,146523685.379933,4577011.70180259,,,,0,6,1577.89182006948,127.747,26255.9143458646,37956.6038341138,0.767716419705761,1586.62056753638,127.747,27745.0618504321,42434.6712665589,0.730530063993346,127.747,3092.5185073233,4577.01170180259,4.18707219937356,0,528.664404005968,0,13.5935203572702,0,160.861527406729,0,30.0481124992945,0,312.50518052114,0,19.2995496184463
-12.08277,10.383497,GIN,"Mamou - Guinea",TRUE,376.269,1135.61305456118,26.8662514052221,427295988.426679,10108937.5499915,,,,0,6,1570.56408273538,376.269,73817.4845740216,98071.5523469426,0.800561486282219,1586.13717979467,376.269,81472.3196689193,106195.679323365,0.732536220192443,0,2407.4206223771,0,9.14532233442006,376.269,5232.40288925051,10108.9375499915,5.45045657058362,0,430.076208470158,0,28.8316871002736,0,739.723240285877,0,20.0841825124439
-11.74007,7.956451,SLE,"Bo - Sierra Leone",TRUE,249.807,1496.9442,25.5146367561591,373947139.7694,6373734.86414584,,,,0,7,1560.28693285924,249.807,45893.7459138899,61973.6856446872,0.849289138688313,1579.51941356095,249.807,51875.0435402623,65000.109804887,0.76062588045387,0,1093.51338333014,0,11.585045843816,249.807,2773.95885591099,6373.73486414584,6.22845715823868,0,184.812164769719,0,37.8989160997482,0,1048.13855437895,0,11.9170298635342
-10.971644,8.643743,SLE,"Koidu - Sierra Leone",TRUE,300.387,1517.04766003136,22.0121301485176,455701395.453841,6612157.73892276,,,,0,7,1562.66225130722,300.387,56032.0529358218,66705.2327686587,0.837740899569804,1579.71824761642,300.387,62457.0792319022,75240.197594346,0.759764676186443,0,1263.08499419955,0,11.5884139212543,300.387,4204.11748749286,6612.15773892276,5.19831373034751,0,267.458737528851,0,32.6192914379489,0,687.169208812342,0,17.3888124080927
-10.8695793,12.6057196,MLI,"Kawambwa - Zambia",FALSE,10.832,2285.3071,24.4574447781555,24754446.5072,264923.041836981,,,,0,9,1468.8570183037,10.832,1087.94782331659,9748.8107973663,1.46244686150611,1502.88638658773,10.832,1367.96298510866,15961.7410094358,1.19003698820076,10.832,542.943825929048,264.92304183698,11.3355875044728,0,219.353152561489,0,20.7420358107885,0,180.224481438461,0,23.6449342343344,0,152.345662495826,0,26.4480650502197
-11.432892,14.449705,MLI,"Kayes - Mali",TRUE,174.373,2363.01954108217,36.6490483544719,412046806.437122,6390604.50871433,,,,0,9,1569.73735027588,174.373,34029.3261010901,41650.2551148846,0.804367351665019,1591.67698773468,174.373,39096.0428740646,46523.0079403931,0.709906864017672,174.373,5813.81214948794,6390.60450871433,2.84013664731165,0,246.133982255549,0,23.3811309507733,0,184.586603124321,0,28.3256432706353,0,218.575951641372,0,25.3072515094115
-11.8790693,12.8341799,SEN,"",FALSE,0,2287.6685,30.2988245952444,0,0,,,,0,1,1587.28922460474,1e-06,0.000218104622292821,3652.76113452642,1.17363190506563,1912.87381785623,1e-06,0.00140918307371662,3748.16123912048,0.998379073861593,1e-06,204.710024807235,3.02988245952444e-05,6.93556059455553,0,41.424527888397,0,20.1219130836,0,23.7505451469159,0,29.1558199836792,0,36.116573880101,0,22.0480380935304
-11.5879192,10.1457901,GIN,"",FALSE,0,1178.37874359219,21.1600028678453,0,0,,,,0,6,1643.8597451112,1e-06,0.000309564959000233,1472.2402796841,0.861017642512795,2157.60477746426,1e-06,0.00469702790327998,1179.26911053361,0.752620981509281,1e-06,31.1284418804294,2.11600028678453e-05,8.48945891372759,0,51.3499099130908,0,6.08076853386235,0,4.81486494400527,0,29.4619990151072,0,8.16706335355812,0,20.7144939451306
-9.299825,10.383689,GIN,"Kankan - Guinea",TRUE,198.013,1153.17201735961,31.112356240142,228343050.673428,6160650.99617924,,,,0,6,1586.71895509853,198.013,43032.6401566023,58935.6554106139,0.73012241279315,1606.80709706895,198.013,48801.7398938063,64468.2169078235,0.651961784359703,198.013,5642.42251197779,6160.65099617924,3.30731461022535,0,801.019516018852,0,12.1531963302705,0,307.798261007226,0,22.9936793646165,0,244.790547385849,0,26.7869222225588
-11.3188601,7.3100801,SLE,"",FALSE,0,1344.94827331861,15.4784810906556,0,0,,,,0,7,1610.32817969626,1e-06,0.000251911572011929,13111.0083237336,1.03321439380952,2077.9239408053,1e-06,0.0032240417544994,14118.6668013113,0.843825175294868,1e-06,313.617728261854,1.54784810906556e-05,10.6786052967223,0,277.907820330626,0,11.5748247840196,0,48.6409799561003,0,36.9924755040987,0,373.101551693037,0,9.51108874332869
-11.1890097,7.8601699,SLE,"Khartoum North - Sudan",FALSE,188.463,1485.97140072144,26.5325861186727,280050628.094164,5000410.77768342,,,,0,7,1563.71046462093,188.463,35391.0717742065,49304.1564473447,0.832700305857292,1582.45497391147,188.463,39869.7862100225,52002.6934105061,0.748020595554186,188.463,1681.86735874941,5000.41077768341,7.3689049182317,0,1415.86574484609,0,8.26512445919661,0,172.101387285112,0,33.6827752317476,0,645.449447658637,0,13.95369712168
-2.216954,31.616774,DZA,"Béchar - Algeria",TRUE,179.119,13194.7313701357,47.9612505819522,2363427088.28733,8590771.24298869,,,,0,10,1616.32464235473,179.119,46830.8227028253,52118.2022714131,0.618213400043705,1633.21968156889,179.119,51962.7221285896,57249.250058156,0.562981816059236,179.119,8096.22416469977,8590.7712429887,2.0740499867447,0,457.770022116142,0,14.079135975048,0,113.849198735043,0,35.6003486064395,0,206.167532450598,0,23.962238551169
-10.0955496,9.1883497,GIN,"Mongu - Zambia",FALSE,66.815,1121.84293071791,25.8338628216588,74955935.4159169,1726089.54442914,,,,0,6,1559.49513493351,66.815,12212.8888513998,18452.2068386176,0.853177882056979,1582.38873282799,66.815,14128.9530322484,20660.182639848,0.74830246380952,66.815,821.479468190324,1726.08954442913,6.42345673882588,0,619.079200717041,0,7.75655965630292,0,93.2651212718867,0,27.3959968325932,0,126.229388963181,0,22.390285260186
-10.3059597,14.7111797,MLI,"Ikot Abasi - Nigeria",FALSE,18.328,2285.3071,26.3038363987401,41885108.5288,482096.713516109,,,,0,9,1502.52373562576,18.328,2309.04650096449,7592.70395904625,1.19262451438955,1524.61048328383,18.328,2671.82667999875,10032.6336292591,1.04584108712636,18.328,592.178412744899,482.096713516109,6.89880632950771,0,79.2862248386279,0,26.3599050975109,0,110.870236427062,0,21.0797611710295,0,67.4292080052236,0,29.3659212521808
-9.6050797,16.6627998,MRT,"Abū Ḩamad - Sudan",FALSE,24.199,3760.08548182476,19.5791653774687,90990308.5746773,473796.222969366,,,,0,2,1497.36288474318,24.199,2945.58967768762,9791.69147895674,1.23013347983716,1521.81801228561,24.199,3463.60860637969,11732.2508257178,1.06324006368826,24.199,473.796457467956,473.796222969365,9.03284072293947,0,152.281746392785,0,19.2510162195766,0,109.089710661427,0,24.0452722879098,0,111.187738211467,0,23.7418357076828
-10.801398,6.313299,LBR,"Monrovia - Liberia",TRUE,1110.25,967.725459213548,41.2600904571139,1074417191.09184,45809015.4300107,LRMLW,Monrovia,AI,467.27200002,11,1608.62487887743,1110.25,276740.539387739,305444.086748411,0.64536118877848,1627.93688607784,1110.25,311817.58756491,349012.880040806,0.579639186611283,0,1752.20712975574,0,19.7694724070135,0,1639.46872520012,0,20.6656919096399,0,492.33658179036,0,46.0833424099512,1110.25,57795.3559310401,63098.0794307507,1.92216240839701
-10.132382,8.567176,GIN,"Guéckédou - Guinea",TRUE,221.715,1099.39487496181,19.6079430369351,243752334.702158,4347375.09043406,,,,0,6,1567.7891765151,221.715,42734.2301296251,47500.1499078922,0.813404993652061,1589.96775757213,221.715,49179.3110436435,53272.9653264662,0.716804880898646,0,1117.62566374503,0,9.42340719101803,221.715,2910.63098638996,4347.37509043407,4.97829661525527,0,192.923343081013,0,30.3959472812148,0,372.241455359836,0,19.612022225973
-10.066664,28.983267,MAR,"Guelmim - Morocco",TRUE,118.318,6238.3237,43.0273185293868,738105983.5366,5090906.27375998,,,,0,8,1646.99988027125,118.318,37332.8104504039,39954.4452264958,0.521979806766271,1661.31576060867,118.318,40707.7277126511,45535.2382811224,0.482865465050159,118.318,4710.066301056,5090.90627375999,2.19132372252554,0,418.47108057959,0,11.0056134325313,0,87.8677726036998,0,31.153354029164,0,346.13418428023,0,12.4899747315394
-10.4223099,8.6459198,GIN,"",FALSE,0,1227.60079775481,18.0701264188066,0,0,,,,0,6,1645.86740052619,1e-06,0.000313366540016024,1416.86345746951,0.851770676294564,2172.68809375784,1e-06,0.00503591085730104,1237.44949011376,0.734535563066083,1e-06,27.9951725524347,1.80701264188066e-05,9.18281241646256,0,62.4384572517136,0,5.37934870834136,0,4.70435542386285,0,30.1553526503344,0,8.70113752459043,0,20.0130739471679
-9.4627399,13.0295696,MLI,"Ghardaïa - Algeria",FALSE,57.187,2269.38964058337,35.3665191502151,129779585.376041,2022505.13064335,,,,0,9,1475.99490744423,57.187,6029.0667800988,25630.4419122965,1.4000130245894,1502.76000252675,57.187,7216.02081447347,29386.262317299,1.19093803526596,57.187,634.296666547069,2022.50513064335,15.3623308336763,0,196.024267164082,0,33.6082196758376,0,1362.80695929369,0,9.22633397219688,0,154.936280333121,0,39.3142489154909
-9.4801102,7.0074396,LBR,"Zuwārah - Libya",FALSE,34.046,786.9167,15.4325262289124,26791365.9682,525415.787989552,,,,0,11,1518.81739915088,34.046,4777.77749807647,16408.8870902821,1.08229521952145,1550.25231283809,34.046,5864.00272787579,22882.5921322667,0.900065926730872,34.046,556.608590684505,525.415787989552,10.721227973346,0,493.458485668489,0,11.617447531793,0,86.6954799418286,0,37.0350979947562,0,481.187696806149,0,11.8141221749736
-9.544252,15.181505,MLI,"Nioro - Mali",TRUE,116.376,2301.37386339613,31.0032048103123,267824684.726588,3608028.96300491,,,,0,9,1548.77172270982,116.376,19853.712225201,26165.1635609427,0.907838380616598,1559.4607858103,116.376,21267.2922872756,30330.5989086595,0.853347038411875,116.376,2356.779826171,3608.0289630049,4.68633863888878,0,201.49438233171,0,24.1474373616989,0,291.746097664302,0,18.8672949704308,0,156.008997228315,0,28.6382568403542
-9.5260296,14.5371294,MLI,"Rundu - Namibia",FALSE,52.399,2258.05105134941,26.6645356098404,118319617.039658,1397195.00142003,,,,0,9,1478.74363043387,52.399,5628.02551589647,17938.4628341728,1.3767650087994,1501.58592511474,52.399,6560.38121844785,20131.6135239365,1.19934495509243,52.399,622.03630713297,1397.19500142003,12.1801511905577,0,148.564248202034,0,31.6412498076947,0,573.781320073697,0,12.8538205325243,0,129.655604694738,0,34.6472661825093
-9.4735699,8.5450697,GIN,"Manzini - Eswatini",FALSE,43.102,1096.84397846855,22.3680314344588,47276169.1599514,964106.890888042,,,,0,6,1556.94082038247,43.102,7750.3740782794,11858.6434691593,0.865858379262868,1579.90630258796,43.102,8972.53018084851,13447.4105217494,0.758951160271177,43.102,488.170562271777,964.106890888043,6.92242957542862,0,435.12133051758,0,7.47422249146097,0,60.3490679570863,0,27.8949697236359,0,85.5336034060541,0,22.1079475915715
-9.716798,29.717562,MAR,"Tiznit - Morocco",TRUE,108.998,6238.3237,44.8746618567915,679964806.6526,4891248.39306656,,,,0,8,1607.65598648475,108.998,27005.6067370798,49076.9541472381,0.648870033089083,1627.49064173534,108.998,30528.6583415415,54603.1981317574,0.581071147594517,108.998,2466.2815773484,4891.24839306656,4.58155522334018,0,493.295189173591,0,13.3958449408548,0,184.642804506169,0,25.7920843395555,0,1270.70892666722,0,7.12870502202812
-9.599649,30.433289,MAR,"Agadir - Morocco",TRUE,1070.86,6374.8461531175,58.0517269919173,6826567751.5274,62165272.3665645,MAAGA,Agadir,AI,593.66057139,8,1680.09573649446,1070.86,412265.680761118,450219.880629789,0.436404761047428,1698.6423554868,1070.86,460104.388627394,505011.900781054,0.395346838292226,0,2805.80677600174,0,12.6030068387089,0,1517.03679236757,0,18.9895760588412,0,1400.5173035349,0,20.0287429332731,1070.86,78685.8311757166,84130.7135079945,1.36536359956532
-5.986109,14.249942,MLI,"Niono - Mali",TRUE,128.619,2285.3071,33.8806562465947,293933913.8949,4357696.12578076,,,,0,9,1581.42496317476,128.619,27033.060578492,35644.602802903,0.752416417902011,1600.04506699319,128.619,30390.0538781804,39874.917674017,0.677182731561182,128.619,3305.84354433241,4357.69612578076,3.56164702627286,0,449.118491168015,0,13.4771620515294,0,284.511756983582,0,18.2714184129839,0,127.402029382309,0,31.21678532505
-8.8621101,31.2670689,MAR,"Dayr Mawās - Egypt",FALSE,41.579,6727.27118707371,36.8417125347524,279713208.687338,1531841.56548247,,,,0,8,1623.4549853679,41.579,11360.0630289877,50956.1791093271,0.594201236830649,1647.08278046939,41.579,13126.002964272,58731.0725226534,0.521743407735793,41.579,1055.74126877731,1531.84156548247,7.60321478853058,0,935.786629018141,0,8.23981955867336,0,783.073591610934,0,9.27898643115968,0,909.804731915902,0,8.39595555251252
-9.551909,13.355745,MLI,"Balandougou - Mali",TRUE,1631.251,2258.59960670909,27.9096560141396,3684342867.04381,45527654.2827213,,,,0,9,1519.91786127241,1631.251,230582.406043965,239188.494721206,1.07526311701618,1549.66785885361,1631.251,279905.373556337,294876.258933154,0.903125657379074,0,2136.20821960877,0,24.121945473796,0,917.714685415311,0,42.367834314458,1631.251,41767.6931980143,45527.6542827212,3.32364317901596,0,795.859034134206,0,46.5890604613334
-9.1929197,14.5529394,MLI,"Cahama - Angola",FALSE,43.276,2285.3071,27.938885275401,98898950.0596,1209083.19917825,,,,0,9,1488.59299888469,43.276,4967.19285879181,16961.2340098994,1.29691647036937,1514.58374382373,43.276,5905.87449208322,19177.5772058926,1.10982931426695,43.276,627.156820653629,1209.08319917825,10.8526197068384,0,134.344289370597,0,30.3137183856903,0,572.985676949178,0,11.5262890797107,0,109.200397873602,0,34.8045378667663
-8.816789,7.750291,GIN,"N’Zérékoré - Guinea",TRUE,195.027,1164.86349690503,28.8972795876179,227179833.210898,5635749.74613435,,,,0,6,1575.55887961159,195.027,39495.2899345348,49748.2321497575,0.778008016517939,1593.21176254752,195.027,44150.3316971748,56558.3188003521,0.703775711261643,195.027,3556.50768012066,5635.74974613436,4.45057476652536,0,1003.76993551015,0,10.34369754077,0,195.692544768189,0,30.7644448019168,0,389.470081699409,0,19.4438621966445
-8.1639996,7.2641697,CIV,"",FALSE,0,3149.8581711304,28.2093242708592,0,0,,,,0,12,1633.9768509894,1e-06,0.000291449412390374,4507.6717488315,0.908243288259906,2126.84208317769,1e-06,0.00406870908977125,5675.21919792924,0.788892167498503,1e-06,167.58483079721,2.82093242708592e-05,8.2575193478659,0,190.254770424064,0,7.58779693770371,0,19.5629287239615,0,34.571388757348,0,58.3195368215757,0,16.6902699482864
-7.5722198,9.5049696,CIV,"Bariadi - Tanzania",FALSE,86.279,3289.988,39.2309187365728,283856874.652,3384804.43767277,,,,0,12,1609.00698013164,86.279,21557.0125048847,27651.8767017652,0.643982967276707,1613.80466312364,86.279,22208.4859901904,32269.6309151979,0.626956079125281,86.279,2587.18249466972,3384.80443767276,3.3719547661571,0,526.735632714174,0,9.74326805205389,0,141.444363401477,0,23.4086312416166,0,112.159558742223,0,27.3238728627971
-8.002662,12.639193,MLI,"Bamako - Mali",TRUE,4552.105,2286.20141850059,45.3510168389582,10407028908.1636,206442590.507706,,,,0,9,1586.93546430016,4552.105,990624.620634922,1089804.89497707,0.729226810222461,1600.56903148519,4552.105,1079097.18000606,1180704.15649356,0.675190189207553,0,6141.3330388068,0,22.4911546436246,0,4764.39683095443,0,26.6388148833121,4552.105,193198.347463686,206442.590507706,2.25692908343313,0,2069.65929624776,0,46.443072745862
-9.166742,11.416769,GIN,"Siguiri - Guinea",TRUE,183.875,1135.4866,32.4018248026735,208787598.575,5957885.53559159,,,,0,6,1540.32979979478,183.875,29700.5198134059,63591.1383320193,0.953613340417672,1557.54793866293,183.875,33192.5867439015,67911.7018682424,0.862825575477412,183.875,3058.9582575053,5957.88553559159,6.81559410455787,0,839.894378040915,0,16.1337864037695,0,1004.58911753911,0,14.3183763358418,0,318.926461932051,0,30.7675122844165
-7.4854398,11.42488,MLI,"Souk Ahras - Algeria",FALSE,95.222,2285.3071,32.0476990885096,217611512.6762,3051646.00260606,,,,0,9,1543.13075295005,95.222,15662.7765453329,49307.5466393867,0.938147780785371,1562.96750831684,95.222,17796.7617448958,55107.038702546,0.836269510688974,95.222,2182.98584617588,3051.64600260606,7.1964287922653,0,1102.99115309631,0,11.3440890348211,0,617.25604316338,0,16.704779428722,0,242.423080162869,0,31.1483468994004
-9.233368,32.283274,MAR,"Safi - Morocco",TRUE,395.857,6780.39513730578,50.0776184680819,2684066877.86845,19823575.8139195,,,,0,8,1669.23809048223,395.857,142831.955444915,170085.277490133,0.462627273575148,1689.93941579357,395.857,161567.450917097,191919.457789295,0.414052672149364,0,1563.50926722806,0,10.2266789929444,395.857,14060.0168031277,19823.5758139195,2.36489050266596,0,1245.22493759398,0,11.9024506875626,0,1397.86201068469,0,11.019419813447
-8.500158,33.233179,MAR,"El Jadid - Morocco",TRUE,467.017,7268.41013196153,54.5650407804857,3394471094.59828,25482801.6501801,,,,0,8,1654.41808777259,467.017,154130.850528431,243359.812199532,0.501289241716498,1676.05739167853,467.017,175519.646682025,267395.178529841,0.445959931050647,0,1814.06780632322,0,12.4440728164297,467.017,18470.7069838916,25482.8016501801,2.6489628955946,0,1500.90235774298,0,14.1198449553401,0,2952.00806323544,0,8.99469679474739
-8.3035603,32.2542381,MAR,"Funtua - Nigeria",FALSE,139.815,6725.98050128035,37.1479411148004,940392963.786512,5193839.38696582,,,,0,8,1645.05125700289,139.815,43596.5677971686,63885.0140193577,0.527570986214242,1663.35290194088,139.815,48696.9721267299,67315.7872757943,0.477569089641888,139.815,1174.59756728043,5193.83938696582,7.09885160558864,0,1886.43822281306,0,5.17629601310628,0,854.729095350273,0,8.77462376493274,0,568.038553346875,0,11.5220287399467
-8.2107401,31.9539585,MAR,"Ouled Fayet - Algeria",FALSE,38.613,6720.5864,38.3004049757337,259502002.6632,1478893.53732801,,,,0,8,1628.75145115104,38.613,10898.9808872911,26728.8452110189,0.577035419638615,1653.1287994074,38.613,12644.5871196726,32673.7499049183,0.504818876611463,38.613,492.345422323147,1478.89353732801,8.27475168806977,0,821.369161057537,0,5.8826901977226,0,578.751156080236,0,7.42917049548612,0,259.00194704289,0,12.697928796704
-8.008349,31.630015,MAR,"Marrakech - Morocco",TRUE,1132.514,6720.5864,58.6646890573813,7611158186.2096,66438581.6631311,,,,0,8,1674.13254901107,1132.514,420771.358844662,495598.914319105,0.450595911777383,1693.69472703442,1132.514,472605.882784506,553148.305914594,0.405863121989999,0,2965.83717852875,0,13.2487766742211,0,3998.18888618225,0,10.8567151791809,1132.514,54409.4836037027,66438.5816631311,1.9046897590662,0,2718.25319655363,0,14.0415174693952
-7.6750998,8.2902699,CIV,"Krugersdorp - South Africa",FALSE,55.013,3186.43542100719,24.1835686231057,175295371.815869,1330410.66066291,,,,0,12,1561.93236824864,55.013,10213.9039126259,16277.8086546428,0.841270743384202,1579.12965394344,55.013,11395.8679711019,17963.0833048846,0.762317186501654,55.013,606.723218560678,1330.41066066291,7.29562590224639,0,657.992259029389,0,6.91155513899692,0,83.6700688493022,0,27.3323023947416,0,100.69028076931,0,24.1582015262144
-7.583329,33.53329,MAR,"Casablanca - Morocco",TRUE,4219.891,9656.635,70.9405986874118,40749947126.785,299361593.935621,MACAS,Casablanca,AI,2434.0279715,8,1696.14763382298,4219.891,1786660.06844742,1959517.16996962,0.400611081108682,1707.00850502798,4219.891,1904417.97608425,2086945.52069383,0.378246263051769,0,5784.1293889229,0,19.1700562771998,0,6777.72313154123,0,17.2475007066472,0,6796.69378919891,0,17.2153920726323,4219.891,372850.761572394,389420.628881121,1.1924093268322
-7.9837198,32.2262306,MAR,"Qillīn - Egypt",FALSE,132.168,6742.80992422409,43.2105007592418,891183702.06485,5711045.46434747,,,,0,8,1637.22030567267,132.168,39291.7824809961,89062.5001974107,0.550721092874597,1658.77488600173,132.168,44782.1584662249,96421.1959504859,0.489563180955023,132.168,1278.68422590647,5711.04546434747,8.73805724379982,0,1856.26036267863,0,6.8155016893063,0,1869.45562192192,0,6.78339307635656,0,1122.51392101624,0,9.5307980400615
-7.59407,7.3604698,CIV,"Pikine - Senegal",FALSE,241.969,3331.50044575431,31.6783867627629,806119831.358724,7665187.56659899,,,,0,12,1579.96788686804,241.969,50390.2506164396,58226.0597402341,0.758684949505242,1598.23018702067,241.969,56527.1658854983,65994.3992046887,0.684135060749304,0,857.775356097906,0,12.3755409347012,241.969,5555.76522393317,7665.18756659898,3.56164511600039,0,202.374941814199,0,32.4122174051512,0,393.427955198709,0,20.8082915353798
-7.408295,32.048099,MAR,"El Kelaa des Srarhna - Morocco",TRUE,223.364,6725.77294838356,38.3125407240053,1502295548.84275,8557642.34627671,,,,0,8,1635.14153161581,223.364,65564.8184079305,93554.1089761685,0.557054472583711,1662.74051712893,223.364,77510.7901895028,106756.198446929,0.479154415071665,0,859.2445303452,0,11.9305292648992,223.364,4770.41009993935,8557.64234627672,3.80510884044239,0,1681.6452235939,0,7.62514270072311,0,780.204091782478,0,12.7232700596818
-6.26652,13.449454,MLI,"Ségou - Mali",TRUE,240.936,2285.3071,34.5068161376911,550612751.4456,8313934.25295074,,,,0,9,1560.61757886622,240.936,44357.8849854576,95668.2845222009,0.847671465125102,1578.5937380592,240.936,49740.4422713825,101232.600571196,0.764649536417433,0,2565.49799633746,0,8.86260864306003,240.936,3148.7115585973,8313.93425295074,7.73132813877907,0,1526.92264077368,0,12.5255845290987,0,306.731286600764,0,36.5177469336356
-7.350092,6.733084,CIV,"Duekoué - Côte d’Ivoire",TRUE,284.596,3302.72447034709,26.4823462879371,939942173.3629,7536769.82416175,,,,0,12,1578.76485506025,284.596,58817.624578463,59120.745260682,0.763903962776716,1598.19379940472,284.596,66470.2626643134,66738.4632460805,0.684275260723314,0,550.317147592866,0,16.7651049608712,284.596,7350.56479145494,7536.76982416175,2.97806724536932,0,169.207340477547,0,36.8017813716976,0,404.1212265476,0,20.5971531780081
-6.841593,34.020894,MAR,"Rabat - Morocco",TRUE,1891.455,7891.94605770258,67.9275739994679,14927260830.5718,128481949.479164,,,,0,8,1672.30355886917,1891.455,695106.488884288,831643.529214325,0.455050708135754,1687.11271125905,1891.455,759173.741616484,904514.867996584,0.42033827024747,0,1748.80868550288,0,27.0841080937847,0,5988.13861896559,0,11.9219741523213,1891.455,116756.506114145,128481.949479164,1.64571772128575,0,5477.03211228104,0,12.65258357252
-6.5227799,32.8590393,MAR,"Randburg - South Africa",FALSE,178.623,9675.0688844993,45.6605596927238,1728189829.35592,8156026.1539934,,,,0,8,1620.38439928093,178.623,47887.4929290394,108465.70759347,0.604412352663069,1639.50734838735,178.623,53848.702583833,112253.203659418,0.543845454765459,178.623,1868.90271135515,8156.0261539934,8.34097597205197,0,2768.66083332367,0,6.41842042822382,0,948.810676733119,0,13.1065470506701,0,1751.1177546271,0,8.71092815717554
-6.4903197,9.5225697,CIV,"Kikuyu - Kenya",FALSE,92.792,3289.988,40.8585933304043,305284566.496,3791350.59231487,,,,0,12,1602.24043828684,92.792,22227.5507234044,31326.6479077482,0.668877661466783,1614.75830138366,92.792,24026.4708554048,33627.7585493414,0.623631550736316,92.792,1861.7307408114,3791.35059231488,4.29320980216755,0,1087.35724772844,0,6.14438645703788,0,127.415008777143,0,25.6593884138078,0,101.224559929337,0,29.9136514074426
-5.666994,11.316457,MLI,"Sikasso - Mali",TRUE,315.73,2285.3071,34.5993127669643,721540010.683,10924041.0199136,,,,0,9,1595.18450137208,315.73,72365.1144491838,90629.3813103204,0.695981352652958,1609.38910936434,315.73,79073.4377874987,97463.5534288397,0.642608236393348,0,2069.54503495644,0,8.38026709947128,315.73,7003.78516972417,10924.0410199136,3.71779898212355,0,508.089343264712,0,21.3737663720175,0,234.218821879487,0,35.8173337771643
-6.36073,32.339077,MAR,"Béni Mellal - Morocco",TRUE,559.315,9578.10692231839,51.2521768542167,5357178873.25651,28666111.2972162,,,,0,8,1670.29832788473,559.315,203095.882832989,219015.500608825,0.45999106280969,1690.04209263458,559.315,228420.916642293,242969.716560936,0.413826328822733,0,1195.81017255048,0,14.3024812593735,559.315,25209.0450452404,28666.1112972162,1.87419720841452,0,1721.41249265766,0,11.2183654314019,0,1150.8695575173,0,14.6724334440374
-6.9510198,6.7373199,CIV,"",FALSE,0,3289.988,26.0983083598812,0,0,,,,0,12,1651.44942136043,1e-06,0.000324158161924553,845.130406755193,0.826589237649985,2208.4883278334,1e-06,0.00593000790513953,692.987885474703,0.690543854436583,1e-06,5.34403978196821,2.60983083598812e-05,17.6913883810537,0,75.0676564843405,0,3.0388301918015,0,1.77312297075396,0,36.9132677812486,0,4.67569802942467,0,19.3394478550539
-6.59448,6.48704,CIV,"",FALSE,0,3289.988,30.2351215412896,0,0,,,,0,12,1616.58716367955,1e-06,0.000261875849722095,3252.83325625377,0.998343041623713,2102.07169354175,1e-06,0.0036189237264741,3762.32290757435,0.817137836592307,1e-06,33.072402177739,3.02351215412896e-05,19.18472328686,0,288.031874142756,0,4.53216447129462,0,11.9522171600539,0,37.8123544104559,0,41.1636716978114,0,16.5802075242163
-6.450154,6.883246,CIV,"Daloa - Côte d’Ivoire",TRUE,466.205,3289.988,31.5809428623859,1533808855.54,14723193.4671586,,,,0,12,1584.48536150027,466.205,99899.5262891201,102632.161718364,0.739437757073323,1604.40961219368,466.205,113196.674570515,116686.449148648,0.660782471467388,0,860.877419572544,0,17.435908679784,466.205,13497.5982337764,14723.1934671586,2.78334985475142,0,282.39610290019,0,36.6577943851956,0,724.81357055829,0,19.5548543791131
-5.51861,33.8304405,MAR,"Ibadan - Nigeria",FALSE,713.763,5725.32862494757,52.8535171786926,4086527735.32846,37724884.9820151,,,,0,8,1666.92466849963,713.763,253990.783290628,318480.969364938,0.468437921427062,1686.69939091507,713.763,285782.151623535,356052.65621727,0.421266202597919,0,1115.74584348286,0,19.6723353721578,713.763,30168.5937830119,37724.8849820152,2.18371551449785,0,4804.56012310561,0,7.43242181995081,0,1953.43688405652,0,13.5425313270158
-6.633194,4.750108,CIV,"San-Pédro - Côte d’Ivoire",TRUE,390.654,3573.43717303907,31.4114659961222,1395977525.39641,12271014.8372491,CISPY,San-Pdro,AI,2312.50202864,12,1686.2541176777,390.654,156000.753759548,243603.795151636,0.4222685838682,1696.08412554907,390.654,165337.116392324,264185.715044586,0.400746101543909,0,230.522549381623,0,43.886732883287,0,424.010919751333,0,29.2341743611808,0,138.55982571556,0,61.6193777498909,390.654,93248.7037433579,97833.5898969291,0.802380423909864
-6.600167,5.783308,CIV,"Soubré - Côte d’Ivoire",TRUE,310.768,3216.67761193904,26.8544558285881,999640468.107073,8345505.52893867,,,,0,12,1529.17436573178,310.768,46677.8209148064,89275.9443808388,1.01808196183571,1546.09977722039,310.768,52109.35026032,102986.387322625,0.922057814078939,0,894.848505407455,0,21.8161623655198,310.768,4755.75794645578,8345.50552893867,7.16360350447438,0,366.620679065748,0,39.5488078691743,0,2333.15229553788,0,11.5163797282168
-4.034,5.317569,CIV,"Abidjan - Côte d’Ivoire",TRUE,9022.419,3473.84868051719,53.7001420652593,31342518338.2232,484505182.072294,CIABJ,Abidjan,AI,3248.84543344,12,1588.3526269492,9022.419,1981054.56437296,2033443.91289479,0.723390337271262,1605.04176754369,9022.419,2199330.84574796,2254223.9754075,0.658443879289255,0,4276.70656090839,0,42.9645736057086,0,4894.48332180202,0,39.2686139751101,0,2546.95943146823,0,60.6972185073563,9022.419,598053.186655917,604712.463109575,1.59474139975457
-5.93669,6.13259,CIV,"Gagnoa - Côte d’Ivoire",TRUE,277.044,3292.32142843847,37.4502145097444,912117897.820308,10375357.2286376,,,,0,12,1567.58248140057,277.044,53328.2032918617,71269.6930440471,0.814370957453959,1582.33626781433,277.044,58565.352613423,78963.0480098728,0.748525791970729,0,635.824046829838,0,18.6322258382865,277.044,6441.15813773602,10375.3572286376,3.97966697168815,0,233.190565493725,0,36.3648713328116,0,868.677185330703,0,15.1327234393617
-5.900032,35.008948,MAR,"Ksar El Kebir - Morocco",TRUE,481.749,7708.3994,48.126429375983,3713513702.5506,23184859.2254504,,,,0,8,1673.51758904921,481.749,178331.401921664,286744.295740669,0.452088314321602,1696.01417587582,481.749,203807.325731737,327661.270969163,0.400894879855764,0,1093.21696001705,0,17.9546251944292,481.749,17823.0958973435,23184.8592254504,2.79249125208156,0,3647.45355343794,0,8.04119765000073,0,5021.7743270006,0,6.49744266465752
-5.667584,32.939324,MAR,"Khénifra - Morocco",TRUE,381.704,5810.59514758978,38.7930319415803,2217927410.21561,14807455.4642289,,,,0,8,1643.73914210872,381.704,118075.521153751,138316.091872596,0.531373319849393,1662.94973170028,381.704,132623.997586601,159143.961188371,0.478612148982664,0,895.168761490376,0,15.1323791941935,381.704,11850.3933362165,14807.455464229,2.70409524030031,0,1830.68333205525,0,9.39222185785203,0,863.316851267875,0,15.5023313611586
-5.759602,10.555472,MLI,"Kadiolo - Mali",TRUE,317.492,2328.09481993824,27.1998768923998,739151480.571833,8635743.31432181,,,,0,9,1596.40606947869,317.492,73328.1416567555,76440.3293549052,0.691203103869214,1614.16860739088,317.492,81907.9288332394,84650.1360279533,0.625684994599758,0,1461.75650543965,0,9.36535310503423,317.492,7302.00731576983,8635.7433143218,3.2048866243486,0,386.858344803467,0,22.7198887552505,0,202.452738361153,0,34.9857947027559
-5.6370897,9.4510393,CIV,"Nneyi-Umuleri - Nigeria",FALSE,286.071,3289.988,35.5292803371237,941170157.148,10163896.7553213,,,,0,12,1611.05409598191,286.071,72390.1134982735,79947.8732117724,0.63665692616616,1631.27368444942,286.071,82006.1316268229,89302.5860434991,0.569055124905251,0,1862.62352690043,0,7.51012167125988,286.071,7111.25259531473,10163.8967553213,3.07444191376941,0,357.056735504892,0,22.5894440622447,0,223.610345680251,0,30.8604627724465
-5.30024,6.8373399,CIV,"Arzew - Algeria",FALSE,37.253,3289.988,41.8178867554655,122561922.964,1557841.73530136,,,,0,12,1543.60196226536,37.253,6146.36945111699,15424.482315192,0.935573451367933,1562.66764037696,37.253,6949.14911389175,16925.1966156335,0.837714905571589,37.253,338.437022839623,1557.84173530136,11.3710389503492,0,868.34237247354,0,6.06724307872955,0,76.6913869008601,0,30.5929246896173,0,118.896661543723,0,22.8387475920834
-5.7609501,12.9448795,MLI,"Béni Mellal - Morocco",FALSE,89.799,2275.85166218126,32.5280080868355,204369203.412215,2920982.59818974,,,,0,9,1574.85422714473,89.799,18104.1981646845,24163.6633693936,0.781146537345001,1595.12961823575,89.799,20574.7932732296,25840.9880236912,0.696196764691735,89.799,1646.58327969184,2920.98259818974,4.3639752224458,0,439.636345018532,0,10.5246828602746,0,242.326801160759,0,15.6556262412118,0,60.128263760524,0,39.6477886237675
-5.0414901,6.5430398,CIV,"Chipata - Zambia",FALSE,39.005,3289.988,39.0763581540411,128325981.94,1524173.34979837,,,,0,12,1517.63139230544,39.005,5431.09607501253,18635.3713372999,1.08993125572284,1548.00877868874,39.005,6621.53476846601,20436.6000952064,0.911874434119155,39.005,429.903728332673,1524.17334979837,11.9663030257524,0,748.214089096995,0,8.27034352787624,0,109.951104550097,0,29.6989485269191,0,207.885084122767,0,19.42339988126
-4.6909499,5.9060397,CIV,"",FALSE,0,3289.988,32.1998889870533,0,0,,,,0,12,1553.71475646004,1e-06,0.000176123413562265,36802.742065098,1.41733891426155,1706.67086587747,1e-06,0.000450403687662967,47406.3918452765,1.12287398726393,1e-06,762.612830640376,3.21998889870533e-05,17.6205536609158,0,1085.57446619134,0,13.9245940360084,0,268.343057730234,0,35.3531986034594,0,1101.72424734918,0,13.7881823092145
-5.803895,35.77671,MAR,"Tangier - Morocco",TRUE,1007.037,7897.3692983517,60.3686019577755,7952943086.1042,60793415.8097524,MAPTM,Tanger Med,AI,29213.26830742,8,1991.7474414513,1007.037,2125652.63949142,2519767.12042392,0.0943599164836488,2000.47446978937,1007.037,2220648.13468621,2648087.0503032,0.0907190912652539,0,1194.09416961715,0,15.4274617441572,0,2227.80344281375,0,10.1797149261801,0,1193.98277080791,0,15.4284213192238,1007.037,1127171.06077583,1141684.34318429,0.160322192227324
-5.003295,34.043295,MAR,"Fès - Morocco",TRUE,1380.105,4852.60936283408,54.7499901257426,6697110444.69412,75560735.122488,,,,0,8,1659.59119862952,1380.105,469923.915901984,544792.571930478,0.487400202440681,1680.47941322296,1380.105,532535.156072742,629483.935489333,0.435508907648369,0,1807.03618181557,0,21.5613315398139,0,6554.75586157071,0,9.1330491764258,1380.105,63285.8596541996,75560.735122488,2.0142607365312,0,3346.10092146665,0,14.2986198346197
-4.31988,35.1186104,MAR,"Niangoloko - Burkina Faso",FALSE,87.889,5072.45692357448,40.7110698682004,445813166.556038,3578055.21964627,,,,0,8,1627.25305948565,87.889,24580.4415482026,66854.5479605268,0.581835131019366,1667.50892263675,87.889,31384.8731002782,66102.5314814824,0.466962831405637,87.889,687.255860591463,3578.05521964626,9.80276835633824,0,1218.36053755059,0,6.69232708531401,0,511.185691410171,0,11.9410334689896,0,2162.81692702039,0,4.56472411617168
-5.466706,12.38318,MLI,"Koutiala - Mali",TRUE,173.39,2285.3071,34.2337289247921,396249398.069,5935786.2582697,,,,0,9,1602.87609540371,173.39,41699.2032248341,48434.4332164371,0.666497675852207,1617.57312120002,173.39,45684.3503485169,52978.0752239503,0.613932346409801,173.39,4086.51551496141,5935.7862582697,3.38804521726718,0,954.733966910143,0,8.93160929316214,0,362.336036797942,0,17.0389807889224,0,96.9631075706325,0,41.0311431115896
-4.88414,13.22997,MLI,"Techiman - Ghana",FALSE,62.939,2285.3071,27.7750123769379,143834943.5669,1748131.5039921,,,,0,9,1580.91765334461,62.939,13186.1046505089,15223.1639241706,0.754592438606953,1598.22436623848,62.939,14702.8492138739,16875.8912981869,0.684157488687191,62.939,1317.19410758278,1748.13150399209,3.74599658949317,0,238.203628164389,0,11.7139037151622,0,138.133889221415,0,16.8448470468878,0,36.5948485120227,0,40.8370094463593
-5.1606898,9.9698601,CIV,"",FALSE,0,3219.81194498956,23.6325528252283,0,0,,,,0,12,1661.84624682282,1e-06,0.000345153749311277,2620.46145465823,0.781904801927028,2222.09173625136,1e-06,0.00630556536592622,2045.03785144764,0.67374608670493,1e-06,63.2655479078336,2.36325528252283e-05,6.83679100254912,0,97.2153592740979,0,5.13421314497731,0,12.4651746902632,0,20.1913294931655,0,5.7517627923172,0,33.8139980822467
-5.31213,8.7883997,CIV,"",FALSE,0,3289.988,26.5663110545579,0,0,,,,0,12,1657.69779594133,1e-06,0.000336633854441098,4026.76403109419,0.799338035302813,2215.60273136058,1e-06,0.00612382974665278,3793.28218081235,0.68176955835038,1e-06,87.1329668466674,2.65663110545579e-05,8.43709043104819,0,233.599828584124,0,4.37185775761945,0,18.7247043883906,0,23.5164121733301,0,12.9485052188122,0,30.0723906523966
-5.199932,9.583411,CIV,"Ferkessédougou - Côte d’Ivoire",TRUE,160.267,3267.52578171889,28.1654532445121,523676554.458741,4513992.69513822,,,,0,12,1586.41232322003,160.267,34762.3433599715,43444.2654407545,0.731393686553888,1609.23774552582,160.267,40100.5568278903,47867.0039554146,0.643152431548999,160.267,2212.69034835954,4513.99269513822,4.99333823491191,0,1572.55021717692,0,6.2700123664385,0,274.536255850046,0,20.0726606368902,0,136.578410492842,0,31.9705453146254
-4.93154,12.8220196,MLI,"Siliana - Tunisia",FALSE,24.889,2270.88540033439,28.0674148072147,56520066.7289225,698569.887136766,,,,0,9,1598.03697186923,24.889,5807.37493142458,6309.97057722541,0.684877235480597,1611.36778881291,24.889,6310.42218451774,7091.10186054896,0.635541209350252,24.889,564.013068324787,698.569887136767,3.43631856724011,0,114.432815438479,0,9.95220110145278,0,50.8652143184981,0,17.0872542242314,0,13.6456084271892,0,41.0794165859467
-4.805582,12.183353,MLI,"Kouri - Mali",TRUE,137.964,2215.83852651061,27.169998873553,305705946.47151,3748481.72459086,,,,0,9,1590.58192116309,137.964,30720.6489466458,35183.3226411728,0.714316694920108,1605.50173271051,137.964,33727.0031242038,40114.1306154117,0.656748068540119,137.964,2512.27369396467,3748.48172459087,4.1643998885319,0,925.428056448499,0,8.10404702304787,0,287.797286804431,0,17.6551981885937,0,78.9794912298743,0,41.807497588721
-4.8452396,10.9798899,BFA,"Tiko - Cameroon",FALSE,33.422,1561.522,23.9344297130372,52189188.284,799936.50986913,,,,0,13,1578.55242609647,33.422,6898.05614127123,8758.55170908525,0.764829645286202,1600.82830620884,33.422,7935.68049741102,9364.06512728497,0.674206631895498,33.422,266.321569190923,799.936509869129,7.2359975181096,0,507.610534497895,0,4.70705079661228,0,55.4820470314238,0,20.5905361134697,0,23.2148382863962,0,36.8065856097809
-5.016623,7.683365,CIV,"Bouaké - Côte d’Ivoire",TRUE,659.233,3289.988,40.2539059826232,2168868659.204,26536703.2026426,,,,0,12,1606.52488907486,659.233,162187.62379938,175861.546054621,0.652990166497563,1625.29997475376,659.233,182170.652844032,200988.086449167,0.588158060631116,0,2170.81079890203,0,12.0372223109298,659.233,23160.0786298847,26536.7032026426,2.4837863947389,0,645.858455793728,0,27.0094680279361,0,609.782070384811,0,28.064533661062
-3.2846298,9.6600199,CIV,"",FALSE,0,3217.02361233922,19.5825015048918,0,0,,,,0,12,1624.10069932304,1e-06,0.000274304999360035,4704.63907808989,0.958253784629948,2110.96466416962,1e-06,0.00377497279097688,4569.93609206739,0.80708875831765,1e-06,155.866589020624,1.95825015048918e-05,7.67407478356044,0,100.836721184503,0,10.2592490236007,0,64.6490041187089,0,13.7981275981263,0,16.4854401348279,0,34.3131842299396
-4.758877,10.630955,BFA,"Banfora - Burkina Faso",TRUE,126.236,1561.522,24.6889188876878,197120291.192,3116630.36470615,,,,0,13,1583.19788128604,126.236,26831.157842509,31473.5018186151,0.744867462289806,1604.27557483583,126.236,30625.0726829599,34975.4947115212,0.661279514738384,126.236,1431.8505465894,3116.63036470616,5.56710210423958,0,1270.91551178833,0,6.02767543698238,0,228.508975055306,0,18.9216413063055,0,90.2987328838516,0,35.1376902444692
-4.1257401,6.7047696,CIV,"Cidade de Nacala - Mozambique",FALSE,74.281,3289.988,36.3507584903294,244383598.628,2700170.69142016,,,,0,12,1568.7327437786,74.281,14403.6164053158,23114.989292209,0.809011854642022,1580.59034356004,74.281,15530.1329806138,25742.7979728485,0.756000170009819,74.281,1538.70651931828,2700.17069142016,4.94525315993932,0,367.757619233607,0,12.8405789657744,0,156.687507903846,0,22.6778986668853,0,159.79793562922,0,22.3826557983731
-3.98735,7.06142,CIV,"Ilesa - Nigeria",FALSE,101.136,3289.988,30.9159129234854,332736226.368,3126711.76942962,,,,0,12,1573.41369555622,101.136,20204.0866955274,31073.0453235523,0.787606576547442,1598.09814407316,101.136,23607.1975216096,38695.2895007282,0.684643970042702,101.136,2094.55813036015,3126.71176942962,4.78455893816903,0,701.651722781398,0,9.91948496882506,0,249.620485284679,0,19.7568046554824,0,199.833197822637,0,22.9152761815326
-4.016502,34.216732,MAR,"Taza - Morocco",TRUE,215.147,4756.2676,43.2527353559962,1023296705.3372,9305696.25363651,,,,0,8,1621.58134371742,215.147,58106.7888377369,82867.0391148621,0.600408949320328,1651.63146390562,215.147,69818.5718201932,103143.767090628,0.508952769667149,0,630.733869446858,0,15.2197916248214,215.147,8029.72365945061,9305.69625363651,2.79150927359936,0,915.042793762918,0,11.8762283133182,0,633.443021602218,0,15.1763652738371
-4.1851397,14.0335598,MLI,"Rubengera - Rwanda",FALSE,35.513,2285.3071,26.5762081399309,81158111.0423,943800.879673367,,,,0,9,1585.87636721192,35.513,7676.88126487296,8451.77134090202,0.733621312438451,1601.93377390985,35.513,8490.5755115317,9337.80604740131,0.670030843206642,35.513,896.158126494118,943.800879673366,3.19645254371612,0,92.0763156151583,0,14.5711134478817,0,77.8562315196642,0,16.2953030858627,0,18.2147236704611,0,42.9183456390661
-3.4726,12.4589195,BFA,"Al Marj - Libya",FALSE,63.617,1561.522,23.9784948796488,99339345.074,1525439.90875862,,,,0,13,1561.49466197163,63.617,11778.2946254141,16790.1918045974,0.843395675327189,1583.41975930862,63.617,13540.6020922301,18532.3630050125,0.743928627635304,63.617,949.549389917062,1525.43990875862,5.3927062453185,0,380.817895413887,0,9.916084931084,0,203.72838873839,0,15.047029425959,0,42.9431520344718,0,42.4837188476321
-4.283237,11.183756,BFA,"Bobo-Dioulasso - Burkina Faso",TRUE,903.887,1563.71297280047,35.5323045529694,1413419827.8457,32117188.1654698,,,,0,13,1606.83363967126,903.887,222806.308074741,243578.483454539,0.651864738687339,1625.07842471402,903.887,249437.401809302,272546.1428012,0.588880116603966,0,4427.34805447576,0,9.1810243791354,903.887,24284.8991383508,32117.1881654699,2.95186198430497,0,1506.67615948166,0,18.8353476235118,0,510.55873266819,0,38.7516124681731
-3.4547899,10.1577702,BFA,"",FALSE,0,1561.522,18.5995770061625,0,0,,,,0,13,1635.28879559595,1e-06,0.000293797976741903,956.675807636344,0.901767004895412,2140.0194197309,1e-06,0.00432794101656899,1185.03304586793,0.773515279738634,1e-06,41.9932352203713,1.85995770061625e-05,7.1697328823861,0,35.0593554983936,0,8.0863632755028,0,12.1806004093204,0,16.3622645669056,0,3.5999360318,0,36.8773211962728
-3.932213,35.247186,MAR,"Al Hoceïma - Morocco",TRUE,157.146,5081.60594467335,48.3370623895879,798554047.781638,7595976.00627419,,,,0,8,1616.03066856464,157.146,41011.29703649,88869.3093704942,0.619226341662816,1651.43384035837,157.146,50935.35264443,86772.5196611473,0.509501179865897,157.146,1470.27669640016,7595.97600627418,7.72325931974891,0,2337.20937032597,0,5.67024190282003,0,556.791893460408,0,14.7549609398776,0,1482.76502636336,0,7.67983301454256
-3.8383498,11.7186594,BFA,"",FALSE,0,1561.522,21.1535394343159,0,0,,,,0,13,1650.49234914102,1e-06,0.000322284444615551,2411.19222365662,0.830881276422524,2181.85527117188,1e-06,0.00525247000815313,3512.82972286698,0.723296373700164,1e-06,113.982634251303,2.11535394343159e-05,7.1098737971471,0,138.221947394155,0,6.25225016057544,0,31.4816436372567,0,16.7641970243389,0,8.30288240720724,0,40.7632156410837
-3.516123,11.495237,BFA,"Houndé - Burkina Faso",TRUE,102.324,1561.522,23.1279888600729,159781177.128,2366548.3321181,,,,0,13,1578.38992355812,102.324,21097.193956517,26122.2942068177,0.765538632537895,1601.43651040767,102.324,24388.1554205511,28389.9184501449,0.671905632955325,102.324,1159.38052321188,2366.5483321181,5.66587573022738,0,891.490590119605,0,6.75056105400029,0,260.753386823702,0,15.3201990132643,0,63.418978844444,0,39.3192190330848
-3.2551699,10.9504795,BFA,"Abū Za‘bal - Egypt",FALSE,25.688,1559.68196236009,20.0266158993534,40065110.249106,514443.709222591,,,,0,13,1570.06385903731,25.688,5023.51437950232,8138.23376855052,0.80286027416307,1596.09803839745,25.688,5921.47800448868,9609.48252540386,0.692404274963367,25.688,374.162783717019,514.44370922259,6.02725198453336,0,302.577131452987,0,6.94388212549866,0,89.1569260678548,0,15.6815751776808,0,23.7259480577123,0,37.9033294882858
-4.031478,6.172398,CIV,"Adzopé - Côte d’Ivoire",TRUE,156.488,3289.988,28.5378806552521,514843642.144,4465835.86797909,,,,0,12,1535.21993441679,156.488,24450.696733404,37154.8760241787,0.982562209610259,1553.21696577866,156.488,27473.0253191798,43019.3490182211,0.884721701231702,156.488,2289.21256551591,4465.83586797909,6.25352881584584,0,430.645798639022,0,19.0474025356299,0,304.742054470672,0,23.9861737763494,0,435.313792892985,0,18.9109908465592
-4.183454,14.484661,MLI,"Mopti - Mali",TRUE,175.604,2287.68401478936,27.9093141499409,401726463.733071,4900987.20198623,,,,0,9,1589.16857973565,175.604,38755.9415045622,39287.5415688538,0.720055800534514,1605.13546638468,175.604,42830.7325133714,43483.4324477365,0.658098035012022,175.604,4575.46934344249,4900.98720198622,2.95267766931537,0,357.886434113731,0,16.1439442441242,0,357.407977361036,0,16.1583488037814,0,83.2733354058762,0,42.6745713208077
-3.5236499,14.0762997,MLI,"Kamsar - Guinea",FALSE,105,2285.3071,24.7752788915821,239957245.5,2601404.28361612,,,,0,9,1585.9015259424,105,22701.557718547,22879.9046501432,0.7335171026454,1600.86035051978,105,24936.0678881662,25165.0237229358,0.674085177250583,105,2443.18745578804,2601.40428361612,3.19111027931205,0,222.41898522559,0,15.7687924528933,0,227.455039960455,0,15.5351683564635,0,49.5434364549128,0,42.9130046188133
-0.04122,16.2347698,MLI,"Catabola - Angola",FALSE,49.483,2285.3071,23.3834754351307,113083851.2293,1157084.51495657,,,,0,9,1546.4078344412,49.483,8313.82011724734,11353.7413838247,0.920406096079304,1565.47779155298,49.483,9397.86755960911,12127.9772195926,0.824277822399862,49.483,770.203975756866,1157.08451495657,5.17839719265775,0,115.278146582569,0,18.3696637567868,0,180.35680930655,0,13.6304700997723,0,35.6799418532027,0,40.1466926423397
-3.7660499,6.5562596,CIV,"",FALSE,0,3330.13071312614,26.749789223801,0,0,,,,0,12,1600.30067504339,1e-06,0.000236657391722551,2893.83772138195,1.0917924033937,2021.94639818523,1e-06,0.00245358197196016,3550.35540943242,0.9019063610985,1e-06,141.444532904679,2.6749789223801e-05,7.73188212696692,0,48.6705497475592,0,15.7458159014847,0,32.3253863014372,0,20.6845870925381,0,33.0300415884504,0,20.3893442216873
-3.199681,5.466835,CIV,"Aboisso - Côte d’Ivoire",TRUE,115.831,3283.31415970208,30.802133925745,380309562.432452,3567841.97475296,,,,0,12,1472.43769297674,115.831,11920.6039564176,53694.8595988235,1.43074982496099,1498.27018163211,115.831,14185.0332609308,63361.4582311746,1.22344537691693,115.831,1703.15331266256,3567.84197475297,13.6342796538999,0,471.372094672735,0,32.1039729677976,0,488.083505508245,0,31.3669245540508,0,1846.5329979797,0,12.9190321196194
-2.884658,34.416684,MAR,"Taourirt - Morocco",TRUE,321.876,5909.4069394727,41.5215982796711,1902096268.04972,13364805.9678674,,,,0,8,1620.96884541007,321.876,86604.3016560403,88964.6776224808,0.602453871789556,1660.47465049997,321.876,110183.175244072,117960.499061951,0.485071280616419,0,603.313197226248,0,16.340603035061,321.876,13353.9537728825,13364.8059678674,2.07279674173142,0,490.293635670079,0,18.764015923397,0,724.933737549045,0,14.4576516184273
-3.3598599,7.0014696,CIV,"",FALSE,0,3315.53558628181,33.597304142047,0,0,,,,0,12,1614.6223903813,1e-06,0.000258710405092194,11126.763175907,1.00916523492694,2087.67045264787,1e-06,0.00337849775836308,18516.1743159813,0.833172201682885,1e-06,617.434664896152,3.3597304142047e-05,8.04220129574531,0,277.353289911914,0,13.7113451776061,0,301.319805421171,0,12.9742967342663,0,104.802854333377,0,26.2333370158614
-2.933289,35.166696,MAR,"Nador - Morocco",TRUE,398.424,7606.25038889618,51.3612061101847,3030512704.94557,20463537.1832442,,,,0,8,1629.63039679817,398.424,113068.29632621,124211.522711641,0.574240421736845,1670.45461985555,398.424,144809.315296995,156058.141854573,0.459603866410398,0,881.876385350231,0,14.4867006424242,398.424,18757.698886985,20463.5371832442,1.88707106033473,0,526.538419886185,0,20.4309197330693,0,885.856776051718,0,14.4432730072285
-3.483656,6.733739,CIV,"Abengourou - Côte d’Ivoire",TRUE,164.424,3393.50643563291,31.3151713379485,557973902.172505,5148965.73207084,,,,0,12,1564.91830614819,164.424,31116.1679852375,39648.4607993216,0.826935020652629,1580.00812160549,164.424,34250.1589980676,45957.7906836262,0.758511094493783,164.424,3076.82104508301,5148.96573207084,4.60044533051134,0,388.127536645939,0,18.2901975191804,0,412.828322745595,0,17.5531491355054,0,279.023235449765,0,22.7915810223845
-2.416466,13.583359,BFA,"Ouahigouya - Burkina Faso",TRUE,124.58,1563.41905949248,24.9678181813964,194770746.431573,3110490.78903837,,,,0,13,1579.63652745739,124.58,25889.531640148,28875.8299811583,0.760118276979051,1594.03847954223,124.58,28349.1815360243,31844.6491584693,0.700497522643977,124.58,2353.54262936321,3110.49078903836,3.97755508570871,0,319.350927483203,0,15.0632538500171,0,420.507234815236,0,12.5385871041766,0,67.3045839598754,0,42.5338296755536
-3.0625598,11.1466293,BFA,"Hohoe - Ghana",FALSE,25.922,1561.522,20.2432159885365,40477773.284,524744.644854843,,,,0,13,1579.33433114184,25.922,5376.67091912542,5893.15070606348,0.761428531943202,1600.7905039216,25.922,6153.43601638919,6600.18618703596,0.674349939195572,25.922,307.265380633872,524.744644854843,5.21091143014502,0,169.891803754956,0,7.73525250253346,0,63.7714838446227,0,14.8652345667663,0,15.1847255252575,0,38.6947003237172
-2.7472,11.7775002,BFA,"Sébékoro - Mali",FALSE,40.627,1561.522,21.1605772475616,63439954.294,859690.771836685,,,,0,13,1567.37776959256,40.627,7810.08519719307,9776.0754357996,0.815328654012162,1589.0630607324,40.627,8960.45917281429,10490.4822816891,0.720486129964218,40.627,412.275936390372,859.690771836685,6.2330020410523,0,269.399394292206,0,8.27735377354903,0,131.282456086406,0,13.3665132288821,0,24.5758987886838,0,40.8460116673797
-3.03983,6.1229501,GHA,"",FALSE,0,3802.82235998441,26.9757504642009,0,0,,,,0,14,1560.48278426489,1e-06,0.000183947549614334,6167.80304322144,1.36413602555544,1895.92563744218,1e-06,0.00128919075502421,10939.5344594117,1.01116445180245,1e-06,424.738587936459,2.69757504642009e-05,8.81874004001624,0,104.162627167103,0,22.5084922310772,0,109.4966130184,0,21.7714437741622,0,140.026848375309,0,18.4790714389565
-2.75492,6.4242897,GHA,"",FALSE,0,3953.2102,29.0369393929079,0,0,,,,0,14,1596.70650334599,1e-06,0.000231395618361628,7596.91076377429,1.1137819881931,1964.91362918483,1e-06,0.00184305730992722,8418.39085297359,0.955277266906525,1e-06,293.111039191829,2.90369393929079e-05,8.95902432356293,0,72.9215910287979,0,22.6487763505126,0,133.802085360323,0,15.1114769031237,0,85.6208528934186,0,20.3499087947293
-2.366508,12.250045,BFA,"Koudougou - Burkina Faso",TRUE,252.816,1560.77676867213,26.6972220059627,394589339.548613,6749484.87865947,,,,0,13,1560.23783368207,252.816,46431.9360533042,62842.9039975174,0.849529411027696,1576.33381865397,252.816,51450.6274182811,65125.1606181673,0.774572500299289,0,1579.34720025064,0,9.24505577918597,252.816,2232.76452958862,6749.48487865947,7.33949191112439,0,1052.06282234315,0,12.1208617165965,0,152.850799307784,0,43.85806531986
-2.883702,7.283584,GHA,"Domaa-Ahenkro - Ghana",TRUE,1000,3838.14915389001,37.1443756204362,3838149153.89001,37144375.6204362,,,,0,14,1595.24342616225,1000,229284.040050294,255607.002846801,0.69574838232958,1617.17896687483,1000,262836.110479719,299620.958582987,0.615280360240168,0,2724.84172397493,0,14.1219171161247,0,1642.39703431005,0,19.7910609974864,1000,30309.3400267255,37144.3756204362,2.83402401060574,0,991.178725847222,0,27.7131907355641
-2.800007,8.033291,CIV,"Bondoukou - Côte d’Ivoire",TRUE,141.568,3415.9826182662,35.1347520530404,483593827.30271,4973956.57864482,,,,0,12,1596.0422914615,141.568,32622.1992320673,39495.0702680975,0.692621968939465,1612.40902553966,141.568,36126.1341851053,44370.7955380875,0.631857038142382,141.568,2485.32866893201,4973.95657864482,4.31612901304571,0,412.663297379845,0,14.2873957680541,0,792.387989755902,0,9.24822487764519,0,137.247439585705,0,29.7632809609597
-3.0037599,9.2666302,CIV,"Birkat as Sab‘ - Egypt",FALSE,94.883,3281.84616266209,23.3886063445532,311391409.451867,2219181.13579024,,,,0,12,1584.05935980328,94.883,20277.1594745452,22908.660779781,0.741229676097149,1598.63552746689,94.883,22222.2075992741,25719.1205965367,0.682575458047665,94.883,1305.92075949691,2219.18113579024,4.97786974413539,0,332.977475106792,0,12.3797395703103,0,392.089156518134,0,11.101922499168,0,81.5833549338624,0,31.6169791483471
-2.500115,10.066876,GHA,"Wa - Ghana",TRUE,107.214,3936.48868750266,37.1891567694194,422046698.141911,3987198.25387653,,,,0,14,1579.75103228905,107.214,22296.7809299839,38396.5342797219,0.759622677176859,1598.05539796036,107.214,25019.2330710248,43937.7257752325,0.684808808322786,107.214,2202.39712863902,3987.19825387653,5.03729399684099,0,567.55091980283,0,12.4391632060924,0,769.304574856378,0,10.1561438546094,0,112.947202236366,0,36.4930982152675
-2.7890699,11.0427799,BFA,"",FALSE,0,2197.95807905528,23.1288106598402,0,0,,,,0,13,1637.84510556215,1e-06,0.000298423116613649,2622.24039846881,0.889389427390776,2157.17936597458,1e-06,0.00468777506096872,3234.03558060761,0.753266014219008,1e-06,126.728260330484,2.31288106598402e-05,6.52923928121438,0,77.6134183531099,0,9.05358034938923,0,41.8047123096199,0,13.6760730033159,0,8.35343793060013,0,40.0130272534815
-2.75752,5.2915597,GHA,"Kolda - Senegal",FALSE,27.938,3680.15963132643,31.4353166300399,102816299.779998,878239.876010055,,,,0,14,1492.09799549307,27.938,3283.01579150319,7937.56683636637,1.26975440317214,1517.71244868989,27.938,3892.19388348107,10570.6809933128,1.08940746454458,27.938,306.985234182243,878.239876010055,11.5304785719128,0,94.8997135757046,0,25.2202308270657,0,99.2171358787924,0,24.4831823673513,0,217.080817012731,0,14.5270698936478
-2.49212,9.0273695,GHA,"Mesra - Algeria",FALSE,10.555,3903.89231157778,29.1246396378985,41205583.3487034,307410.571378019,,,,0,14,1560.88554495316,10.555,1946.58339428627,8686.43800657323,0.84636227000064,1584.67827138105,10.555,2264.50590529488,9403.27577729269,0.738628208524973,10.555,329.46064830777,307.410571378019,6.89831420525683,0,110.383864987188,0,14.300183411925,0,245.002085235483,0,8.4042471850694,0,31.1372066678408,0,33.2474933344671
-1.911082,34.686468,MAR,"Oujda-Angad - Morocco",TRUE,619.82,7265.94785567517,64.1855171619656,4503579799.90458,39783467.2473295,,,,0,8,1648.99247658447,619.82,197950.46084822,198154.620248628,0.51633045740936,1678.06462112423,619.82,235752.652113781,276377.169297982,0.44118189324652,0,1065.31007174243,0,17.9460318608179,619.82,37092.4099963308,39783.4672473295,1.68304510540774,0,724.629738202688,0,23.2028689806386,0,1996.99786914843,0,11.8041319467289
-2.63341,7.4203897,GHA,"Béchar - Algeria",FALSE,96.471,3953.2102,36.4293790503192,381370141.2042,3514378.62636334,,,,0,14,1579.10403972952,96.471,19980.5949325928,37476.1531252524,0.762428305122583,1600.55260805796,96.471,22866.542553299,38218.2572517435,0.675252547319979,96.471,1073.31203393834,3514.37862636334,7.30852075873388,0,453.602463991615,0,12.9776646493102,0,1227.79037535618,0,6.68185941899761,0,129.084866135478,0,29.9959945169459
-2.42713,6.64852,GHA,"",FALSE,0,3953.2102,30.0019266172557,0,0,,,,0,14,1613.91501406877,1e-06,0.000257579210312528,19238.5528189199,1.01308390819249,2084.34219997787,1e-06,0.00332502108466355,26754.020989209,0.836824294868839,1e-06,443.905864429565,3.00019266172557e-05,12.8637147415332,0,285.128677382274,0,17.2795749895494,0,1043.52421273976,0,7.27598790886117,0,171.454675194509,0,24.2545991549728
-1.9408599,7.58079,GHA,"Nnewi - Nigeria",FALSE,104.212,3953.2102,38.4258396252504,411971941.3624,4004433.5990266,,,,0,14,1556.61985770589,104.212,18700.2573961345,50388.5922992735,0.86746652106473,1582.28600473397,104.212,22022.762130487,52758.7117422278,0.748739819650907,104.212,1386.14740617142,4004.43359902659,8.47202914117531,0,684.795936195653,0,13.5566672341507,0,1555.50309221961,0,7.84536462392845,0,211.175101323575,0,29.7006015108593
-2.3793299,11.9639797,BFA,"Gīnīr - Ethiopia",FALSE,8.983,1555.86958355345,20.7091832742223,13976376.4690606,186030.593352339,,,,0,13,1544.24451926172,8.983,1488.28558536628,4891.98000489768,0.932075748010523,1572.96844969436,8.983,1789.4752915775,4757.96411589337,0.789615590885804,8.983,152.949010919123,186.030593352339,7.81025787170196,0,107.91594754281,0,9.85460913525517,0,86.1038597419504,0,11.4555182856277,0,12.0819927044728,0,42.423267468338
-2.3323998,7.3266597,GHA,"Matola - Mozambique",FALSE,225.038,3934.99061586051,37.6600902235125,885522418.212017,8474951.38371881,,,,0,14,1564.08774411128,225.038,42361.4852569677,71771.6608308805,0.830894426380634,1583.09524012525,225.038,47800.2843273779,72341.5018886953,0.745302234312983,0,1445.15130791437,0,10.1231395466026,225.038,1600.56329772503,8474.95138371881,9.4567563808582,0,1590.5323544614,0,9.49647505596642,0,341.688276744757,0,26.4750863355136
-1.527486,12.368619,BFA,"Ouagadougou - Burkina Faso",TRUE,2497.171,1561.522,38.4954008979503,3899387454.262,96129598.7557355,,,,0,13,1593.34446711645,2497.171,565782.145579744,606414.115346324,0.703248184526301,1612.6403745038,2497.171,638157.326014588,687743.231779916,0.631041690341151,0,6295.00454579642,0,14.4215377228845,0,3652.27840270584,0,20.7316094538456,2497.171,85489.2088001676,96129.5987557354,2.53358067128438,0,1109.47119765654,0,45.877341932402
-0.85435,10.77911,GHA,"Calabar - Nigeria",FALSE,93.991,3844.83852701892,32.5092252880077,361380217.993035,3055574.59404513,,,,0,14,1565.8282549935,93.991,17890.880503146,31467.4129656241,0.822618830337147,1588.89960715435,93.991,20708.8048824739,34704.1647392035,0.72115346224026,93.991,1454.92256942464,3055.57459404513,5.97570068634481,0,375.426366919015,0,14.743442828733,0,869.748679012064,0,8.42079132099156,0,92.8041087781338,0,37.4315049208677
-2.02933,8.1420498,GHA,"",FALSE,0,3909.39329504001,30.4736731110018,0,0,,,,0,14,1649.14442018382,1e-06,0.000319662054424292,407.0568994109,0.836899350385102,2188.04714056382,1e-06,0.00540344747161539,823.635463090471,0.715825201831231,1e-06,24.6326122189082,3.04736731110018e-05,7.42945042306868,0,8.7332499548237,0,14.8313182610839,0,26.7971360137466,0,7.02378831854891,0,2.8169334659863,0,31.5340177416769
-0.852935,9.408997,GHA,"Tamale - Ghana",TRUE,1146.388,3953.2102,39.9885546755501,4531912734.7576,45842399.2173945,,,,0,14,1606.43856225066,1146.388,281888.285521372,310370.177952799,0.653309084660211,1624.32136387817,1146.388,314887.473788805,346850.864187439,0.591354904600559,0,3584.82786221557,0,12.4632465435986,0,1781.46968926045,0,19.8651156978349,1146.388,38954.6399773093,45842.3992173945,2.54041066357515,0,713.290642696208,0,36.5678173724572
-2.0349898,7.0902801,GHA,"El Wak - Kenya",FALSE,45.153,3953.2102,34.7409805927437,178499300.1606,1568659.49670415,,,,0,14,1548.67874984437,45.153,7698.46593062567,26420.6303680507,0.908330254924331,1573.46652471967,45.153,9023.3099949601,30819.4320830505,0.787368873524414,45.153,592.073656357803,1568.65949670416,10.9768443102218,0,356.549304237998,0,15.3927045820545,0,1175.92721322379,0,6.94716641725154,0,149.691096280592,0,27.4534766867765
-1.89963,5.9580197,GHA,"",FALSE,0,3910.51913372888,33.3768235924992,0,0,,,,0,14,1596.16060665789,1e-06,0.000230605717788507,12637.8115686238,1.11713544069085,2004.37222170698,1e-06,0.00224847437411695,36469.2107099827,0.919106842270523,1e-06,480.423609117059,3.33768235924992e-05,16.4778551569957,0,336.47426352583,0,20.8937153938412,0,894.181888675073,0,10.8901282858273,0,667.788704838126,0,13.2299294802602
-1.625058,6.70004,GHA,"Kumasi - Ghana",TRUE,6898.949,3953.2102,55.7015155157662,27272995556.0798,384281914.76598,,,,0,14,1619.39701880673,6898.949,1838317.31663832,1946641.33126321,0.607739344583355,1638.19615290416,6898.949,2063222.85966215,2192331.79559984,0.547775615130197,0,8729.54315622977,0,21.8044869666614,0,6619.91887312621,0,26.2203472383824,6898.949,365697.501320208,384281.91476598,1.80769665710114,0,6891.20420984948,0,25.5276088738988
-2.26566,12.9614601,BFA,"Zomba - Malawi",FALSE,78.833,1627.34871682273,19.3775853082574,128288781.393286,1527593.18260586,,,,0,13,1552.41855404652,78.833,13768.9394457914,23866.6463508639,0.888825175123015,1578.13770031712,78.833,16227.8577478415,29403.066277977,0.766640499705803,78.833,1167.91684929221,1527.59318260586,6.58535043441367,0,426.213217482554,0,12.8954221622859,0,678.209595733809,0,9.46115635976287,0,65.0750455469355,0,45.1416248453339
-1.083295,13.083043,BFA,"Kaya - Burkina Faso",TRUE,141.824,1561.522,20.6131088024861,221461296.128,2923433.54280379,,,,0,13,1559.19109246319,141.824,25873.0346226189,29765.1899569288,0.854681044068261,1577.49089334908,141.824,29075.1877209351,32530.0048001373,0.769474203146338,141.824,1567.5933485071,2923.43354280379,5.81069224814634,0,316.143515142816,0,16.8963915217309,0,739.436549631618,0,9.58921097311447,0,88.1633824198936,0,39.5844535811509
-2.0190399,12.1964092,BFA,"Sakouéba - Mali",FALSE,41.911,1578.17761345313,20.6985723020877,66143001.9574339,867497.863752799,,,,0,13,1549.83362565911,41.911,7199.17954860621,20218.3700911067,0.902256641044074,1576.83427318882,41.911,8556.43237307032,23415.1900295107,0.772362810221179,41.911,867.497822730404,867.497863752798,6.94983055179173,0,355.553763302902,0,12.595525516498,0,560.686216552793,0,9.2969370805241,0,52.3646822753816,0,45.164183623169
-1.9836799,4.92097,GHA,"Bocaranga - Central African Republic",FALSE,27.719,3953.2102,37.6841551729159,109579033.5338,1044567.09723805,,,,0,14,1529.14085669866,27.719,4162.52323215468,24188.8659702295,1.01828255452871,1567.04359188266,27.719,5317.31667739192,20824.0096157657,0.816894765003181,27.719,279.647119860646,1044.56709723806,14.4589065077945,0,200.073967781053,0,18.0751520901867,0,212.966424462571,0,17.3381034764485,0,766.572536818723,0,7.38199101479559
-0.78598,32.4087105,DZA,"",FALSE,0,13888.5151898265,38.4111599953153,0,0,,,,0,10,1653.67602253756,1e-06,0.000328555304579008,3964.36411331704,0.816848629311166,2204.33962902733,1e-06,0.0058195482445754,4406.84497568141,0.695643742725319,1e-06,257.121690717061,3.84111599953153e-05,4.62430267731985,0,100.330020063818,0,8.66000477642026,0,10.85065675707,0,38.1506013138714,0,32.0209588293782,0,18.5431073433369
-0.29448,27.9394188,DZA,"Cuango - Angola",FALSE,77.757,13747.3943974488,41.9438900722357,1068956146.16242,3261431.06034683,,,,0,10,1603.71934704452,77.757,18798.680676524,20992.4457653766,0.663346578949337,1622.97701193095,77.757,21182.0198365363,23173.0451893513,0.595778046995784,77.757,3261.43099177074,3261.43106034683,2.20191781633917,0,189.487904636204,0,14.6786316949263,0,56.5477987691072,0,32.869727294539,0,68.8182882074197,0,28.8361533331034
-1.735029,8.052471,GHA,"Kintampo - Ghana",TRUE,111,3953.2102,31.8375771190788,438806332.2,3533971.06021775,,,,0,14,1583.13899681851,111,23584.0092456337,31073.6523472775,0.745116874401806,1603.69117373561,111,26830.8578212649,34526.3729874245,0.663451470627231,111,1080.6629394128,3533.97106021775,6.68009995474458,0,333.058331499296,0,14.6407367505024,0,1187.14132926742,0,6.27443825070437,0,109.235280817674,0,30.7846708197509
-1.704435,4.940486,GHA,"Sekondi - Ghana",TRUE,345.041,3953.2102,55.5145875968161,1364019600.6182,19154808.818993,GHTKD,Takoradi,AI,343.8114,14,1674.90837208233,345.041,128790.97389998,172820.45378938,0.448724399231684,1672.87645416567,345.041,127237.046082416,205802.666241815,0.453650082903321,0,790.044602838483,0,18.5035014700043,0,1397.96932280476,0,12.6480400384171,0,1052.8523697308,0,15.2795303921676,345.041,23006.6132861635,31875.830618993,1.95487892215327
-1.66741,7.6862698,GHA,"",FALSE,0,3953.2102,34.7148244506919,0,0,,,,0,14,1653.13281672717,1e-06,0.000327477647504265,588.418613878824,0.819220696294178,2172.14969926761,1e-06,0.00502344572126898,1011.75258712133,0.735076861649411,1e-06,29.4328663852386,3.47148244506919e-05,7.7713044529368,0,10.5069441726997,0,15.4429887836752,0,31.8975625291881,0,7.36564240509216,0,4.0184823087049,0,29.3094461198988
-1.2003399,5.16293,GHA,"Lubango - Angola",FALSE,242.548,3953.2102,47.126908309488,958843227.5896,11430537.3566497,,,,0,14,1581.12248445408,242.548,50881.163470103,149282.525573743,0.753712946825528,1603.67388794276,242.548,58622.2475696434,154050.480146821,0.663515833338722,0,721.754662151955,0,23.6973762040541,242.548,3791.76955180802,11430.5373566497,7.84149202425535,0,2053.96159565807,0,11.8004467368438,0,4356.06642663756,0,7.14875366844169
-0.983493,7.750098,GHA,"Atebubu - Ghana",TRUE,105.938,3953.2102,32.7029046576606,418795182.1676,3464480.31362325,,,,0,14,1547.3250984642,105.938,17904.8901104269,37824.7955440472,0.915507032692656,1564.55364583145,105.938,20001.4070567812,39273.2354189216,0.828670123259292,105.938,922.592349714662,3464.48031362325,10.1027491342719,0,395.344357799737,0,17.7744336572621,0,1329.11558096888,0,7.92022711821804,0,207.678735324592,0,27.3013914353885
-0.47613,6.2894998,GHA,"Benguela - Angola",FALSE,186.596,3915.11583355947,41.0997756355816,730544954.078863,7669053.73449698,,,,0,14,1579.27348828403,186.596,38688.3285319646,111668.550867204,0.761692621491863,1605.82929600217,186.596,45708.8490865736,122654.637557818,0.655543356729953,186.596,4749.45341283186,7669.05373449698,5.72745450521355,0,728.252279738789,0,19.9926103200731,0,1257.39564609225,0,13.8912960855027,0,2240.77710334593,0,9.45057640266385
-1.26867,12.4855795,BFA,"Kuvango - Angola",FALSE,33.296,1548.55313505811,24.8504324087384,51560625.1848949,827419.997481354,,,,0,13,1540.2663731515,33.296,5375.94222811936,15078.1437689353,0.953966892992768,1566.36368053669,33.296,6359.49012975725,16317.4122386439,0.820091616829942,33.296,511.154745248288,827.419997481354,8.25267922165712,0,148.868589110993,0,18.7828366499255,0,614.490238574179,0,7.29939003288785,0,45.3763625961757,0,41.470898461457
-0.433167,12.249994,BFA,"Pouytenga - Burkina Faso",TRUE,181.256,1596.38093961074,25.259614458178,289353623.590084,4578456.67823152,,,,0,13,1581.84715739272,181.256,38198.1003333722,42566.5079398554,0.750605777723452,1599.43818444796,181.256,42664.9441117218,47500.2206335317,0.679498764541052,181.256,2934.87877056108,4578.45667823151,4.34769408007165,0,463.62655321856,0,14.8778515812475,0,801.25700555097,0,10.3308929867549,0,115.554723365155,0,37.565913584965
-0.199998,5.549954,GHA,"Accra - Ghana",TRUE,3048.022,3953.2102,68.5172293751128,12049471660.2244,208842022.51439,GHTEM,Tema,QQ,7407.89336449,14,1728.10440443711,3048.022,1555328.24026479,1669071.30283861,0.338660991063729,1745.53921940798,3048.022,1719564.21303752,1831733.38191908,0.309406412526384,0,4376.18435166668,0,17.3130564316562,0,3158.31241459178,0,21.5179433044681,0,2451.52543253865,0,25.476898009491,3048.022,471678.932313236,482934.07700052,0.764433711535321
1.65764,13.7969694,NER,"",FALSE,0,908.340884736449,18.21835659222,0,0,,,,0,15,1612.47939949387,1e-06,0.00025529713363656,3537.91790357102,1.02116880063403,2043.77217902777,1e-06,0.00273167494510312,3214.91491661157,0.880097683732435,1e-06,82.4300032816606,1.821835659222e-05,10.1217045114046,0,27.1790679164147,0,21.2074033439875,0,149.761026045648,0,6.79795043215675,0,9.12717412883236,0,43.8954644905609
0.05265,8.85392,GHA,"Chinde - Mozambique",FALSE,8.6,3953.2102,29.5972745903776,33997607.72,254536.561477247,,,,0,14,1530.54560004046,8.6,1303.36295377548,8312.59071774336,1.00990229594343,1569.59917450086,8.6,1676.83471664527,10134.5279785876,0.805002006147839,8.6,367.259186797717,254.536561477247,7.35107522814118,0,129.310153419166,0,14.7427181294104,0,164.672003374992,0,12.5483358512944,0,61.221366857407,0,24.2696753312392
-0.233454,11.049927,GHA,"Bawku - Ghana",TRUE,100.737,3443.348943435,35.8736219329596,346872642.514812,3613801.05266056,,,,0,14,1609.96322720572,100.737,25319.3625683828,29404.9022187829,0.640549189763334,1620.48948032927,100.737,27024.3566257488,32308.7939763017,0.604059706516506,100.737,2272.42344084937,3613.80105266055,3.54514653618887,0,351.07556917362,0,12.3128888680247,0,415.839868459339,0,10.9987403291161,0,73.2522190172424,0,35.0009508565286
-0.82513,9.98067,GHA,"Aioun - Mauritania",FALSE,12.666,3608.44598300667,29.1684758976839,45704576.8207625,369447.915720064,,,,0,14,1558.37420245457,12.666,2298.58821270299,7042.37396780524,0.858717020825661,1582.36362475673,12.666,2677.97538915416,8417.21098635593,0.748409340761254,12.666,224.584154019836,369.447915720064,8.38169655497824,0,76.7365302901805,0,17.1494384272286,0,350.335693127623,0,6.23153563288375,0,26.0484321841493,0,35.2422492179186
-0.01374,9.4424696,GHA,"Luuq - Somalia",FALSE,52.008,3953.2102,30.0437969546538,205598556.0816,1562517.79201763,,,,0,14,1565.11872433451,52.008,9854.78636735541,26501.4014837993,0.825981277296777,1591.45136246875,52.008,11644.1568273454,32289.9438065304,0.710813191470125,52.008,1449.79389739009,1562.51779201763,5.62681746255098,0,411.965712293399,0,13.0184603360261,0,543.393122689106,0,10.8240780044081,0,119.42680957339,0,29.7211620315041
-0.22433,9.9239798,GHA,"Diallassagou - Mali",FALSE,10,3953.2102,25.3205514237845,39532102,253205.514237845,,,,0,14,1579.76035717282,10,2079.77475790113,4771.84006573698,0.759582509740816,1593.37995070175,10,2266.19705737147,6104.8565263774,0.703107426884393,10,263.301449600825,253.205514237845,5.71702149456403,0,65.2891279707414,0,14.4847637204282,0,137.018694559699,0,8.83660500166307,0,19.3566359404123,0,32.5775741686974
-0.23763,32.7311096,DZA,"",FALSE,0,13822.566,39.9593271920494,0,0,,,,0,10,1670.36509903082,1e-06,0.000363260570874617,2459.12966032834,0.747309347852406,2249.82387314222,1e-06,0.00713821126798629,2589.74414724975,0.63906975216253,1e-06,135.326632599083,3.99593271920494e-05,4.57225715395797,0,85.8004194354887,0,6.19526506446885,0,5.2807705350091,0,39.7424513284033,0,14.643779368117,0,20.1349577799226
0.062,34.1462479,DZA,"Magu - Tanzania",FALSE,18.568,13822.566,39.034247987274,256657405.488,724787.916627704,,,,0,10,1631.89384109104,18.568,5343.03907634719,8727.77662522987,0.567111799099564,1644.41531503095,18.568,5767.45806544229,9753.61919597744,0.529410073625261,18.568,557.990563231995,724.787916627704,3.56575494922033,0,289.465612536159,0,5.52295381441736,0,15.0036719257986,0,39.7287008317416,0,66.5180234506152,0,14.7211987244716
-0.633443,35.696881,DZA,"Oran - Algeria",TRUE,725.418,13680.5691624158,63.5150657543658,9924131120.66136,46074971.9694005,DZORN,Oran,AI,255.6159,10,1653.04459684164,725.418,237431.436963355,273964.265572243,0.505050211994989,1690.66601162051,725.418,297351.912338995,379782.573193802,0.41245389936641,0,2812.93090419779,0,10.8549058102979,0,2691.05725811562,0,11.1802146935501,0,537.991924233709,0,32.7000385589187,725.418,47670.1109694001,55532.7602694005,1.64526045878928
-0.34739,35.5365906,DZA,"Kouribga - Morocco",FALSE,90.859,13775.9879587745,55.3395627750259,1251672489.94629,5028097.33417608,,,,0,10,1606.92265068365,90.859,22408.9685328858,58482.4566650051,0.651539968678129,1645.76863201938,90.859,28455.0889224041,60035.7138905949,0.52550492076932,90.859,2381.94530087857,5028.09733417608,4.51747110777387,0,1816.72999668489,0,5.41156627680131,0,88.1448143351926,0,40.680416979527,0,765.826712790915,0,9.62563891467523
0.05872,6.15661,GHA,"Zagora - Morocco",FALSE,34.381,3953.2102,38.8969776080709,135915319.8862,1337316.98714309,,,,0,14,1594.92311017766,34.381,7867.20022198148,13695.4367755964,0.697008475142503,1615.62348663004,34.381,8950.02551437083,16059.8264143372,0.620632325668443,34.381,479.605646381059,1337.31698714309,6.44770904084929,0,111.090098965202,0,17.0953522896017,0,112.730451385355,0,16.9291099902744,0,468.058925988132,0,6.55331838874714
0.36174,12.0579901,BFA,"Mazabuka - Zambia",FALSE,73.2,1564.24563399205,22.6391773750371,114502780.408218,1657187.78385272,,,,0,13,1561.11951902961,73.2,13520.0036501362,22408.1863151812,0.845220634882207,1581.06284395347,73.2,15349.9369585141,24979.1829122616,0.753969224252762,73.2,1024.51799895615,1657.18778385272,6.33956378479959,0,330.927519784072,0,13.4663691342019,0,551.042746432349,0,9.58551779401775,0,65.729562241119,0,39.5577831624672
0.3068,35.7280197,DZA,"Kassala - Sudan",FALSE,468.678,13822.566,55.9459393267844,6478332587.748,26220630.9517987,,,,0,10,1646.56580006984,468.678,147492.407317942,165300.418789571,0.523219600337016,1677.55604626197,468.678,177725.254039549,190424.991585352,0.44238710894572,0,2476.33317975802,0,7.99979839184143,468.678,23062.7955452076,26220.6309517987,1.80721765459241,0,179.562955442851,0,46.0052360932619,0,969.272501521863,0,14.9504580541655
0.17407,26.7181301,DZA,"Asamankese - Ghana",FALSE,20.402,13754.6295522982,35.5508752420232,280621952.125989,725308.956687758,,,,0,10,1558.50977222323,20.402,3705.71683160034,6538.6299871422,0.858045411076579,1583.32387879664,20.402,4339.8482965445,7084.62894941601,0.744334179442181,20.402,691.777133966943,725.308956687757,3.51022723324322,0,83.1774948058389,0,14.4092754945596,0,26.7087016015084,0,30.728699950244,0,27.2059270133926,0,30.3531441933842
1.0877,26.958849,DZA,"Kherrata - Algeria",FALSE,18.598,13747.3415581596,37.6662944731761,255673058.298652,700517.744612129,,,,0,10,1589.64804339529,18.598,4116.99397186704,5260.63944177613,0.71810345134249,1609.51843032692,18.598,4661.54599357076,5843.31852662417,0.642143707970025,18.598,700.517642641359,700.517744612129,2.64114686116963,0,61.2371550602956,0,13.4089653589949,0,16.9268456546212,0,31.6000609556435,0,18.0100461760425,0,30.319967077425
2.101906,34.108919,DZA,"Aflou - Algeria",TRUE,114.592,13822.566,42.5694418617965,1583955483.072,4878117.48182698,,,,0,10,1632.1046566415,114.592,33017.0697835865,38458.8890092834,0.566452891361811,1654.18750533467,114.592,37766.4227222807,43144.6548452522,0.501918480774029,114.592,3236.04661028817,4878.11748182698,2.82211478179813,0,1260.33692098968,0,5.29167804850885,0,58.5879416973753,0,40.9303721726377,0,175.265573144251,0,19.7145457658948
3.666624,32.483817,DZA,"Ghardaïa - Algeria",TRUE,210.733,13822.566,54.3332823474776,2912870800.878,11449815.588931,,,,0,10,1637.36580587566,210.733,62703.8062606473,71031.57203755,0.550280685361611,1655.28965102128,210.733,69916.0263604561,78191.9947479702,0.498918735444256,0,1213.47364706154,0,8.01895497721636,210.733,9020.98933970615,11449.815588931,2.10524136437426,0,129.44144478645,0,35.6524276623321,0,240.627674447958,0,23.5816556031178
0.20933,10.8734493,TGO,"Al Manāqil - Sudan",FALSE,58.071,1468.95664149522,31.2532292472104,85303781.1282692,1814906.27561475,,,,0,16,1590.29113195387,58.071,12907.1353958076,16679.1847447595,0.715494072315664,1607.0076178001,58.071,14329.8897465017,18412.61094715,0.651229992262633,58.071,985.704502592732,1814.90627561476,4.58472703699718,0,319.394107061944,0,9.71836886318029,0,210.175189664353,0,12.8456774559943,0,49.547101065963,0,33.6614236636259
0.05048,5.7687697,GHA,"Ténès - Algeria",FALSE,37.402,3953.2102,53.4407004820401,147857967.9004,1998789.07942926,,,,0,14,1591.36527389854,37.402,8369.46665903172,26006.1851401132,0.711159321882726,1624.54004457314,37.402,10287.3431366776,30026.5833797812,0.590638867934667,37.402,415.759020077739,1998.78907942926,10.2431024156323,0,248.186317875108,0,14.4479893059006,0,144.465037788995,0,20.7245033636803,0,1765.62322796513,0,3.90595539022567
0.77777,18.9019699,MLI,"",FALSE,0,2285.3071,12.4608224567388,0,0,,,,0,9,1553.96808086525,1e-06,0.000176410783609039,3307.73900118095,1.4153958322909,1628.90721021245,1e-06,0.000282532001491643,3601.00347457484,1.15860908645151,1e-06,139.524882607229,1.24608224567388e-05,10.118547588236,0,46.6073458216695,0,21.0175961580602,0,56.1163364758308,0,18.5706205701226,0,19.9850471025613,0,36.961464880911
1.4786099,14.2064199,NER,"Namakgale - South Africa",FALSE,19.262,902.661251353596,18.3109624941318,17387061.023573,352705.759561966,,,,0,15,1520.8560067085,19.262,2739.59611547555,5228.41282830799,1.06930829897686,1545.73272390895,19.262,3222.17838776261,5337.21607933983,0.924030285500342,19.262,186.537588050733,352.705759561967,8.64407428491773,0,46.4626671969033,0,21.8353406904987,0,177.817540761803,0,8.92441303953263,0,16.4599905706144,0,43.6123689976563
0.46922,10.3394394,TGO,"Hamma Bouziane - Algeria",FALSE,34.791,1791.52743346508,23.7423490738048,62329030.9376835,826020.066626741,,,,0,16,1568.60082498793,34.791,6740.55244555235,10906.1056036812,0.809624933753396,1595.13668712115,34.791,7971.68515425869,11734.9442235298,0.696169001571655,34.791,559.968466674193,826.020066626743,5.29167284358584,0,214.882591810729,0,10.020772720679,0,136.621171149098,0,13.5526232538959,0,37.3277876025333,0,32.187002689988
1.14132,9.47579,TGO,"Cacongo - Angola",FALSE,33.327,1373.44357100469,23.4389778775196,45772753.8908734,781150.815724097,,,,0,16,1570.20553695542,33.327,6523.27151728505,14321.8375582496,0.802208523116028,1603.51695656803,33.327,8047.03663862535,17344.5409135463,0.664100492746847,33.327,922.416217434973,781.150815724096,4.69595998977008,0,340.057069459696,0,9.13358209209497,0,130.907476813799,0,17.2596787362346,0,68.5931558649194,0,26.5555409910978
0.59562,6.0068398,GHA,"",FALSE,0,3953.2102,37.1738924725988,0,0,,,,0,14,1710.24370419527,1e-06,0.000459922009295747,11383.63506204,0.606317246458706,2331.01409099281,1e-06,0.010175439531128,14498.4312649701,0.537442944586673,1e-06,157.248072412698,3.71738924725988e-05,10.9687251775241,0,140.991783517827,0,11.7964275898345,0,55.0574666265787,0,22.0801605783631,0,993.289532744613,0,3.20993177281386
0.50771,7.5739598,GHA,"Kayanza - Burundi",FALSE,11.503,3218.33666164992,33.5632575458883,37020526.618959,386078.151550353,,,,0,14,1522.26329027039,11.503,1651.25084590472,12550.1230701839,1.06044426753242,1561.47134137185,11.503,2129.39135645326,15991.473237545,0.843508872956555,11.503,409.865507591686,386.078151550353,9.70333572455602,0,205.669196491473,0,15.3662940025126,0,183.916595946428,0,16.5552099398855,0,235.587668280514,0,14.0361156069967
0.470198,6.611847,GHA,"Ho - Ghana",TRUE,183.715,3893.07070546691,38.4335396256206,715215484.654853,7060817.73232089,,,,0,14,1602.3598868964,183.715,44040.2170230971,86320.579903508,0.668428920626787,1619.33581203097,183.715,48934.8218610526,96050.2892315707,0.607943929842647,183.715,2570.9765150638,7060.81773232089,6.79407867078078,0,802.509468676931,0,14.7648555023008,0,600.915928885995,0,17.9055157012243,0,2964.72341031115,0,6.17835970335639
0.14396,34.7495003,DZA,"Meknès - Morocco",FALSE,128.413,13832.7356266939,48.9472390691589,1776303080.03064,6285461.8105879,,,,0,10,1637.80726537193,128.413,38312.5549525356,50482.1293792739,0.548947326768456,1660.83477118571,128.413,44053.200719595,56217.2204774508,0.484125494858602,128.413,3646.80369945809,6285.4618105879,2.99867414597121,0,1778.34176555642,0,4.84017110121846,0,71.8511480659294,0,41.1069315517751,0,293.150454609955,0,16.0994294663633
1.316772,35.366641,DZA,"Tiaret - Algeria",TRUE,273.948,13822.566,52.0993930151733,3786664310.568,14272524.5177207,,,,0,10,1647.49733318178,273.948,86700.0855925054,98554.1519293006,0.520563017528614,1671.12777237865,273.948,99969.8156807936,111082.286352448,0.457940337721763,0,2123.58168178249,0,6.40510312513307,273.948,11154.5514826661,14272.5245177207,2.11968193421967,0,115.910449104539,0,44.5133604485312,0,511.628215320835,0,16.5425497350762
0.83412,11.1550198,BFA,"Missour - Morocco",FALSE,13.579,1539.16365357952,21.9358482617815,20900303.2519562,297866.88354673,,,,0,13,1565.5364207366,13.579,2579.90511125186,6914.10918996316,0.824000044468008,1586.64592595483,13.579,2949.66154902994,7558.4608997989,0.730424999313061,13.579,297.866966522635,297.866883546731,6.30738943874388,0,163.082803647574,0,9.42451687183391,0,101.76578353418,0,12.906149427054,0,22.2926662801139,0,35.5159309103478
1.064238,10.697912,BEN,"Matéri - Benin",TRUE,260.509,1341.27023884108,22.6149908758556,349412968.65025,5891408.65807827,,,,0,17,1570.4102886886,260.509,51057.3465040105,61574.1404293674,0.801267980889662,1592.65943191106,260.509,58770.0553925699,67021.5321856961,0.705975370851082,0,2038.0623663877,0,7.24637500071879,260.509,2365.77983680222,5891.40865807827,6.56069075699867,0,651.018496260622,0,15.5073253957054,0,210.598479454989,0,32.9075561585414
1.331625,36.164677,DZA,"Chlef - Algeria",TRUE,575.939,13822.566,54.0496792570843,7960954839.474,31129318.2216458,,,,0,10,1653.39370089787,575.939,188905.004973234,192192.946089901,0.504091542994516,1676.21049594089,575.939,216653.762162764,219964.861862155,0.445593461088559,0,2432.45581665485,0,8.97727182945956,575.939,29732.4575548299,31129.3182216459,1.69181866026643,0,202.502478016709,0,47.0855291030803,0,1019.36734679831,0,16.0307510910044
