lon,lat,iso3c,city_country,city_port,population,gdp_cap,IWI,gdp,wealth,port_locode,port_name,port_status,outflows,ctry,uj_orig,Lj_orig,Cj_orig,Dj_orig,PCj_orig,uj,Lj,Cj,Dj,PCj,Lj_1,Dj_1,Yj_1,Pj_1,Lj_2,Dj_2,Yj_2,Pj_2,Lj_3,Dj_3,Yj_3,Pj_3,Lj_4,Dj_4,Yj_4,Pj_4
-17.446713,14.692814,SEN,"Dakar - Senegal",TRUE,3223.755,2287.6685,70.2606002240275,7374882765.2175,226502961.27521,SNDKR,Dakar,AI,2417.263262,1,803.667063287097,3223.755,858915.518664179,888600.926147452,2.1114741433812,839.95815543698,3223.755,914855.630920346,942171.909503616,2.071882653014,0,2216.20353417631,0,117.141872044792,0,3605.18767958099,0,84.6902347718357,0,735.516403220551,0,244.375134539825,3223.755,222941.291064442,226502.96127521,5.41574549915659
-17.044529,14.7029696,SEN,"Yaoundé - Cameroon",FALSE,505.227,2302.16270413245,52.2935947198641,1163114756.52073,26420135.9795328,,,,0,1,725.188104681032,505.227,116231.611931225,219914.078867942,2.20653590089403,776.97660960408,505.227,128268.603130155,240010.796257502,2.14225996469343,0,2600.45114466395,0,43.7515614673175,505.227,19811.8823658348,26420.1359795328,11.2999241912193,0,336.591145133855,0,170.984823962988,0,2973.04299693809,0,40.0152219201472
-16.6384888,15.1122198,SEN,"Dzolokpuita - Ghana",FALSE,74.508,2361.8791047779,42.0766985704881,175978888.338792,3135050.65708993,,,,0,1,624.0778413808,74.508,13831.8651063371,25393.6762698431,2.353200645823,635.454260048956,74.508,14193.4721159052,26560.2146878028,2.33505219626512,74.508,1165.66509279108,3135.05065708993,18.7672995646381,0,796.695456797225,0,24.1874129779702,0,53.7210730914191,0,146.000562085293,0,246.297261451341,0,52.9027106367154
-16.4633198,14.7565098,SEN,"Gusau - Nigeria",FALSE,113.325,2297.65604456748,38.0772661124075,260381871.25061,4315106.18218858,,,,0,1,604.90592576877,113.325,20120.7935133698,33188.2589306763,2.38487983273679,675.883531821275,113.325,23576.5050803823,34777.842658402,2.27413481016869,113.325,1113.80909985683,4315.10618218858,22.5498742149423,0,1390.27392574067,0,19.4514081280746,0,65.0627724106997,0,149.783136844735,0,356.78495187646,0,48.1667058477027
-16.4205399,14.3423595,SEN,"Chipinge - Zimbabwe",FALSE,18.416,2269.64499576379,37.4244716433748,41797782.2419859,689209.069784391,,,,0,1,433.405325936217,18.416,2030.79782588394,13256.2013647905,2.75119197352118,521.469793511539,18.416,2645.03151511371,15917.0739715295,2.54150900605516,18.416,490.885524567073,689.20906978439,25.8432418708225,0,594.536106563354,0,22.7447754086151,0,34.05163036657,0,153.076504353434,0,177.166625258225,0,50.9814911985001
-17.033333,20.933297,MRT,"Nouadhibou - Mauritania",TRUE,118,5196.45446473013,38.9206658183864,613181626.838156,4592638.5665696,MRNDB,Nouadhibou,AI,197.0295,2,654.628442899646,118,23453.7034478439,25440.5481421099,2.30549123630145,741.743281654587,118,28036.5086218414,30126.5074631811,2.18529332432047,0,314.438591388877,0,45.7563846685206,0,167.104401928527,0,69.7402773586621,0,49.985101847597,0,155.924805066219,118,3459.53204393847,4592.63856656959,9.24976485131293
-16.8981705,21.2914486,MRT,"",FALSE,0,5538.53368337853,18.6296720206833,0,0,,,,0,2,717.020558717188,1e-06,0.000226365623967691,7585.24752614397,3.29983838263241,866.798824737925,1e-06,0.000296828617351597,7991.40477262223,2.80875006385625,1e-06,142.612780827231,1.86296720206833e-05,41.1297638075684,0,71.5953218057546,0,65.113656522689,0,20.213531614629,0,151.298184357534,0,491.511838327741,0,18.026269476531
-15.978542,18.085588,MRT,"Nouakchott - Mauritania",TRUE,1440.712,3726.39485774327,41.8651880562521,5368661788.28902,60315678.8148991,MRNKC,Nouakchott,AI,334.524,2,690.012081767469,1440.712,308721.1223655,333021.253876775,2.25406041508376,773.271669443927,1440.712,363283.349438258,391094.351543832,2.14665285703994,0,2995.89746519612,0,55.2414265159311,0,1562.06190535342,0,85.2741412451864,0,733.245848193201,0,141.183227871868,1440.712,55277.8860082042,60315.6788148991,7.91131292816728
-15.67383,23.8871498,ESH,"",FALSE,0,7041.16211331411,31.3978211479454,0,0,,,,0,3,914.713818830343,1e-06,0.000320543586935761,10423.5491895216,2.82035362643989,1099.33441220428,1e-06,0.000416822142872144,10301.0049324711,2.42899934425052,1e-06,584.224970386407,3.13978211479454e-05,16.4548420257682,0,151.643693409265,0,40.4387347307684,0,17.3474439372205,0,171.602443109447,0,164.324940023388,0,38.3305283864839
-16.2439098,15.6356897,SEN,"Banikoara - Benin",FALSE,93.802,2287.6183979327,43.5760615586268,214583180.962884,4087521.72632231,,,,0,1,733.009772771369,93.802,21913.1925377712,32814.6300696777,2.19641417498182,800.094817696903,93.802,24833.4263097147,39127.3228680155,2.11550936374735,93.802,2588.80096575572,4087.52172632231,12.9321063248445,0,693.142166224386,0,31.1305524929026,0,72.5506784620163,0,140.165368386954,0,372.838388725159,0,47.0675175337994
-16.577537,13.453171,GMB,"Banjul - Gambia, The",TRUE,976.753,1827.81084253539,39.6195599018914,1785319723.87897,38698523.9928521,GMBJL,Banjul,AI,184.275,4,742.638561564337,976.753,232474.364537459,249558.874420733,2.18416384407412,841.672170768532,976.753,277996.948379628,303121.551987477,2.0700733412162,0,3795.89959726785,0,38.3872616111437,0,1539.56556091648,0,70.0591426815644,0,488.686431104299,0,150.560167727743,976.753,33236.5007080127,38698.5239928521,9.03621898504468
-16.2409897,12.7924099,SEN,"Quelimane - Mozambique",FALSE,91.883,2295.74090262069,36.7829540931087,210939561.355497,3379728.1709371,,,,0,1,537.235164264287,91.883,13770.4989026386,27005.0149028881,2.50927325137338,642.4461687497,91.883,17779.1142598575,28574.7952528337,2.32412685783116,91.883,1062.36791978949,3379.72817093711,20.8640500409915,0,191.444435089641,0,65.396335991385,0,57.4515457777223,0,145.897360752433,0,1241.08083956701,0,18.80969991522
-16.076402,14.138908,SEN,"Kaolack - Senegal",TRUE,187.932,2278.7640345833,45.3761239685572,428252682.54731,8527625.72965889,,,,0,1,850.007173579144,187.932,54246.2545751809,71553.8928656323,2.06134936081803,892.577045590412,187.932,58168.5857369472,85862.2817391669,2.0186265663445,187.932,6640.87761694006,8527.62572965889,11.1200639110644,0,879.717766345146,0,42.7919449827513,0,151.321972957144,0,138.353326359345,0,1127.91145658142,0,36.258313215463
-15.6096001,13.5730095,GMB,"Bria - Central African Republic",FALSE,70.315,1877.21348753621,26.69126049904,131996266.376109,1876795.98199,,,,0,4,514.66055103647,70.315,9911.25946761127,19111.4683163764,2.55586582029525,575.502360917762,70.315,11626.5812228477,22269.3704568653,2.43635798345379,70.315,934.009050724204,1876.79598199,20.1826879110992,0,226.797909658557,0,51.8545690848842,0,55.6168182345887,0,132.35559402617,0,602.026111993093,0,27.0480633776405
-16.50258,16.034409,SEN,"Saint-Louis - Senegal",TRUE,154.555,2616.38725725041,41.8228350121846,404375732.544337,6463928.26530819,,,,0,1,922.637577364365,154.555,50155.8315958074,50662.427388067,1.99017280115275,1007.25977065501,154.555,56854.4932413878,57862.992075903,1.91671612012918,154.555,5728.79773826241,6463.92826530819,8.95604073838898,0,630.708261232065,0,38.9887555891288,0,91.3318283724663,0,141.387262508383,0,457.572281712482,0,48.2894117264646
-15.804984,16.512799,MRT,"Rosso - Mauritania",TRUE,159.231,3119.63824766881,37.3432812371366,496743117.814552,5946208.0146705,,,,0,2,630.028203345711,159.231,29963.5268640072,48736.1360962038,2.34364973655944,644.000808280216,159.231,30917.3387225224,59643.7226728745,2.32172068795206,159.231,3392.95798072951,5946.2080146705,15.6964272669093,0,682.323170284074,0,45.7291420165,0,144.678138217674,0,128.603027246876,0,997.33758768441,0,35.5051763844571
-15.883334,14.866839,SEN,"Touba - Senegal",TRUE,597.23,2294.61226912889,41.7294708957356,1370411285.49184,24922091.9030602,,,,0,1,815.961490341411,597.23,162610.771715476,185399.44488286,2.09778037220418,874.843473628328,597.23,179630.001469893,206523.842295512,2.03606265576824,0,3306.00212164115,0,32.0554971625146,597.23,18003.6346847028,24922.0919030602,10.3561375126631,0,321.4925668823,0,151.585378123685,0,1387.18403768548,0,57.1937466128597
-15.575626,11.856113,GNB,"Bissau - Guinea-Bissau",TRUE,503.968,1367.43735056953,29.1359647460553,689144666.691825,14683593.88114,GWOXB,Bissau,AI,114.309,5,644.797841938213,503.968,98026.7983139765,104930.608894083,2.32049025973741,710.447759205217,503.968,112590.02700114,118771.710613939,2.22604134393623,0,1623.54693202427,0,38.9372554534398,0,517.274191767312,0,83.469541396675,0,245.577413017476,0,137.156466446401,503.968,12346.5615204635,14683.59388114,10.0688039099841
-15.65446,14.4204092,SEN,"",FALSE,0,2255.07749469541,31.0289501068166,0,0,,,,0,1,1024.71437198089,1e-06,0.000376999512405015,5782.54498714939,2.6251601370177,1144.88838635356,1e-06,0.000441714086450994,7713.09699763724,2.37031214737902,1e-06,359.420869286878,3.10289501068166e-05,18.3044159885377,0,161.154586593938,0,31.246133970183,0,17.394068035241,0,137.834296934366,0,98.3020130104398,0,43.4426654058467
-15.5441999,14.1010094,SEN,"Debre Zeyit - Ethiopia",FALSE,69.357,2287.6685,33.2273419593215,158665824.1545,2304548.75627266,,,,0,1,763.553431934962,69.357,17175.6014545172,20463.5073964655,2.1583198758439,820.070799293352,69.357,19020.1829115884,24207.5334643354,2.09326879338469,69.357,1741.85066839598,2304.54875627266,12.099982617355,0,316.087783784553,0,37.7502836075765,0,48.5463288165618,0,131.629863566589,0,266.595955086192,0,42.2885689728655
-13.9632597,17.0292988,MRT,"Fritissa - Morocco",FALSE,15.521,3680.26830758623,24.3321127914395,57121444.4020459,377658.722635932,,,,0,2,261.199267488212,15.521,830.264336625054,13081.6798326597,3.41800979684785,343.024192459194,15.521,1225.4393062125,13414.1026148015,3.04123993529251,15.521,437.182759538422,377.658722635932,29.8068729331469,0,153.693238791933,0,59.8395876914504,0,57.1299196512034,0,115.748674272889,0,337.560609954763,0,35.4152728498365
-15.945537,23.708077,ESH,"Ad Dakhla - Morocco",TRUE,106.277,6999.25678566019,41.685948396546,743860013.409608,4430257.53773972,,,,0,3,781.104807602768,106.277,27186.9673575984,29229.4806164554,2.13740024460249,874.683149587395,106.277,31956.7669954388,33613.6727696238,2.03622258870106,106.277,3388.98117637325,4430.25753773972,9.39989765566757,0,316.270340276641,0,45.6874499927697,0,41.5280924003908,0,176.851158181569,0,339.49572630401,0,43.5792436482908
-14.2343597,16.6268101,MRT,"Had Zraqtane - Morocco",FALSE,10.415,3292.61139046978,26.1754116436426,34292547.6317428,272616.912268538,,,,0,2,342.338201224441,10.415,819.95383486034,2822.13345482332,3.04385012709967,400.141533481665,10.415,1024.67685531851,2752.61039773746,2.84697742224654,10.415,121.512217987915,272.616912268538,22.7929508673625,0,34.4392205508908,0,52.8256656301447,0,9.82127285965679,0,121.927593922981,0,49.2914658773277,0,41.5941925301245
-13.9593992,16.1129189,SEN,"",FALSE,0,2493.74395561908,28.4022929330901,0,0,,,,0,1,865.310353093367,1e-06,0.000296100720081133,1367.54616920888,2.92211558047234,677.906238118579,1e-06,0.000208933293294004,2775.36901791269,3.27655328797094,1e-06,105.895865523353,2.84022929330901e-05,28.9097979259006,0,36.3750519821323,0,58.9425125138291,0,13.2152907943004,0,115.76570232699,0,48.4066576634054,0,48.7185470849656
-13.203346,27.153675,ESH,"Laâyoune - Morocco",TRUE,217.732,7166.58209753815,43.2531834575172,1560394253.26118,9417602.14057214,,,,0,3,795.606910514276,217.732,57181.6831955682,75657.3362770563,2.12061535276002,869.705408266211,217.732,64938.906221405,82852.8375543707,2.04120913482446,0,1597.90098491851,0,28.3830580171198,217.732,5775.98781956264,9417.60214057213,12.0505882731363,0,139.647930769167,0,144.123928423268,0,675.364136448232,0,50.3965064205484
-14.2115793,13.3027792,GMB,"Tarkwa - Ghana",FALSE,61.291,1770.86443929862,23.1067512092836,108538052.349052,1416235.8883682,,,,0,4,550.273985275066,61.291,9505.81033121809,12093.4769239844,2.48361670639937,573.98017025528,61.291,10096.1915901133,13816.5866214399,2.43912497581431,61.291,915.105368865025,1416.2358883682,14.90003060145,0,112.298108150671,0,60.3373551832174,0,37.8251129912764,0,124.637216182444,0,227.621492838727,0,37.6726106984189
-15.3329,12.0479898,GNB,"",FALSE,0,1367.45133840083,18.1778592380354,0,0,,,,0,5,824.049630772374,1e-06,0.000276138700480726,4303.35963606269,3.01508079586793,885.41924835556,1e-06,0.000305979552465162,4860.18758380667,2.77208697280574,1e-06,159.037680043057,1.81778592380354e-05,27.0962288450128,0,36.3123939114763,0,72.5335531892568,0,15.9902935493017,0,125.315439829098,0,184.234955276066,0,24.5656079863885
-13.6763992,13.7135201,SEN,"Khénifra - Morocco",FALSE,78.8,2287.6685,28.5775553827832,180268277.8,2251911.36416331,,,,0,1,653.988840024377,78.8,15640.4470796101,20048.9126046393,2.30645739943442,690.481816188734,78.8,16901.9807963071,23598.9289015413,2.25340316474801,78.8,2105.47805576202,2251.91136416332,11.2858242133857,0,221.676579631505,0,50.6159298965214,0,64.8009057216173,0,114.915790966446,0,194.886868787119,0,55.1542151872517
-14.8474998,12.0527,GNB,"Misséni - Mali",FALSE,54.756,1394.43121299449,18.6469722659379,76353475.4987265,1021033.6133937,,,,0,5,494.684511197531,54.756,7293.76502361944,9174.3510707991,2.59959859468356,470.633075292163,54.756,6792.49145089042,9679.51649367145,2.65572499211341,54.756,488.345721493883,1021.0336133937,19.4506425087792,0,78.3174824101956,0,65.894079881179,0,32.8193893920676,0,117.669853467382,0,211.359075607892,0,33.9942091958873
-14.299376,10.940929,GIN,"Boké - Guinea",TRUE,116.27,1146.57562365401,27.5929884020649,133312347.762251,3208236.76150809,,,,0,6,603.951407872752,116.27,20597.1568457823,23879.598061755,2.38649441315999,633.144944796586,116.27,22034.0650446802,25752.1178250709,2.33869845626272,116.27,2095.92892745279,3208.23676150809,12.4527468968342,0,203.77155438633,0,58.8961841117754,0,79.1075452231836,0,110.67195742042,0,281.738885111782,0,47.4553304557426
-13.3009596,12.4839897,GIN,"Kalfou - Cameroon",FALSE,13.99,1189.02775135884,23.7319650851646,16634498.2415102,332010.191541452,,,,0,6,558.001977741106,13.99,2213.4140447434,3643.87647292329,2.46881655848139,564.813798185058,13.99,2252.11520978019,4266.22097469926,2.4560118107564,13.99,325.630662434569,332.010191541453,13.6492614592973,0,35.2497850660068,0,60.0926975901764,0,13.8780187764573,0,111.868471058729,0,48.9034399976136,0,48.3095592989544
-13.6282301,10.0732899,GIN,"",FALSE,0,1176.62521698137,26.8793431772143,0,0,,,,0,6,723.605344061687,1e-06,0.000229341225483159,3675.5224101565,3.28018377640888,749.375340919124,1e-06,0.000241097680524365,3956.6826118352,3.0756202613317,1e-06,152.060124578165,2.68793431772143e-05,27.0070176317001,0,48.2311457254104,0,58.0677685582796,0,15.6336108083807,0,123.059173178917,0,81.6600345206861,0,40.8771381923492
-13.1784992,11.1257696,GIN,"",FALSE,0,1125.84335585272,17.2149499541175,0,0,,,,0,6,1014.75806470206,1e-06,0.000371777578517656,522.743856954949,2.64126156615113,903.703746404588,1e-06,0.00031504602934339,1210.13603987316,2.73734141809846,1e-06,67.541144127112,1.72149499541175e-05,18.7430165415081,0,14.6599250041384,0,51.8956074772114,0,5.19205551261134,0,103.671380836206,0,13.909556088011,0,53.7456004426482
-13.0830994,11.79953,GIN,"Bethlehem - South Africa",FALSE,7.461,1135.4866,20.8461390559678,8471865.5226,155533.043496575,,,,0,6,502.809304869424,7.461,1017.2418676738,1594.38980041435,2.58151203186529,473.021941305714,7.461,932.256943507761,2142.42299782828,2.64996869634542,7.461,131.184262213011,155.533043496576,17.0578018705538,0,23.3904088683988,0,53.845863948416,0,8.5140657136023,0,105.62163707204,0,24.6039742530134,0,52.0603858386431
-13.8246593,13.3325996,SEN,"",FALSE,0,2141.07888826552,23.0399064754911,0,0,,,,0,1,1013.98033509789,1e-06,0.000371370592084857,1108.96018362886,2.64257129407721,989.59962467609,1e-06,0.000358680275752434,1506.12115932668,2.58908801676337,1e-06,97.1667829322226,2.30399064754911e-05,16.0956382879047,0,15.2059246919509,0,55.4257440221169,0,4.78960364453546,0,119.72560501113,0,19.7326105802517,0,46.586890583493
-13.7090893,13.0267,SEN,"",FALSE,0,2287.6685,21.3110377398114,0,0,,,,0,1,1012.60849182232,1e-06,0.000370653031660726,420.030621790197,2.6447931754066,971.167457390142,1e-06,0.000349174594102796,813.784462071036,2.61899209572629,1e-06,49.2663849825661,2.13110377398114e-05,16.9866074164396,0,8.16121325387494,0,56.3167132205628,0,2.70208731099514,0,117.672289388294,0,11.6059137083609,0,44.533574855753
-11.400062,16.629969,MRT,"Kiffa - Mauritania",TRUE,110.714,3692.66927840016,24.5103198098448,408830186.488796,2713635.54742716,,,,0,2,485.84267735447,110.714,14372.5256746829,21783.1241789645,2.61976964657535,553.353807978081,110.714,17308.4319089338,25509.517201483,2.47768311358195,110.714,2569.05593597106,2713.63554742716,11.446293559693,0,135.145540066186,0,81.5291238522286,0,103.51709503517,0,97.3880948374353,0,206.888417223287,0,61.379470243263
-12.2216101,14.4544096,SEN,"Sidi Redouane - Morocco",FALSE,20.065,2223.952360451,30.4239054818422,44623604.1124494,610455.663493164,,,,0,1,392.494152450754,20.065,1920.41353186487,7410.72922755021,2.87061947841033,418.500545276525,20.065,2104.74172569478,8390.23533937061,2.79276519031456,20.065,610.455660500487,610.455663493164,16.0243750383997,0,79.6462945191711,0,62.2931273011903,0,38.6365037045774,0,100.898638312562,0,71.6728732592222,0,66.8314126649061
-13.712215,9.509116,GIN,"Conakry - Guinea",TRUE,1667.864,2150.37966857964,47.7173443768735,3586540835.55592,79586040.8617897,GNCKY,Conakry,AI,676.60790476,6,656.440100045548,1667.864,332816.365913705,346466.386296428,2.30276215385463,705.754587421531,1667.864,369101.271208171,384592.744193547,2.23237339870851,0,1616.06316131581,0,85.729182196734,0,1145.30698561434,0,107.849870563535,0,523.392397456277,0,181.781337512844,1667.864,76579.3532145759,79586.0408617897,6.54676015170376
-13.5013895,9.7055101,GIN,"",FALSE,0,1177.39094451741,47.8186094627483,0,0,,,,0,6,574.119667764172,1e-06,0.000164782710418323,21057.8613209817,3.82309933102992,628.71816653439,1e-06,0.000187617742270757,25261.978902716,3.4376323030284,1e-06,572.410982312169,4.78186094627483e-05,42.9304751772972,0,306.883753223584,0,65.0511635732565,0,98.2688129406313,0,138.982630495786,0,906.800022628145,0,31.5909960135407
-12.1095896,12.6156893,SEN,"Ādēt - Ethiopia",FALSE,11.216,2258.58745277728,29.7127985122773,25332316.87035,333258.748113702,,,,0,1,412.047153358555,11.216,1150.68396630908,4738.7275895993,2.81142749893012,449.695207833713,11.216,1303.76955406557,5272.52693318211,2.70802997527285,11.216,333.258764282015,333.258748113702,17.0665191220317,0,62.6996920851335,0,51.9783393240687,0,22.999082786016,0,101.436049767034,0,48.8395290460606,0,61.3976422185555
-12.9784594,10.6564093,GIN,"Bawku - Ghana",FALSE,30.311,1134.95099453162,19.5251633744116,34401499.5952479,591827.22704179,,,,0,6,481.382918227464,30.311,3883.37568753922,4995.03305521655,2.63014419615733,588.219104575151,30.311,5170.87853688812,6810.32923149509,2.41364334331192,30.311,435.117739644059,591.82722704179,15.1024466057915,0,81.4205296375238,0,46.1631977439286,0,21.791472502754,0,111.154602307812,0,76.7603413477954,0,48.0131908043134
-12.854191,10.049703,GIN,"Kindia - Guinea",TRUE,181.126,1272.4382327917,31.7736110513414,230471647.35263,5755027.07528526,,,,0,6,629.577504257062,181.126,34048.8242215346,50337.0635546767,2.34436875290389,658.234995361076,181.126,36284.314995189,54514.522010364,2.30006906575256,181.126,3349.399130463,5755.02707528526,14.7719472749928,0,848.621437912904,0,36.8926356616518,0,162.994214374674,0,110.824102349038,0,516.867928840641,0,51.3447398293766
-12.7595196,8.4948397,SLE,"",FALSE,0,1525.79033972791,18.3068914371631,0,0,,,,0,7,598.68017725886,1e-06,0.000174944728881208,19471.1008256666,3.71744481257004,663.463932257861,1e-06,0.000202603621596877,22590.9307377499,3.3217026202405,1e-06,302.916331732202,1.83068914371631e-05,58.8529683874949,0,504.81593376748,0,41.8692128127238,0,92.7695694992738,0,129.532815183373,0,744.61166597387,0,32.3119826971039
-13.234314,8.484392,SLE,"Freetown - Sierra Leone",TRUE,1035.246,1636.18751938735,51.9455928614036,1693856584.69567,53776467.2273966,SLFNA,Freetown,AI,292.305,7,715.785255920593,1035.246,233767.556189196,246995.240603549,2.21891213586737,766.567429589608,1035.246,257815.723408118,272180.546806746,2.15467890895422,0,905.55373568155,0,96.6817421443437,0,1209.92904851115,0,79.6979865343169,0,397.600793339271,0,167.361588927541,1035.246,51158.7661778268,53776.4672273966,6.56660014327874
-11.6982899,26.7553997,ESH,"Malakal - South Sudan",FALSE,57.035,6390.125709182,25.1492270818786,364460819.823195,1434386.16661495,,,,0,3,593.807109986845,57.035,9862.1502410857,14228.6760790378,2.40388260755243,668.858895560452,57.035,11689.9648641509,16606.803204972,2.28434022780972,57.035,909.636862451516,1434.38616661495,15.8382105680142,0,445.289719877768,0,25.4989932946872,0,37.9880454146805,0,131.579081016614,0,112.392618595239,0,63.8449112722128
-11.1610899,28.4597492,MAR,"Kukawa - Nigeria",FALSE,73.209,6295.70213058728,39.2491173607986,460902057.278165,2873388.6328667,,,,0,8,747.087228044036,73.209,17573.5799308697,23719.4897437078,2.17858032417083,800.513896222108,73.209,19396.0771553331,26287.8507686193,2.11503465316446,73.209,1843.38712770765,2873.3886328667,12.4377886857827,0,508.390380436582,0,29.3554893835788,0,52.578851332297,0,133.233512849136,0,189.619435385119,0,56.6542257143279
-12.283231,11.316916,GIN,"Labé - Guinea",TRUE,127.747,1146.98337636056,35.8287216279254,146523685.379933,4577011.70180259,,,,0,6,682.380597873217,127.747,26942.6211980182,38355.7488166984,2.26482974954607,685.120913276394,127.747,27097.320717757,41868.1864261077,2.26094304771702,127.747,3086.12072895419,4577.01170180259,12.8608729275444,0,536.963454890503,0,41.2650684748644,0,158.601810865725,0,93.0408412148963,0,290.607459956314,0,62.1357031009898
-12.08277,10.383497,GIN,"Mamou - Guinea",TRUE,376.269,1135.61305456118,26.8662514052221,427295988.426679,10108937.5499915,,,,0,6,633.491518030305,376.269,71361.6542795106,95833.3962758993,2.33815007074706,677.016544751993,376.269,78467.7691473684,103361.815855665,2.27250296945955,0,2344.91498495325,0,28.3569689003801,376.269,5290.68089530375,10108.9375499915,16.4842872940675,0,411.860984240956,0,90.4157537227431,0,676.785595585551,0,64.9297610150794
-11.74007,7.956451,SLE,"Bo - Sierra Leone",TRUE,249.807,1496.9442,25.5146367561591,373947139.7694,6373734.86414584,,,,0,7,561.087414178238,249.807,39835.5371514251,57500.6695917742,2.46298908789678,607.456260438093,249.807,44620.4789767305,59238.7092646829,2.3805835581655,0,1014.6867736563,0,35.8260685790787,249.807,2660.29264017767,6373.73486414584,18.8423130905529,0,166.268029070084,0,119.64135439203,0,878.85698134444,0,39.4283268494803
-10.971644,8.643743,SLE,"Koidu - Sierra Leone",TRUE,300.387,1517.04766003136,22.0121301485176,455701395.453841,6612157.73892276,,,,0,7,592.265136788577,300.387,51748.5427376597,63450.9885801285,2.40656282001518,636.995963047645,300.387,57420.9380426494,70904.1985690284,2.33262846895267,0,1220.17153531416,0,34.9955598047371,300.387,4165.71571670556,6612.15773892276,15.4347804639417,0,241.30289304427,0,103.09838284593,0,590.123368479273,0,56.7978195630312
-10.8695793,12.6057196,MLI,"Kawambwa - Zambia",FALSE,10.832,2285.3071,24.4574447781555,24754446.5072,264923.041836981,,,,0,9,159.834016158173,10.832,287.267921662841,9306.67424136201,4.21879834890541,223.61638402006,10.832,464.11114910371,15381.0168822094,3.65332503591985,10.832,529.275993410943,264.92304183698,34.5321443996023,0,215.112324196237,0,62.9363400757963,0,175.246128976042,0,72.1516150059675,0,139.990083779916,0,83.8069746507309
-11.432892,14.449705,MLI,"Kayes - Mali",TRUE,174.373,2363.01954108217,36.6490483544719,412046806.437122,6390604.50871433,,,,0,9,634.792565308692,174.373,33167.9481222983,41713.0421438542,2.33609489459779,721.019904038382,174.373,39786.9489831308,47210.8930489644,2.2119937610796,174.373,5957.8923685947,6390.60450871433,8.79191756301369,0,252.298746205691,0,72.3661239972791,0,190.193869055417,0,87.3670552905892,0,209.992690289716,0,81.7854263195694
-11.8790693,12.8341799,SEN,"",FALSE,0,2287.6685,30.2988245952444,0,0,,,,0,1,666.881794478576,1e-06,0.000204096295990107,3753.53115468789,3.46069979103916,736.017257684408,1e-06,0.000234981617374339,3906.2657584388,3.11060234917707,1e-06,214.61896167339,3.02988245952444e-05,21.5232058886958,0,44.5657940434076,0,61.3787332295823,0,24.7765628712426,0,90.7803071974528,0,35.974661334871,0,70.798036117248
-11.5879192,10.1457901,GIN,"",FALSE,0,1178.37874359219,21.1600028678453,0,0,,,,0,6,1100.24377864514,1e-06,0.000417314793232463,1434.41570949674,2.51106350135573,1158.62454127715,1e-06,0.000449304366979554,1232.36342138523,2.35338748409378,1e-06,34.0306982513103,2.11600028678453e-05,25.7595772421916,0,53.6733522728368,0,19.0113733189275,0,4.96540940128134,0,92.9428389758965,0,8.03045055555114,0,67.456846165161
-9.299825,10.383689,GIN,"Kankan - Guinea",TRUE,198.013,1153.17201735961,31.112356240142,228343050.673428,6160650.99617924,,,,0,6,735.459219415742,198.013,46479.0260913307,61204.5843745714,2.19327607055224,817.086592077389,198.013,54020.212386717,68230.636236441,2.0965418949126,198.013,5797.03207765363,6160.65099617924,10.8480754304731,0,885.830452774502,0,37.9538715889299,0,332.722471362779,0,72.9068607777025,0,257.910520098673,0,86.39934491633
-11.3188601,7.3100801,SLE,"",FALSE,0,1344.94827331861,15.4784810906556,0,0,,,,0,7,771.208136231384,1e-06,0.000251194697483969,13126.3025669058,3.1469502850931,905.195470520856,1e-06,0.000315789205795532,14385.6237720358,2.73457666097195,1e-06,334.412275017292,1.54784810906556e-05,33.5728152983834,0,296.184684865312,0,36.4027480177956,0,51.147890876219,0,117.388102315268,0,343.262173819011,0,32.9932630053382
-11.1890097,7.8601699,SLE,"Khartoum North - Sudan",FALSE,188.463,1485.97140072144,26.5325861186727,280050628.094164,5000410.77768342,,,,0,7,594.034974250398,188.463,32605.7579060345,46970.3290579406,2.40348737574496,639.557761265896,188.463,36233.0908702661,48788.646306135,2.32861949759274,188.463,1637.05422859458,5000.41077768341,22.38389502008,0,1369.33087978594,0,25.2138274559842,0,158.410809476386,0,106.199180985798,0,559.333216529139,0,45.7998408440404
-2.216954,31.616774,DZA,"Béchar - Algeria",TRUE,179.119,13194.7313701357,47.9612505819522,2363427088.28733,8590771.24298869,,,,0,10,786.810862816481,179.119,46299.7772246101,51530.5180830989,2.13074331116778,871.053286309459,179.119,53540.83664902,58951.6957931175,2.03985485840582,179.119,8021.37961549861,8590.7712429887,7.71076420852912,0,520.356252865121,0,47.7598495171232,0,125.213148378511,0,123.451634505132,0,200.757436915032,0,90.1188635881277
-10.0955496,9.1883497,GIN,"Mongu - Zambia",FALSE,66.815,1121.84293071791,25.8338628216588,74955935.4159169,1726089.54442914,,,,0,6,558.494362019969,66.815,10584.3974897485,17005.748023116,2.46788352334166,636.50984611679,66.815,12758.2019906499,19466.9885504195,2.33339178952769,66.815,798.927638261193,1726.08954442913,19.6116989286161,0,589.319070864625,0,24.0225911636273,0,85.8101207092945,0,86.7949597545442,0,112.476109354496,0,72.4680637694765
-10.3059597,14.7111797,MLI,"Ikot Abasi - Nigeria",FALSE,18.328,2285.3071,26.3038363987401,41885108.5288,482096.713516109,,,,0,9,295.808585789638,18.328,1171.1434014235,7037.34440473867,3.2405134185816,327.964177796259,18.328,1357.16425096965,9262.43554518916,3.10032424403427,18.328,579.97965933622,482.096713516109,19.6614438446886,0,72.812111604707,0,78.4190358342669,0,100.174779642364,0,63.3945103559555,0,56.6934537613081,0,92.6549527927596
-9.6050797,16.6627998,MRT,"Abū Ḩamad - Sudan",FALSE,24.199,3760.08548182476,19.5791653774687,90990308.5746773,473796.222969366,,,,0,2,262.694903468761,24.199,1305.07816009797,8580.02071927263,3.40965619273459,304.920384378084,24.199,1614.7854369325,10643.6270909619,3.19865275184901,24.199,473.796361589634,473.796222969365,25.4662919995647,0,137.247162476221,0,58.168957339178,0,95.597580373359,0,74.0279282664239,0,89.3413088812648,0,77.4447511112389
-10.801398,6.313299,LBR,"Monrovia - Liberia",TRUE,1110.25,967.725459213548,41.2600904571139,1074417191.09184,45809015.4300107,LRMLW,Monrovia,AI,467.27200002,11,682.677496980157,1110.25,234304.051906442,257842.644373928,2.26440773708668,750.480187361416,1110.25,268242.669078951,297669.847257061,2.17435374271568,0,1828.37471255514,0,64.830088978153,0,1714.87286962797,0,67.6600220826723,0,526.626878730203,0,148.645377011198,1110.25,41051.2394270247,45809.0154300107,8.14584087308746
-10.132382,8.567176,GIN,"Guéckédou - Guinea",TRUE,221.715,1099.39487496181,19.6079430369351,243752334.702158,4347375.09043406,,,,0,6,627.208035929743,221.715,41455.0065674496,46308.6337637522,2.34816026868593,700.521807128287,221.715,48547.0413444454,52624.0799127325,2.23950483763976,0,1123.56781672195,0,29.0988276735378,221.715,2947.9108571739,4347.37509043407,15.2967362344367,0,186.678488167736,0,96.2820884456192,0,346.554758556619,0,63.7422086515359
-10.066664,28.983267,MAR,"Guelmim - Morocco",TRUE,118.318,6238.3237,43.0273185293868,738105983.5366,5090906.27375998,,,,0,8,950.975045971619,118.318,40092.0018895974,42128.0691407596,1.96453701036002,1025.30365469117,118.318,44642.4777998417,48247.2643360691,1.90218640866715,118.318,4717.12210533701,5090.90627375999,8.96293246974625,0,489.01385158986,0,40.6150908785523,0,91.1439115487337,0,124.475275107811,0,381.859503228012,0,47.8959877953186
-10.4223099,8.6459198,GIN,"",FALSE,0,1227.60079775481,18.0701264188066,0,0,,,,0,6,1134.79324519731,1e-06,0.00043616054903325,1402.10720861509,2.46330887968495,1209.65960945659,1e-06,0.000477841812536592,1247.86832568035,2.29341130032663,1e-06,28.8113294355192,1.80701264188066e-05,28.2847442287988,0,64.4430068492057,0,16.5377817625949,0,4.64627506458522,0,95.4680051126063,0,8.27350443963821,0,64.9832539964421
-9.4627399,13.0295696,MLI,"Ghardaïa - Algeria",FALSE,57.187,2269.38964058337,35.3665191502151,129779585.376041,2022505.13064335,,,,0,9,201.763751941544,57.187,2115.48517184999,21820.4836555245,3.81793480033857,245.623171970995,57.187,2801.86625131333,26313.2094112748,3.50927409355121,57.187,584.625716696128,2022.50513064335,44.403229870917,0,168.996363716709,0,101.565980384571,0,1265.85547993118,0,26.5303973293632,0,127.682914337054,0,122.436614898668
-9.4801102,7.0074396,LBR,"Zuwārah - Libya",FALSE,34.046,786.9167,15.4325262289124,26791365.9682,525415.787989552,,,,0,11,295.505149814362,34.046,2172.32274593669,13899.9643694624,3.24193899953072,376.300316650389,34.046,3068.17990369437,19814.6797389362,2.92292652510302,34.046,501.109856678734,525.415787989552,33.9250612582145,0,444.364500382597,0,36.7549947533661,0,77.5043216591566,0,117.740350314256,0,376.780598394206,0,41.0283056323962
-9.544252,15.181505,MLI,"Nioro - Mali",TRUE,116.376,2301.37386339613,31.0032048103123,267824684.726588,3608028.96300491,,,,0,9,547.542845373927,116.376,17921.2748993953,24472.8941040396,2.48891848538933,543.075296343277,116.376,17712.7485677607,27400.6940804369,2.49767287954197,116.376,2323.33998132761,3608.0289630049,12.9410076111305,0,178.155358035928,0,71.6985996106435,0,247.785281847652,0,57.5430567030616,0,124.648238797226,0,90.9743932629808
-9.5260296,14.5371294,MLI,"Rundu - Namibia",FALSE,52.399,2258.05105134941,26.6645356098404,118319617.039658,1397195.00142003,,,,0,9,231.191846857392,52.399,2354.54067457481,14319.3230727473,3.60153261267348,252.688651446807,52.399,2673.42463032324,16198.4447944857,3.46688018144485,52.399,533.255770757644,1397.19500142003,33.7518308885414,0,117.517518537704,0,92.509422713672,0,462.771349971957,0,37.0973940276519,0,94.8108810655256,0,106.745339841335
-9.4735699,8.5450697,GIN,"Manzini - Eswatini",FALSE,43.102,1096.84397846855,22.3680314344588,47276169.1599514,964106.890888042,,,,0,6,528.844835128387,43.102,6316.05615093977,10572.9218318409,2.52625822467939,603.269668164226,43.102,7623.18221018631,12316.2501628606,2.38764991324864,43.102,454.324173104306,964.106890888043,21.5466164539591,0,405.717243800098,0,23.2348928982295,0,54.3662859612818,0,88.7298764786459,0,74.8745408172342,0,71.6803645948926
-9.716798,29.717562,MAR,"Tiznit - Morocco",TRUE,108.998,6238.3237,44.8746618567915,679964806.6526,4891248.39306656,,,,0,8,606.911942844373,108.998,19444.2846173555,43556.8800247136,2.38149830341631,657.509256504678,108.998,21800.7903003224,47563.2858840099,2.30115675123686,108.998,2233.73889494677,4891.24839306656,17.6782456914831,0,479.202577240036,0,49.3304041034495,0,150.63039228242,0,106.705228098051,0,1004.10754183075,0,30.125940716165
-9.599649,30.433289,MAR,"Agadir - Morocco",TRUE,1070.86,6374.8461531175,58.0517269919173,6826567751.5274,62165272.3665645,MAAGA,Agadir,AI,593.66057139,8,937.086483540419,1070.86,355313.604991766,385543.495222714,1.97696308402257,1028.17497531915,1070.86,405662.817108723,439961.349499297,1.89990796812562,0,3031.2936638913,0,52.4715112889168,0,1570.82614531651,0,81.3311350487491,0,1496.93509869728,0,83.9860068717314,1070.86,57157.6717336749,62165.2723665646,7.40671945141758
-5.986109,14.249942,MLI,"Niono - Mali",TRUE,128.619,2285.3071,33.8806562465947,293933913.8949,4357696.12578076,,,,0,9,711.510276055446,128.619,28795.8082855076,36682.2025855081,2.22461627515478,778.606380412989,128.619,32752.0856713616,41382.0181115099,2.1403370336704,128.619,3378.46868368847,4357.69612578076,11.3730429373037,0,485.357774254168,0,41.4618443112323,0,298.583892636572,0,57.3208154102744,0,128.120210326788,0,100.757685236059
-8.8621101,31.2670689,MAR,"Dayr Mawās - Egypt",FALSE,41.579,6727.27118707371,36.8417125347524,279713208.687338,1531841.56548247,,,,0,8,575.444233390141,41.579,6874.09328299328,46187.0014058714,2.43646342712007,651.223440390869,41.579,8202.91038638878,51338.1198724134,2.31064984518984,41.579,843.962686028595,1531.84156548247,35.7392373200544,0,837.006498440029,0,35.936978316787,0,752.138408335735,0,38.5918501390748,0,778.046569622686,0,37.7303107971226
-9.551909,13.355745,MLI,"Balandougou - Mali",TRUE,1631.251,2258.59960670909,27.9096560141396,3684342867.04381,45527654.2827213,,,,0,9,487.812908120782,1631.251,212991.483071737,224147.656668391,2.61522997159146,558.851458896712,1631.251,258648.23824298,276334.184062814,2.46720760151181,0,2006.31871209635,0,65.8004436242159,0,785.381110232184,0,122.963194185262,1631.251,41463.5303438825,45527.6542827212,8.73744760437684,0,654.918623192641,0,138.793952579383
-9.1929197,14.5529394,MLI,"Cahama - Angola",FALSE,43.276,2285.3071,27.938885275401,98898950.0596,1209083.19917825,,,,0,9,227.56923012627,43.276,1901.21738197137,15728.6447075325,3.62599253469601,281.73425148015,43.276,2579.27498269407,18119.2631489189,3.30892677183159,43.276,630.282655160936,1209.08319917825,31.0520736286715,0,128.14056914167,0,89.809665458532,0,526.588900839317,0,35.0052387023151,0,95.7240294129402,0,109.085459004157
-8.816789,7.750291,GIN,"N’Zérékoré - Guinea",TRUE,195.027,1164.86349690503,28.8972795876179,227179833.210898,5635749.74613435,,,,0,6,661.21744599556,195.027,39322.1846202588,49067.9843635473,2.29561704402248,706.248316085664,195.027,43202.9622737806,55444.3169230859,2.23170445877931,195.027,3535.29920437116,5635.74974613436,13.9826855920454,0,1006.81086601956,0,32.3029936946606,0,191.124894957324,0,97.7979755856363,0,360.179489509606,0,64.1005938637397
-8.1639996,7.2641697,CIV,"",FALSE,0,3149.8581711304,28.2093242708592,0,0,,,,0,12,978.666301789002,1e-06,0.000353032589954288,4352.80376508487,2.70220769802146,1031.71108250747,1e-06,0.000380682226222795,5350.30935198649,2.52420587061772,1e-06,159.123117800737,2.82093242708592e-05,26.295928806344,0,185.992059531487,0,23.6981493417979,0,18.5702905972728,0,110.111218487355,0,51.2678139267686,0,55.9518136344804
-7.5722198,9.5049696,CIV,"Bariadi - Tanzania",FALSE,86.279,3289.988,39.2309187365728,283856874.652,3384804.43767277,,,,0,12,888.810730096174,86.279,26544.1857563786,31218.7415725725,2.02228800912941,870.162674767911,86.279,25752.175558644,34859.4774892971,2.04074951331785,86.279,2723.42114445461,3384.80443767276,11.1667585095452,0,587.315364363329,0,31.0519831509817,0,156.27725950167,0,75.0596255759749,0,120.63048330037,0,89.2001408245501
-8.002662,12.639193,MLI,"Bamako - Mali",TRUE,4552.105,2286.20141850059,45.3510168389582,10407028908.1636,206442590.507706,,,,0,9,716.382334699616,4552.105,1029130.05222863,1119615.51983507,2.21811944979582,757.289888906097,4552.105,1114098.35324595,1209234.93834833,2.16595245417526,0,6551.39247298408,0,70.2156064178457,0,5000.54309829243,0,84.0706899160587,4552.105,193584.560552148,206442.590507706,7.34641655718646,0,2135.48473450633,0,148.248991349935
-9.166742,11.416769,GIN,"Siguiri - Guinea",TRUE,183.875,1135.4866,32.4018248026735,208787598.575,5957885.53559159,,,,0,6,440.151540982236,183.875,20728.9308035208,57894.5208823658,2.73304041350298,479.25578827214,183.875,23409.0745587019,61388.6271587727,2.63514094155123,183.875,2953.35496294163,5957.88553559159,19.9213469471877,0,753.813753535001,0,49.509258763217,0,865.481415026401,0,45.1534179494952,0,270.866665570189,0,97.9547320732522
-7.4854398,11.42488,MLI,"Souk Ahras - Algeria",FALSE,95.222,2285.3071,32.0476990885096,217611512.6762,3051646.00260606,,,,0,9,418.617093059379,95.222,9992.39749923685,44634.381472542,2.79243191816623,471.609389820453,95.222,11847.3275561407,49721.5317751499,2.65336740368365,95.222,2021.33562488796,3051.64600260606,22.4423384558303,0,982.713500174031,0,36.2974213097056,0,553.443925033393,0,53.2244647281344,0,213.377623045071,0,100.475722483889
-9.233368,32.283274,MAR,"Safi - Morocco",TRUE,395.857,6780.39513730578,50.0776184680819,2684066877.86845,19823575.8139195,,,,0,8,1016.5867843791,395.857,147549.78877195,172793.402854586,1.90915957171684,1109.53554721828,395.857,167193.611678874,194217.428182161,1.83889914250163,0,1471.81760994194,0,47.6629274464878,395.857,14424.2628383143,19823.5758139195,10.4076886361995,0,1348.92424599969,0,50.5155402962571,0,1384.18357678972,0,49.6540009613842
-8.500158,33.233179,MAR,"El Jadid - Morocco",TRUE,467.017,7268.41013196153,54.5650407804857,3394471094.59828,25482801.6501801,,,,0,8,869.506144625148,467.017,139242.955416438,234721.199851103,2.04140955760115,988.268984700949,467.017,167188.110826677,256133.815254733,1.93241546945404,0,1628.83040489172,0,56.2982038563936,467.017,18856.3976051831,25482.8016501801,11.0011807452821,0,1512.43443655475,0,59.1508168159444,0,2541.0073441346,0,41.8544048483904
-8.3035603,32.2542381,MAR,"Funtua - Nigeria",FALSE,139.815,6725.98050128035,37.1479411148004,940392963.786512,5193839.38696582,,,,0,8,818.076576326463,139.815,38209.1695822273,59313.1165929232,2.09545414482183,846.650938711601,139.815,40129.9133937262,58211.2048642898,2.06484748466001,139.815,871.692672835331,5193.83938696582,33.9873085566276,0,1845.13616054457,0,20.6161116643601,0,772.432453843972,0,36.8399215205289,0,467.752063767873,0,51.4693357195788
-8.2107401,31.9539585,MAR,"Ouled Fayet - Algeria",FALSE,38.613,6720.5864,38.3004049757337,259502002.6632,1478893.53732801,,,,0,8,648.613671268199,38.613,7574.18919643654,24289.4659001638,2.31462974841687,716.995483208228,38.613,8740.21916070516,28587.3135460713,2.21730625721965,38.613,393.996509434982,1478.89353732801,38.5726665668973,0,746.058829920234,0,25.2014693485468,0,530.405997864174,0,31.6375099647578,0,224.90229821447,0,56.0546936989604
-8.008349,31.630015,MAR,"Marrakech - Morocco",TRUE,1132.514,6720.5864,58.6646890573813,7611158186.2096,66438581.6631311,,,,0,8,1043.52788291755,1132.514,438199.461989484,506942.026988969,1.88787758015899,1131.35336980731,1132.514,491820.283272591,561667.950133745,1.82361627156456,0,2902.08327882131,0,61.016408356338,0,4205.82256862519,0,47.6452111295659,1132.514,55154.9829065155,66438.5816631311,8.56768289987341,0,2765.6145169615,0,63.0074818599077
-7.6750998,8.2902699,CIV,"Krugersdorp - South Africa",FALSE,55.013,3186.43542100719,24.1835686231057,175295371.815869,1330410.66066291,,,,0,12,543.955671367428,55.013,8392.5281286563,14593.975552478,2.49593952408802,589.807445746226,55.013,9421.11784964555,15876.6602201107,2.41085551487285,55.013,536.619244226576,1330.41066066291,23.0621498943314,0,597.81997547242,0,21.4600303927856,0,73.2949411441522,0,86.9550115857589,0,85.0807702330956,0,78.7268742996739
-7.583329,33.53329,MAR,"Casablanca - Morocco",TRUE,4219.891,9656.635,70.9405986874118,40749947126.785,299361593.935621,MACAS,Casablanca,AI,2434.0279715,8,1018.07428910537,4219.891,1576190.3115521,1716613.97337317,1.90796355423634,1048.39123948619,4219.891,1643668.54628041,1803628.34746196,1.88411936094753,0,5334.69401019424,0,91.4394147423571,0,7399.22221095218,0,73.5217327125393,0,6915.40394592253,0,76.9121133418738,4219.891,283780.122886459,299361.593935621,6.46475095879502
-7.9837198,32.2262306,MAR,"Qillīn - Egypt",FALSE,132.168,6742.80992422409,43.2105007592418,891183702.06485,5711045.46434747,,,,0,8,698.521847733688,132.168,28821.7403951788,81981.1826251359,2.24225057788796,761.835329709034,132.168,32624.9884133944,88425.472140636,2.16040463929448,132.168,1045.80455808334,5711.04546434747,41.6184919280726,0,1870.31492913958,0,28.247295019514,0,1799.81997816594,0,28.9801512238242,0,975.006252240468,0,43.6095654382526
-7.59407,7.3604698,CIV,"Pikine - Senegal",FALSE,241.969,3331.50044575431,31.6783867627629,806119831.358724,7665187.56659899,,,,0,12,677.333415022086,241.969,50494.3643486166,58129.2127926515,2.2720472073144,741.166061593626,241.969,57427.3342395243,66273.1974247155,2.18602250971944,0,880.781739979993,0,38.9613847543723,241.969,5601.46485209754,7665.18756659898,11.3504259407234,0,205.34615604353,0,102.854240616545,0,376.851051297672,0,68.6172696342448
-7.408295,32.048099,MAR,"El Kelaa des Srarhna - Morocco",TRUE,223.364,6725.77294838356,38.3125407240053,1502295548.84275,8557642.34627671,,,,0,8,758.933036550324,223.364,54836.4275296661,86375.2038788149,2.16394147092516,851.209665010731,223.364,64603.9807993439,96361.2111968853,2.06010086863374,0,701.693677418863,0,54.835054122805,223.364,4700.32955035276,8557.64234627672,15.4313686458553,0,1512.76499417176,0,32.8580919936018,0,665.139721684466,0,56.8261276337409
-6.26652,13.449454,MLI,"Ségou - Mali",TRUE,240.936,2285.3071,34.5068161376911,550612751.4456,8313934.25295074,,,,0,9,550.057366056736,240.936,37346.4952705025,91204.7542651408,2.48403594978048,604.829390950116,240.936,42770.3268999863,96559.1206562958,2.38500917172046,0,2453.74605946822,0,27.593016332204,240.936,3091.3922721926,8313.93425295074,23.6546309750842,0,1431.88601787329,0,39.5136021183884,0,281.10851146869,0,116.977658647419
-7.350092,6.733084,CIV,"Duekoué - Côte d’Ivoire",TRUE,284.596,3302.72447034709,26.4823462879371,939942173.3629,7536769.82416175,,,,0,12,665.978717009944,284.596,57972.654232281,58220.8554581016,2.28856886810636,723.947842438674,284.596,65313.7335117866,65549.514707888,2.20815523033731,0,561.684896414441,0,52.7327903485439,284.596,7351.80104094846,7536.76982416175,9.49467475358255,0,170.774419571512,0,116.625640631886,0,354.415080195786,0,71.6805166043554
-6.841593,34.020894,MAR,"Rabat - Morocco",TRUE,1891.455,7891.94605770258,67.9275739994679,14927260830.5718,128481949.479164,,,,0,8,989.936874540673,1891.455,678757.916845365,814916.82980827,1.93101945374363,1124.42392171355,1891.455,814230.108710745,980596.1463122,1.82842425026228,0,3051.82359156838,0,85.7756747209557,0,6879.91769837211,0,49.8901639998713,1891.455,114098.373901864,128481.949479164,7.67156774811308,0,5198.02848535836,0,60.1420171513758
-6.5227799,32.8590393,MAR,"Randburg - South Africa",FALSE,178.623,9675.0688844993,45.6605596927238,1728189829.35592,8156026.1539934,,,,0,8,582.757679883165,178.623,30068.6643040918,97140.9926866055,2.42331173478741,674.720898595474,178.623,37070.0294860499,113503.634755646,2.27581339784734,178.623,1227.81522580286,8156.0261539934,46.528725100468,0,2546.32718692132,0,28.6110430812049,0,2152.5873973741,0,32.0014237358724,0,1383.33373115131,0,42.9726218275099
-6.4903197,9.5225697,CIV,"Kikuyu - Kenya",FALSE,92.792,3289.988,40.8585933304043,305284566.496,3791350.59231487,,,,0,12,772.368097773185,92.792,23358.9580386607,32222.3600092799,2.14772876836054,787.823068245806,92.792,24029.5378349434,33770.6818164768,2.12956965794109,92.792,1740.67264582308,3791.35059231488,15.3758927756401,0,1130.36012796408,0,20.5040903117417,0,134.947925669381,0,84.5682988522193,0,107.014768982605,0,98.708811961655
-5.666994,11.316457,MLI,"Sikasso - Mali",TRUE,315.73,2285.3071,34.5993127669643,721540010.683,10924041.0199136,,,,0,9,745.33146435847,315.73,75535.6239690123,92653.5026523384,2.18077840584483,788.815458531967,315.73,81909.0257517048,99573.7529575756,2.12842104861425,0,2082.95394386951,0,28.0350293860995,315.73,7218.95798883093,10924.0410199136,12.2415888640313,0,517.971750491676,0,70.8951855456967,0,240.768801165162,0,118.146443542379
-6.36073,32.339077,MAR,"Béni Mellal - Morocco",TRUE,559.315,9578.10692231839,51.2521768542167,5357178873.25651,28666111.2972162,,,,0,8,1029.24886334482,559.315,212195.729301113,225901.595951931,1.89905807139753,1096.37705869924,559.315,232239.445947371,246347.450759791,1.8483255180748,0,1092.27745553455,0,68.4839068395152,559.315,25192.6667201231,28666.1112972162,8.45203097923935,0,1951.816778533,0,46.50694475666,0,1183.23142245813,0,64.9278035755491
-6.9510198,6.7373199,CIV,"",FALSE,0,3289.988,26.0983083598812,0,0,,,,0,12,1104.43689880247,1e-06,0.000419588677703813,590.441941683691,2.50511846356305,1294.5521827642,1e-06,0.000526459169266458,454.291807275149,2.20274828030748,1e-06,3.597137344328,2.60983083598812e-05,55.4476902767114,0,51.8902516663692,0,9.35687770202146,0,1.1392007244515,0,119.340535278462,0,2.6331226861973,0,68.2664646844201
-6.59448,6.48704,CIV,"",FALSE,0,3289.988,30.2351215412896,0,0,,,,0,12,865.066225293395,1e-06,0.000295981387096431,2305.23500408092,2.92253810721679,1034.50025602003,1e-06,0.000382153296381357,2454.73487393215,2.52001112930769,1e-06,21.741960779058,3.02351215412896e-05,58.8671566591783,0,215.409216119319,0,12.7613313734895,0,7.59910024202558,0,118.63989411806,0,20.5279009162459,0,61.1658717452133
-6.450154,6.883246,CIV,"Daloa - Côte d’Ivoire",TRUE,466.205,3289.988,31.5809428623859,1533808855.54,14723193.4671586,,,,0,12,694.701895450427,466.205,100871.540469722,103188.03186086,2.24752633488569,756.158461040419,466.205,113857.214971024,116667.106231669,2.16734099638021,0,909.495301877602,0,55.1263452832142,466.205,13740.1696035835,14723.1934671586,9.02051824060331,0,282.854457052739,0,120.092944580299,0,649.213324011133,0,69.0188777551538
-5.51861,33.8304405,MAR,"Ibadan - Nigeria",FALSE,713.763,5725.32862494757,52.8535171786926,4086527735.32846,37724884.9820151,,,,0,8,933.675480801378,713.763,235597.520185826,297484.976632927,1.98005518587726,1010.31107141569,713.763,263701.359945735,324129.335619452,1.91423306622886,0,1067.95446815479,0,86.4513704005339,713.763,30696.815025225,37724.8849820152,9.213221131125,0,4674.92894101474,0,32.3065337542112,0,1137.40715860709,0,82.8952670876342
-6.633194,4.750108,CIV,"San-Pédro - Côte d’Ivoire",TRUE,390.654,3573.43717303907,31.4114659961222,1395977525.39641,12271014.8372491,CISPY,San-Pdro,AI,2312.50202864,12,352.800557791385,390.654,32106.9758040841,65299.7407666488,3.00483167597522,369.700978835249,390.654,34326.5283381142,72661.0912949903,2.94517451499093,0,268.948989496189,0,123.083271980193,0,560.369065034164,0,75.4506309788129,0,149.526379082095,0,182.040114448265,390.654,10248.9033605593,12271.0148372491,10.8691115597975
-6.600167,5.783308,CIV,"Soubré - Côte d’Ivoire",TRUE,310.768,3216.67761193904,26.8544558285881,999640468.107073,8345505.52893867,,,,0,12,422.503207656471,310.768,33044.6859366906,65666.2303285227,2.78139519396699,431.560771410908,310.768,34061.3265165587,73764.7421479196,2.75622543760023,0,655.231620389775,0,64.2614796613892,310.768,4977.69243802755,8345.50552893867,16.6288386082584,0,246.77888422003,0,123.21832221444,0,972.22137599321,0,49.3973720181034
-4.034,5.317569,CIV,"Abidjan - Côte d’Ivoire",TRUE,9022.419,3473.84868051719,53.7001420652593,31342518338.2232,484505182.072294,CIABJ,Abidjan,AI,3248.84543344,12,625.577699760822,9022.419,1680699.65521553,1730809.64215315,2.35078093224216,674.402407953573,9022.419,1871180.21101172,1925753.71363876,2.27627399258365,0,4238.70965620376,0,134.52486889079,0,4528.3209464928,0,128.726182816886,0,2476.24160536755,0,192.499533040163,9022.419,477413.645478385,484505.182072295,5.76804294776988
-5.93669,6.13259,CIV,"Gagnoa - Côte d’Ivoire",TRUE,277.044,3292.32142843847,37.4502145097444,912117897.820308,10375357.2286376,,,,0,12,584.734343244233,277.044,46862.5976542763,66921.7958914691,2.41979746937488,622.181583692817,277.044,51208.0894385375,73666.8638239917,2.35627172350398,0,659.298235938435,0,54.66200345469,277.044,6426.66280265003,10375.3572286376,11.9788875400069,0,220.006077381934,0,113.618845202867,0,633.352770210486,0,56.144821637231
-5.900032,35.008948,MAR,"Ksar El Kebir - Morocco",TRUE,481.749,7708.3994,48.126429375983,3713513702.5506,23184859.2254504,,,,0,8,777.640800458576,481.749,122457.325266437,210620.542836173,2.14147555113923,911.595581401158,481.749,153670.074512487,255729.115469676,2.00046875284122,0,1529.08688950443,0,60.7244764792331,481.749,16286.0465987599,23184.8592254504,12.544155876942,0,3197.12161028638,0,37.1374817854866,0,1673.95617190194,0,57.168373172927
-5.667584,32.939324,MAR,"Khénifra - Morocco",TRUE,381.704,5810.59514758978,38.7930319415803,2217927410.21561,14807455.4642289,,,,0,8,832.837073471325,381.704,107012.610777722,129756.277707715,2.07945639173542,890.702054197929,381.704,117790.380098882,144838.870939903,2.02044662455729,0,687.850710755222,0,71.5113003834031,381.704,10694.8826906748,14807.455464229,11.4794245744083,0,2001.04488745103,0,35.091310042981,0,742.543992203118,0,67.9551971251376
-5.759602,10.555472,MLI,"Kadiolo - Mali",TRUE,317.492,2328.09481993824,27.1998768923998,739151480.571833,8635743.31432181,,,,0,9,736.631941815117,317.492,74693.8083269904,77809.7120782569,2.19177911665436,797.287134005312,317.492,83632.7408846321,86623.0250902966,2.11869884689277,0,1535.0650706191,0,31.1702503126015,317.492,7152.30236888921,8635.7433143218,11.1736274775595,0,409.338690782322,0,75.2378342821158,0,218.027347759795,0,114.503167942851
-5.6370897,9.4510393,CIV,"Nneyi-Umuleri - Nigeria",FALSE,286.071,3289.988,35.5292803371237,941170157.148,10163896.7553213,,,,0,12,819.16680617236,286.071,78327.440356234,84868.0896008793,2.09425848970202,903.003123023035,286.071,90025.7313640844,95926.6258837754,2.00860480932671,0,1985.2384531462,0,26.6468237605558,286.071,7329.2003853985,10163.8967553213,11.1553430336513,0,418.585889075785,0,75.2195716882949,0,250.487972091688,0,105.924396029383
-5.30024,6.8373399,CIV,"Arzew - Algeria",FALSE,37.253,3289.988,41.8178867554655,122561922.964,1557841.73530136,,,,0,12,412.982594863032,37.253,3834.30110084987,13130.4343876154,2.80869655254551,446.464733347529,37.253,4285.98933928345,14311.2164698409,2.71641028812858,37.253,304.810336978384,1557.84173530136,35.3530263556474,0,744.984316046577,0,19.4841585559103,0,63.7662337193041,0,100.319622433295,0,90.4195155515516,0,79.4825177680955
-5.7609501,12.9448795,MLI,"Béni Mellal - Morocco",FALSE,89.799,2275.85166218126,32.5280080868355,204369203.412215,2920982.59818974,,,,0,9,638.130722320548,89.799,17209.3670772938,23201.9015307101,2.33084979013505,713.014083380912,89.799,20165.3399147804,25285.78376557,2.22260405222608,89.799,1658.2422246798,2920.98259818974,13.6672477933173,0,416.250395599202,0,34.3460350466835,0,235.531516312822,0,50.2050067330397,0,58.0819334468458,0,127.669063290387
-5.0414901,6.5430398,CIV,"Chipata - Zambia",FALSE,39.005,3289.988,39.0763581540411,128325981.94,1524173.34979837,,,,0,12,309.188769470881,39.005,2654.9865959636,17054.4834303022,3.17965277113494,399.429309941577,39.005,3827.74189844544,18737.743109448,2.84915193004316,39.005,480.18833731218,1524.17334979837,32.7782720861156,0,643.039630506618,0,26.9795874742367,0,102.562190863611,0,91.7351132596134,0,159.013733891229,0,68.4810962536467
-4.6909499,5.9060397,CIV,"",FALSE,0,3289.988,32.1998889870533,0,0,,,,0,12,488.723873786803,1e-06,0.00013091788183761,38143.3342727785,4.26326764057243,584.183678998486,1e-06,0.000168924663649163,49421.5274173573,3.60360409317139,1e-06,922.868788959583,3.21998889870533e-05,51.198182095806,0,1105.21104480618,0,45.3994965612099,0,296.380630278372,0,109.172846966664,0,986.657897797819,0,48.9669946095428
-5.803895,35.77671,MAR,"Tangier - Morocco",TRUE,1007.037,7897.3692983517,60.3686019577755,7952943086.1042,60793415.8097524,MAPTM,Tanger Med,AI,29213.26830742,8,904.072106288662,1007.037,317447.767238584,383242.588555835,2.00758641392268,1021.30270783024,1007.037,377848.022025507,443503.846094071,1.90537646826607,0,2267.48927736116,0,64.2020501858405,0,2598.97749368882,0,58.6197612935817,0,1536.67184865767,0,83.2130871981198,1007.037,54157.1990673908,60793.4158097524,7.74119950711971
-5.003295,34.043295,MAR,"Fès - Morocco",TRUE,1380.105,4852.60936283408,54.7499901257426,6697110444.69412,75560735.122488,,,,0,8,917.859208199053,1380.105,444558.560562967,513783.850768392,1.99460660883711,985.262336159583,1380.105,491919.935738397,594502.792020242,1.93494055493216,0,2056.59486127344,0,84.5936431100915,0,6583.0694468582,0,38.9479498187532,1380.105,63195.9870203065,75560.735122488,8.622712223318,0,2094.41550365996,0,83.5721670621904
-4.31988,35.1186104,MAR,"Niangoloko - Burkina Faso",FALSE,87.889,5072.45692357448,40.7110698682004,445813166.556038,3578055.21964627,,,,0,8,392.589930670649,87.889,8414.75539071532,42599.8987430062,2.87031935982473,650.598969839244,87.889,17315.4280250565,45802.2229166417,2.31160009258115,87.889,821.435752729091,3578.05521964626,33.7381558240675,0,825.846928774698,0,33.6179093656404,0,362.447732917882,0,58.2112353001906,0,970.80600283075,0,30.1820526013598
-5.466706,12.38318,MLI,"Koutiala - Mali",TRUE,173.39,2285.3071,34.2337289247921,396249398.069,5935786.2582697,,,,0,9,798.588009292067,173.39,45780.3449076858,52011.5085376539,2.11721912996748,849.540583965376,173.39,50009.4883447667,56740.9809574956,2.06183452105262,173.39,4153.33807621015,5935.7862582697,11.7829357992631,0,1039.78657767211,0,29.663488797326,0,410.16997597096,0,55.149611141256,0,110.000616629017,0,132.613667668143
-4.88414,13.22997,MLI,"Techiman - Ghana",FALSE,62.939,2285.3071,27.7750123769379,143834943.5669,1748131.5039921,,,,0,9,679.303645593878,62.939,13188.7938831212,15158.4130951867,2.26922066097506,731.957545765585,62.939,14673.1091509056,16735.0801869851,2.19776687297264,62.939,1318.37903072451,1748.13150399209,11.9593239455885,0,231.863091070785,0,38.0988974057179,0,137.568197820568,0,53.9578690259131,0,36.1908258222006,0,131.421925665537
-5.1606898,9.9698601,CIV,"",FALSE,0,3219.81194498956,23.6325528252283,0,0,,,,0,12,1151.25913954539,1e-06,0.000445229592388098,2663.75807474404,2.44142024069831,1229.54466999458,1e-06,0.000489102690168819,1848.3020265448,2.27119843108903,1e-06,57.7186397159976,2.36325528252283e-05,22.9030320250209,0,86.2943838367366,0,17.5165544624088,0,11.5432771606878,0,66.970615644016,0,5.16519135605678,0,114.475556852463
-5.31213,8.7883997,CIV,"",FALSE,0,3289.988,26.5663110545579,0,0,,,,0,12,1076.98834265546,1e-06,0.000404771205414081,3964.21995600487,2.54470902763818,1156.30359091872,1e-06,0.00044801914189492,3748.16900243579,2.3562313660044,1e-06,86.0850150536414,2.65663110545579e-05,29.1616663520245,0,222.809569447599,0,15.4694479242145,0,19.7799893341509,0,77.7344163579144,0,13.0001985443585,0,102.832577450073
-5.199932,9.583411,CIV,"Ferkessédougou - Côte d’Ivoire",TRUE,160.267,3267.52578171889,28.1654532445121,523676554.458741,4513992.69513822,,,,0,12,665.435961781617,160.267,32608.6386090728,41604.5264896696,2.28936868645176,741.985563987172,160.267,38096.8134141227,46076.2813102693,2.18498752583315,160.267,2087.32852236113,4513.99269513822,17.1938600222617,0,1502.90366200228,0,21.4032540773209,0,279.024703409885,0,65.7666107552177,0,131.192441425051,0,108.766384091561
-4.93154,12.8220196,MLI,"Siliana - Tunisia",FALSE,24.889,2270.88540033439,28.0674148072147,56520066.7289225,698569.887136766,,,,0,9,766.843778976714,24.889,6201.50230616251,6583.865792173,2.15434618229777,809.368508252143,24.889,6698.56493868178,7361.27220306198,2.10508685522983,24.889,565.799566712533,698.569887136767,11.6447507388601,0,119.419650844656,0,32.8489435034232,0,55.1034198515904,0,55.0114259636249,0,14.7453349586758,0,132.475482590499
-4.805582,12.183353,MLI,"Kouri - Mali",TRUE,137.964,2215.83852651061,27.169998873553,305705946.47151,3748481.72459086,,,,0,9,709.783918969826,137.964,30781.0017188352,35410.8153323512,2.22693341424247,744.351111431448,137.964,32944.669649636,39656.4920678631,2.18200881868848,137.964,2422.37457038769,3748.48172459087,14.068198851623,0,901.181847462061,0,27.1972133500283,0,297.412022907127,0,56.9499942234693,0,81.5804859065753,0,134.898930541451
-4.8452396,10.9798899,BFA,"Tiko - Cameroon",FALSE,33.422,1561.522,23.9344297130372,52189188.284,799936.50986913,,,,0,13,594.95029346664,33.422,5795.03247921152,7968.58224509432,2.40190197339213,677.241977840667,33.422,6973.19571790018,8781.26921674518,2.27217873238902,33.422,262.618378698425,799.936509869129,23.5829035613322,0,445.280286141493,0,16.5853652049548,0,54.052357329296,0,67.6504868194365,0,22.1854839001467,0,122.49022019691
-5.016623,7.683365,CIV,"Bouaké - Côte d’Ivoire",TRUE,659.233,3289.988,40.2539059826232,2168868659.204,26536703.2026426,,,,0,12,795.243884695693,659.233,173017.66929283,184780.823503228,2.12103027342094,861.546560366472,659.233,193987.571869431,210050.91300281,2.04947105633381,0,2289.81529492601,0,41.6860986079159,659.233,23398.1662557327,26536.7032026426,8.85258785071342,0,725.580262270189,0,89.6880474327207,0,653.007670846963,0,96.2157167202289
-3.2846298,9.6600199,CIV,"",FALSE,0,3217.02361233922,19.5825015048918,0,0,,,,0,12,860.829739770823,1e-06,0.000293912835737488,4486.56465754005,2.93174581812591,948.674216261627,1e-06,0.000337678982926984,4460.55518446475,2.65687659271813,1e-06,157.643280892453,1.95825015048918e-05,24.6706363844768,0,96.0115486938879,0,34.335892735886,0,63.8618649022864,0,45.0612181524381,0,15.3092786148662,0,116.768985685533
-4.758877,10.630955,BFA,"Banfora - Burkina Faso",TRUE,126.236,1561.522,24.6889188876878,197120291.192,3116630.36470615,,,,0,13,646.406283641903,126.236,24641.7069084021,29607.3160683619,2.31801394381608,714.185872363256,126.236,28414.240539592,32824.9375418173,2.22104043499913,126.236,1311.33225708289,3116.63036470616,19.0057015155214,0,1214.83991057782,0,19.9992190758656,0,216.905435476273,0,63.0732848625745,0,84.8586222368273,0,117.913018068963
-4.1257401,6.7047696,CIV,"Cidade de Nacala - Mozambique",FALSE,74.281,3289.988,36.3507584903294,244383598.628,2700170.69142016,,,,0,12,640.940156382514,74.281,14325.065231314,21463.6714590269,2.32646570640943,658.580377421438,74.281,14891.5988682871,23603.3964540988,2.29955200210099,74.281,1646.98215016913,2700.17069142016,13.567514705327,0,305.484217448603,0,41.7157819318666,0,133.264213859732,0,72.5243557603608,0,127.494979687221,0,74.6960295937777
-3.98735,7.06142,CIV,"Ilesa - Nigeria",FALSE,101.136,3289.988,30.9159129234854,332736226.368,3126711.76942962,,,,0,12,607.320615458181,101.136,18059.1307196432,29756.3558347173,2.38081140338044,682.944330980255,101.136,21355.3770092764,37373.0941418176,2.26402835542481,101.136,2022.80139874799,3126.71176942962,15.8228864957462,0,671.104459575569,0,33.0162564241188,0,249.687815881717,0,63.8248317057938,0,188.606676697491,0,76.9514018962004
-4.016502,34.216732,MAR,"Taza - Morocco",TRUE,215.147,4756.2676,43.2527353559962,1023296705.3372,9305696.25363651,,,,0,8,699.492996427372,215.147,47010.0967328114,73126.0205548085,2.24091586317231,785.841007290826,215.147,55514.6124377768,97201.3744451376,2.13186995848637,0,711.201086152754,0,56.5649455589606,215.147,8385.40640824268,9305.69625363651,10.9192523341444,0,674.850930291082,0,58.5783426878191,0,505.324193276574,0,71.0387951088756
-4.1851397,14.0335598,MLI,"Rubengera - Rwanda",FALSE,35.513,2285.3071,26.5762081399309,81158111.0423,943800.879673367,,,,0,9,705.742822151329,35.513,7858.90293294751,8596.81571260093,2.23238922820188,757.69436344429,35.513,8698.21034397089,9475.11123225628,2.16545694433346,35.513,911.231970049933,943.800879673366,10.316201077044,0,93.1763160118728,0,47.1775526159204,0,79.7944092576586,0,52.3147461207583,0,18.1297355549496,0,140.500580621089
-3.4726,12.4589195,BFA,"Al Marj - Libya",FALSE,63.617,1561.522,23.9784948796488,99339345.074,1525439.90875862,,,,0,13,546.079567397594,63.617,9759.29400306809,14785.2758177564,2.49177452259729,618.720355036166,63.617,11665.4619153032,16652.328695884,2.36191187501437,63.617,886.440554632943,1525.43990875862,16.6909322827752,0,332.19464826961,0,32.1108586029601,0,179.508533412868,0,48.4012903880507,0,38.0475882410423,0,136.153533791769
-4.283237,11.183756,BFA,"Bobo-Dioulasso - Burkina Faso",TRUE,903.887,1563.71297280047,35.5323045529694,1413419827.8457,32117188.1654698,,,,0,13,799.496917498503,903.887,239042.367017836,257170.420602365,2.11618729363698,866.736194942146,903.887,268271.834953361,288664.104063258,2.04420305192596,0,4761.56138646129,0,31.5466292941799,903.887,24672.9939147613,32117.1881654699,10.5350835599669,0,1676.9344082291,0,63.2569873011375,0,566.230166655939,0,130.453945770672
-3.4547899,10.1577702,BFA,"",FALSE,0,1561.522,18.5995770061625,0,0,,,,0,13,939.615480021945,1e-06,0.000333082080052062,907.707976771355,2.77266668337214,992.943385788279,1e-06,0.000360412879746181,1088.25966155341,2.58376481972654,1e-06,38.6216486719932,1.85995770061625e-05,23.9251201470922,0,31.7573085103562,0,27.2591436608551,0,11.5612690457671,0,53.4651755851512,0,3.22735186025117,0,125.172942554997
-3.932213,35.247186,MAR,"Al Hoceïma - Morocco",TRUE,157.146,5081.60594467335,48.3370623895879,798554047.781638,7595976.00627419,,,,0,8,609.973374438954,157.146,28235.6947330643,74267.3288595311,2.37636840071911,769.38743396867,157.146,39341.1771185161,76745.2737210763,2.15129074954371,157.146,2107.88788729914,7595.97600627418,23.6320754172473,0,2106.03836637727,0,23.6459091616655,0,402.179872594721,0,71.3049995221794,0,850.613739713243,0,43.2758168125404
-3.8383498,11.7186594,BFA,"",FALSE,0,1561.522,21.1535394343159,0,0,,,,0,13,1061.44102038939,1e-06,0.000396449604053125,2488.64528197049,2.56791377622883,1110.94519461651,1e-06,0.000423125388480488,3572.78152628663,2.41364562163229,1e-06,120.35459254444,2.11535394343159e-05,23.140320397257,0,133.755337463829,0,21.5676949049748,0,32.9794732036991,0,54.850678448713,0,8.35560134433042,0,136.991201184053
-3.516123,11.495237,BFA,"Houndé - Burkina Faso",TRUE,102.324,1561.522,23.1279888600729,159781177.128,2366548.3321181,,,,0,13,626.90773356765,102.324,19118.8734029494,24774.3966591104,2.34864228585433,703.485408299205,102.324,22540.5439526432,26962.0031823184,2.23545664142832,102.324,1120.30474363688,2366.5483321181,18.6341779257258,0,826.94549640122,0,22.8147876079593,0,252.274304871355,0,50.3445359916657,0,59.0950593666102,0,132.485059748732
-3.2551699,10.9504795,BFA,"Abū Za‘bal - Egypt",FALSE,25.688,1559.68196236009,20.0266158993534,40065110.249106,514443.709222591,,,,0,13,553.618333355714,25.688,4018.66671590844,7424.91024308065,2.47717563830515,640.786362244055,25.688,4952.22388809415,8765.82227294039,2.32670500011898,25.688,342.330740328128,514.44370922259,20.2133904029798,0,272.263749635196,0,23.5474138269181,0,83.1487246917805,0,51.9237482541664,0,21.4248118981198,0,128.230623129666
-4.031478,6.172398,CIV,"Adzopé - Côte d’Ivoire",TRUE,156.488,3289.988,28.5378806552521,514843642.144,4465835.86797909,,,,0,12,452.542185176147,156.488,18355.2083033069,32003.4987071446,2.70071546482009,475.254966463456,156.488,19685.2799388837,35664.2609131901,2.6446253155427,156.488,2208.59819965322,4465.83586797909,16.8956600559002,0,336.237073729472,0,59.2592162594465,0,236.763566119802,0,74.870325294383,0,308.008661096225,0,62.8267144859839
-4.183454,14.484661,MLI,"Mopti - Mali",TRUE,175.604,2287.68401478936,27.9093141499409,401726463.733071,4900987.20198623,,,,0,9,718.038583815025,175.604,39831.3592948821,40112.5373475309,2.21592516381344,773.557301645135,175.604,44302.8691907458,44658.8696699566,2.14631312210572,175.604,4657.04735091777,4900.98720198622,9.68778434368732,0,376.036898584799,0,51.8574619487387,0,377.90602052552,0,51.6863294604676,0,81.2731683602877,0,143.990366949497
-3.5236499,14.0762997,MLI,"Kamsar - Guinea",FALSE,105,2285.3071,24.7752788915821,239957245.5,2601404.28361612,,,,0,9,692.639606260358,105,22622.2870034112,22814.1646717457,2.25039180526406,742.04632315087,105,24962.3026776271,25170.3898752266,2.18491080065805,105,2466.70849271283,2601.40428361612,10.2789428894221,0,221.509160793067,0,51.2584983839521,0,231.660579972015,0,49.749904068269,0,46.7596558313864,0,144.58152573958
-0.04122,16.2347698,MLI,"Catabola - Angola",FALSE,49.483,2285.3071,23.3834754351307,113083851.2293,1157084.51495657,,,,0,9,467.443222257903,49.483,6079.02612404898,9483.61723188987,2.66347677864349,529.631440665721,49.483,7266.52398787977,10115.4744400052,2.5246495949797,49.483,706.980121648064,1157.08451495657,14.8794591480092,0,94.1703761282607,0,57.0491367764805,0,142.124465980762,0,43.3590125886653,0,25.6800317210242,0,135.663050173201
-3.7660499,6.5562596,CIV,"",FALSE,0,3330.13071312614,26.749789223801,0,0,,,,0,12,754.062409740998,1e-06,0.000243254818476886,2898.04340449938,3.19322890731733,869.791678812208,1e-06,0.00029829381412221,3541.74247225768,2.80274750643897,1e-06,158.705246672277,2.6749789223801e-05,22.2160973691022,0,46.4951727511497,0,50.3643675448267,0,31.0112401825419,0,65.9754770291243,0,29.5407406556654,0,68.1471517308535
-3.199681,5.466835,CIV,"Aboisso - Côte d’Ivoire",TRUE,115.831,3283.31415970208,30.802133925745,380309562.432452,3567841.97475296,,,,0,12,160.218371411327,115.831,3082.43147540837,46670.7199206741,4.21445797623648,194.049732465306,115.831,4052.76688779053,54357.2084894425,3.88225689356326,115.831,1578.26325980392,3567.84197475297,41.0963010357695,0,403.588958582441,0,102.006892260732,0,421.661512683529,0,99.0709648289279,0,1461.81060170155,0,43.2508814426986
-2.884658,34.416684,MAR,"Taourirt - Morocco",TRUE,321.876,5909.4069394727,41.5215982796711,1902096268.04972,13364805.9678674,,,,0,8,763.699950564583,321.876,79731.3819229655,82151.2457593458,2.15814237131536,904.277126100632,321.876,101497.682051183,113714.989944685,2.00739138960533,0,786.056859479036,0,55.3190305537986,321.876,13364.8054335162,13364.8059678674,8.36633867968794,0,359.082039530884,0,93.2641521287791,0,588.418351400852,0,67.0995687966328
-3.3598599,7.0014696,CIV,"",FALSE,0,3315.53558628181,33.597304142047,0,0,,,,0,12,778.980040981686,1e-06,0.000254818823946342,10910.2047542786,3.12656621158924,897.383676475221,1e-06,0.000311903208868602,18127.3240381913,2.74921892872545,1e-06,625.751180964454,3.3597304142047e-05,25.9316810050445,0,267.664968598261,0,45.6776866735593,0,295.712104945645,0,42.7417588534932,0,97.8993896646703,0,89.3124087986575
-2.933289,35.166696,MAR,"Nador - Morocco",TRUE,398.424,7606.25038889618,51.3612061101847,3030512704.94557,20463537.1832442,,,,0,8,810.633626443553,398.424,107470.392152234,117795.184619352,2.10367809342181,997.227805046331,398.424,144483.105596551,155504.292863057,1.9249561574891,0,1115.75101339731,0,51.7452994308806,398.424,18765.1924761777,20463.5371832442,7.88279832090389,0,418.96201371954,0,99.4182235671287,0,816.580269209197,0,63.7161965054697
-3.483656,6.733739,CIV,"Abengourou - Côte d’Ivoire",TRUE,164.424,3393.50643563291,31.3151713379485,557973902.172505,5148965.73207084,,,,0,12,585.692240861012,164.424,27877.7901884419,37023.5667335299,2.41810054791248,598.246760693398,164.424,28735.3672866608,41019.4891297086,2.39622092554896,164.424,2971.8608105357,5148.96573207084,13.7880034255817,0,332.471934758059,0,59.385947592953,0,358.74377563046,0,56.4500201918505,0,224.449418239503,0,77.1687315389944
-2.416466,13.583359,BFA,"Ouahigouya - Burkina Faso",TRUE,124.58,1563.41905949248,24.9678181813964,194770746.431573,3110490.78903837,,,,0,13,674.318831214574,124.58,25832.3584837159,28729.3599596617,2.27639476500745,709.297010545481,124.58,27767.6768518091,31147.1940506182,2.2275884104275,124.58,2357.46888879528,3110.49078903836,12.449452577885,0,316.275977944275,0,47.5047201426781,0,407.018957570573,0,40.1517498515311,0,60.7064089237969,0,142.765917370885
-3.0625598,11.1466293,BFA,"Hohoe - Ghana",FALSE,25.922,1561.522,20.2432159885365,40477773.284,524744.644854843,,,,0,13,639.890956897864,25.922,4987.36244707148,5509.39483409576,2.32809977515573,696.754785102342,25.922,5632.3665787464,6083.45674075293,2.24468598393748,25.922,285.182960544525,524.744644854843,17.2652747912591,0,154.983124710174,0,25.9258459183788,0,59.6916708698407,0,48.9756325733697,0,13.7064152403043,0,130.60905550353
-2.7472,11.7775002,BFA,"Sébékoro - Mali",FALSE,40.627,1561.522,21.1605772475616,63439954.294,859690.771836685,,,,0,13,574.620254149226,40.627,6702.96756094942,8670.2256935045,2.43796016299688,648.150703638365,40.627,7961.1234083535,9517.07818975729,2.31533819270765,40.627,402.60331683681,859.690771836685,19.0706411792621,0,234.915883916839,0,27.311272701921,0,116.38415452856,0,43.6201970759847,0,20.9137639871291,0,136.981544775695
-3.03983,6.1229501,GHA,"",FALSE,0,3802.82235998441,26.9757504642009,0,0,,,,0,14,508.067469836176,1e-06,0.000138382633427136,6397.77249381553,4.15199268619419,680.258625714471,1e-06,0.000209969798442025,10278.7337772878,3.2693678560449,1e-06,423.021178005653,2.69757504642009e-05,27.4272412378446,0,97.3702531769325,0,73.025185299222,0,103.55190889283,0,70.0892577904382,0,120.513911939734,0,63.3478788763234
-2.75492,6.4242897,GHA,"",FALSE,0,3953.2102,29.0369393929079,0,0,,,,0,14,694.442158702259,1e-06,0.000216251793788458,7141.38902031668,3.36973699831287,737.793511598231,1e-06,0.00023579216274565,8268.85912055269,3.10588390526904,1e-06,314.557816129537,2.90369393929079e-05,27.4588256204269,0,72.4824261889684,0,73.0567697381523,0,126.756947143716,0,50.3308694652643,0,75.5755187602514,0,71.0495811903945
-2.366508,12.250045,BFA,"Koudougou - Burkina Faso",TRUE,252.816,1560.77676867213,26.6972220059627,394589339.548613,6749484.87865947,,,,0,13,563.401124417413,252.816,40553.0709170524,58625.1915806874,2.45864912520819,585.381404123466,252.816,42831.9982996879,57967.5748454512,2.41865086141615,0,1465.93842786661,0,28.0728248416742,252.816,2022.35433803265,6749.48487865947,22.6529674876265,0,916.690453431464,0,38.3897069186844,0,123.619854172593,0,145.983728345751
-2.883702,7.283584,GHA,"Domaa-Ahenkro - Ghana",TRUE,1000,3838.14915389001,37.1443756204362,3838149153.89001,37144375.6204362,,,,0,14,727.225898252203,1000,230982.277412494,256043.845503603,2.20388390925103,807.200315756399,1000,268108.18221208,302485.649670553,2.10750839605497,0,2842.29936503394,0,47.3288481558115,0,1684.68657300725,0,67.074854054617,1000,30466.5376805528,37144.3756204362,9.73547433535249,0,950.15149872456,0,98.260108775078
-2.800007,8.033291,CIV,"Bondoukou - Côte d’Ivoire",TRUE,141.568,3415.9826182662,35.1347520530404,483593827.30271,4973956.57864482,,,,0,12,754.731887009224,141.568,34480.7838778582,41034.3304731466,2.16909567033285,800.79703084938,141.568,37526.1425053315,45393.3837665067,2.1147141189624,141.568,2579.92402910091,4973.95657864482,14.3056881128733,0,424.470809644199,0,47.6447244250067,0,804.265303459944,0,31.1157652268183,0,135.961344798836,0,101.773897200457
-3.0037599,9.2666302,CIV,"Birkat as Sab‘ - Egypt",FALSE,94.883,3281.84616266209,23.3886063445532,311391409.451867,2219181.13579024,,,,0,12,665.839294944814,94.883,19322.0366908556,21969.2601668803,2.28877427516136,698.301239472899,94.883,20681.7040122048,24236.3016924532,2.2425541562681,94.883,1272.26350987716,2219.18113579024,15.9956707091402,0,307.666802966102,0,41.2097597961718,0,370.829918094243,0,36.3862526997457,0,72.4232922713072,0,108.094019649227
-2.500115,10.066876,GHA,"Wa - Ghana",TRUE,107.214,3936.48868750266,37.1891567694194,422046698.141911,3987198.25387653,,,,0,14,644.333702183251,107.214,20832.7500274199,37176.561936001,2.3212065173501,688.367876207035,107.214,22896.048021351,42256.511928712,2.25636631452411,107.214,2212.69098958439,3987.19825387653,16.1209832592901,0,538.927080536253,0,41.3350721002666,0,719.146419137696,0,34.1030971117803,0,104.014677262565,0,123.768165443312
-2.7890699,11.0427799,BFA,"",FALSE,0,2197.95807905528,23.1288106598402,0,0,,,,0,13,973.10493088603,1e-06,0.000350170164090719,2548.66870189674,2.71192136057772,1044.82254118256,1e-06,0.000387612265809181,3131.96334812586,2.50492847489602,1e-06,123.848275234257,2.31288106598402e-05,21.5814092856756,0,74.6610895546409,0,30.2419804168006,0,40.7789559248491,0,45.260120841144,0,7.92264351327601,0,134.925189169698
-2.75752,5.2915597,GHA,"Kolda - Senegal",FALSE,27.938,3680.15963132643,31.4353166300399,102816299.779998,878239.876010055,,,,0,14,202.520094719876,27.938,1039.0330914291,5526.19454894433,3.8118173819193,236.485131099718,27.938,1296.65148631032,7417.88355258181,3.56676036560158,27.938,228.538427079134,878.239876010055,36.2928535846133,0,67.4276863756366,0,81.8907976093677,0,71.2233710685681,0,78.9548700262442,0,138.460387205062,0,50.6885940262221
-2.49212,9.0273695,GHA,"Mesra - Algeria",FALSE,10.555,3903.89231157778,29.1246396378985,41205583.3487034,307410.571378019,,,,0,14,470.342106760902,10.555,1308.1933287515,8158.22361720404,2.65642894314934,560.570004388871,10.555,1680.93888275425,8768.9026571563,2.46396316707055,10.555,314.723348726731,307.410571378019,22.6453168589827,0,102.434349688388,0,47.8594056484123,0,228.3497316748,0,28.0455550909089,0,27.7621625252035,0,114.277882041619
-1.911082,34.686468,MAR,"Oujda-Angad - Morocco",TRUE,619.82,7265.94785567517,64.1855171619656,4503579799.90458,39783467.2473295,,,,0,8,919.267902672679,619.82,200093.924146283,200173.16327161,1.99329608828483,1141.85993966072,619.82,272749.228215659,322389.792082466,1.8164060196564,0,2894.14627278766,0,42.0520141837111,619.82,36308.80081104,39783.4672473295,7.78859612197413,0,638.114409183651,0,115.221825744146,0,1998.1736257579,0,53.8325524191527
-2.63341,7.4203897,GHA,"Béchar - Algeria",FALSE,96.471,3953.2102,36.4293790503192,381370141.2042,3514378.62636334,,,,0,14,619.150084762151,96.471,17707.4611032809,35953.796180049,2.36120913456117,683.511408624031,96.471,20394.5063716245,36087.924816399,2.26322322249671,96.471,1054.05681381695,3514.37862636334,23.8630517528913,0,426.665905016708,0,43.6090577853483,0,1145.03987883046,0,22.5816110480711,0,116.142899371288,0,103.826182897732
-2.42713,6.64852,GHA,"",FALSE,0,3953.2102,30.0019266172557,0,0,,,,0,14,753.027596162509,1e-06,0.00024277806872639,19483.2168788359,3.19608567697511,816.970146110749,1e-06,0.000272755903399481,26904.7637084788,2.91389719657259,1e-06,471.139476173938,3.00019266172557e-05,43.2109701716644,0,277.045837107918,0,61.563872202172,0,1053.19229732888,0,25.2748486818587,0,165.48094054619,0,86.8017258530571
-1.9408599,7.58079,GHA,"Nnewi - Nigeria",FALSE,104.212,3953.2102,38.4258396252504,411971941.3624,4004433.5990266,,,,0,14,443.718689165985,104.212,11884.4693892239,47566.8618312106,2.7236022662184,517.828420220569,104.212,14818.5510514985,49348.9954739973,2.54915306071278,104.212,1351.88228865208,4004.43359902659,28.0514644061826,0,635.380544278234,0,46.404366588321,0,1450.10368053472,0,26.7700236478895,0,185.852953086058,0,105.309725294093
-2.3793299,11.9639797,BFA,"Gīnīr - Ethiopia",FALSE,8.983,1555.86958355345,20.7091832742223,13976376.4690606,186030.593352339,,,,0,13,432.056456616159,8.983,986.186067690184,4471.9211427388,2.75486977038608,542.459480863376,8.983,1365.02313464342,4488.28883331833,2.4988876710304,8.983,153.6410875572,186.030593352339,23.7025834166995,0,102.503921499025,0,31.0437095826979,0,77.7535376126388,0,37.3239123321305,0,10.520683981835,0,141.613486979317
-2.3323998,7.3266597,GHA,"Matola - Mozambique",FALSE,225.038,3934.99061586051,37.6600902235125,885522418.212017,8474951.38371881,,,,0,14,509.956095297802,225.038,31306.8554140523,64187.7345061861,2.56594435271336,539.950433730971,225.038,33970.2053512327,61716.1435964353,2.50385757736303,0,1308.77969073627,0,32.6811836633367,225.038,1307.08086359341,8474.95138371881,32.7094949231977,0,1389.70966496009,0,31.3997428329281,0,272.962509038443,0,92.926620095256
-1.527486,12.368619,BFA,"Ouagadougou - Burkina Faso",TRUE,2497.171,1561.522,38.4954008979503,3899387454.262,96129598.7557355,,,,0,13,729.718670453854,2497.171,579628.821748852,617327.158093701,2.20065419434968,796.929138922854,2497.171,657375.001072423,703479.776149336,2.11910676716799,0,6575.87524512137,0,47.7549299448851,0,3870.97812912714,0,67.9892281711833,2497.171,85855.5416185599,96129.5987557354,8.61274696223652,0,1120.19984626032,0,155.402112038002
-0.85435,10.77911,GHA,"Calabar - Nigeria",FALSE,93.991,3844.83852701892,32.5092252880077,361380217.993035,3055574.59404513,,,,0,14,533.029816934255,93.991,13929.1677130485,27808.9350545461,2.51773860064178,608.39993967496,93.991,16825.9256596481,30854.4107557834,2.37900035613074,93.991,1267.95376490594,3055.57459404513,19.9773126439726,0,346.282851470819,0,47.4590115076626,0,788.009488386751,0,27.4316362829373,0,78.5250034783291,0,127.624494707117
-2.02933,8.1420498,GHA,"",FALSE,0,3909.39329504001,30.4736731110018,0,0,,,,0,14,1043.2048577806,1e-06,0.000386755215506034,260.628542244047,2.5958363111698,1110.1918630085,1e-06,0.000422715560617974,570.175433846434,2.41464373243788,1e-06,17.4606315481404,3.04736731110018e-05,24.6690312717754,0,6.07236240951087,0,49.883120017459,0,18.4993921329778,0,23.7367044215451,0,1.8551649752979,0,109.969026397057
-0.852935,9.408997,GHA,"Tamale - Ghana",TRUE,1146.388,3953.2102,39.9885546755501,4531912734.7576,45842399.2173945,,,,0,14,783.82001597416,1146.388,294717.566861545,320018.542203243,2.13422410792772,846.815211138737,1146.388,329129.229408744,357546.876360408,2.06467580002157,0,3823.7812610382,0,42.5348756287637,0,1902.20273090308,0,67.7489643228601,1146.388,39308.2633561927,45842.3992173945,8.99672861074729,0,716.168936315434,0,129.936213901278
-2.0349898,7.0902801,GHA,"El Wak - Kenya",FALSE,45.153,3953.2102,34.7409805927437,178499300.1606,1568659.49670415,,,,0,14,384.050823520369,45.153,4189.3830876733,25495.4783119401,2.89749882395116,442.779700341919,45.153,5133.74582578693,29573.4583787291,2.72607619476968,45.153,601.436412235861,1568.65949670416,36.5886389832415,0,326.857040993553,0,54.9415410750119,0,1133.89429388224,0,23.9749487294763,0,137.958917986481,0,97.6426476614915
-1.89963,5.9580197,GHA,"",FALSE,0,3910.51913372888,33.3768235924992,0,0,,,,0,14,618.913502996641,1e-06,0.000183451980036133,11997.9236927375,3.63604035299227,654.881959942244,1e-06,0.000198870170098778,32499.2753433853,3.34933667702388,1e-06,472.60169904717,3.33768235924992e-05,56.2183037553468,0,309.353573425171,0,74.571205778903,0,841.040395699469,0,38.2821822450004,0,496.889188314327,0,54.3711132410053
-1.625058,6.70004,GHA,"Kumasi - Ghana",TRUE,6898.949,3953.2102,55.7015155157662,27272995556.0798,384281914.76598,,,,0,14,811.137452635022,6898.949,1862566.38964053,1960731.2326401,2.10311808230682,879.504683165862,6898.949,2090821.94634947,2205982.00755892,2.03143108421283,0,9402.90947204434,0,77.2731390963251,0,6830.31639894435,0,95.6260412170534,6898.949,366786.578543035,384281.91476598,6.71832677997808,0,6346.64184897651,0,100.424743405929
-2.26566,12.9614601,BFA,"Zomba - Malawi",FALSE,78.833,1627.34871682273,19.3775853082574,128288781.393286,1527593.18260586,,,,0,13,482.063521951442,78.833,10120.3086923786,21418.0554103229,2.6285521541356,571.727862205599,78.833,12913.0728047095,27481.2461195199,2.44323843737473,78.833,1135.83433436877,1527.59318260586,20.4383957818056,0,404.604576669633,0,40.6726939932671,0,615.326638929749,0,30.7552778666791,0,56.69936769871,0,150.754860424212
-1.083295,13.083043,BFA,"Kaya - Burkina Faso",TRUE,141.824,1561.522,20.6131088024861,221461296.128,2923433.54280379,,,,0,13,552.327611869328,141.824,22113.2854575256,26432.7058139111,2.4796549020465,593.773845237811,141.824,24521.3932339741,28390.2500875043,2.40394037759256,141.824,1433.92835826433,2923.43354280379,17.5934712201155,0,276.995550768059,0,52.6487392076803,0,637.592441959371,0,30.2000547855552,0,69.1333944402002,0,132.814222340975
-2.0190399,12.1964092,BFA,"Sakouéba - Mali",FALSE,41.911,1578.17761345313,20.6985723020877,66143001.9574339,867497.863752799,,,,0,13,455.150208161051,41.911,4956.4593900576,19084.8868840314,2.69407231270077,553.278362732694,41.911,6550.86440878258,22707.7411277104,2.47782790628825,41.911,867.497865024167,867.497863752798,21.8444687036022,0,349.04390535795,0,40.0805547010941,0,532.996381176964,0,30.2253210522783,0,47.8988961902468,0,150.650331916386
-1.9836799,4.92097,GHA,"Bocaranga - Central African Republic",FALSE,27.719,3953.2102,37.6841551729159,109579033.5338,1044567.09723805,,,,0,14,251.479849105282,27.719,1404.58309781163,19832.4097891967,3.47401225812643,352.270136404474,27.719,2273.27096162638,16105.119069253,3.00677009681156,27.719,253.414498954145,1044.56709723806,47.8837928160323,0,157.50551630663,0,65.7474636272817,0,183.287341250439,0,59.4275557912469,0,482.71560480839,0,31.1612800709753
-0.78598,32.4087105,DZA,"",FALSE,0,13888.5151898265,38.4111599953153,0,0,,,,0,10,828.695785085996,1e-06,0.000278365562598848,3732.83484102072,3.00419339819888,955.709084701916,1e-06,0.000341261872827321,4219.59055153198,2.64485362074942,1e-06,204.994413971887,3.84111599953153e-05,19.8649356864642,0,117.083660637568,0,28.8569871980931,0,11.4935806688781,0,135.605805947041,0,30.1999620192123,0,71.2160012436605
-0.29448,27.9394188,DZA,"Cuango - Angola",FALSE,77.757,13747.3943974488,41.9438900722357,1068956146.16242,3261431.06034683,,,,0,10,737.507051336443,77.757,18324.3225266415,21157.9515653373,2.19066395498859,829.674899613898,77.757,21681.4141390261,23964.776464313,2.08284946642254,77.757,3261.43104392924,3261.43106034683,7.87229459129469,0,218.045511577692,0,47.7905510007756,0,60.9037700130026,0,111.843484030281,0,66.3189846783774,0,105.669152931601
-1.735029,8.052471,GHA,"Kintampo - Ghana",TRUE,111,3953.2102,31.8375771190788,438806332.2,3533971.06021775,,,,0,14,636.060432766992,111,21173.8714256103,29348.9416090693,2.33409821509436,695.317628930589,111,24047.1912566092,32400.8121938785,2.24667318513624,111,1055.92382220928,3533.97106021775,22.0202430846446,0,303.89212447599,0,50.5162227772558,0,1126.71798241043,0,21.0879168873688,0,95.3259779553651,0,109.421581436415
-1.704435,4.940486,GHA,"Sekondi - Ghana",TRUE,345.041,3953.2102,55.5145875968161,1364019600.6182,19154808.818993,GHTKD,Takoradi,AI,343.8114,14,901.443573143863,345.041,108315.620368619,139689.201210665,2.01009315600004,857.075013184401,345.041,100780.664166194,157530.45907344,2.05404692663953,0,894.266656866456,0,64.5468959737166,0,1471.69404506624,0,46.306472541772,0,1121.32202594924,0,55.5093939634914,345.041,11557.7314312723,19154.808818993,11.7202889907759
-1.66741,7.6862698,GHA,"",FALSE,0,3953.2102,34.7148244506919,0,0,,,,0,14,1052.58960492961,1e-06,0.000391735178139107,517.85230513372,2.58138237451445,1049.19626135005,1e-06,0.000389932314060629,822.618909301915,2.49858665455564,1e-06,24.4476533611147,3.47148244506919e-05,26.0416653660935,0,8.85373215367932,0,51.2557535669153,0,25.8218523259982,0,25.1093388686679,0,3.0050886756463,0,105.338877228224
-1.2003399,5.16293,GHA,"Lubango - Angola",FALSE,242.548,3953.2102,47.126908309488,958843227.5896,11430537.3566497,,,,0,14,446.036753015342,242.548,27867.1472540497,130699.519539031,2.71752699713679,508.574635623836,242.548,33612.3052992081,134602.814922477,2.56892919924895,0,695.987516545129,0,85.9120198843159,242.548,3683.90710191791,11430.5373566497,28.2867108033262,0,2030.07979991683,0,42.0835940905641,0,2912.24230176691,0,33.0854129297239
-0.983493,7.750098,GHA,"Atebubu - Ghana",TRUE,105.938,3953.2102,32.7029046576606,418795182.1676,3464480.31362325,,,,0,14,396.843077623081,105.938,10300.1597521855,33198.8892055937,2.85709470406231,409.392230023222,105.938,10768.6030945339,33236.6088860345,2.81922693232366,105.938,813.785773724129,3464.48031362325,33.4349833282866,0,350.283795997266,0,58.6490715884102,0,1112.62717036088,0,27.1419720635133,0,157.837811648749,0,99.7854314253827
-0.47613,6.2894998,GHA,"Benguela - Angola",FALSE,186.596,3915.11583355947,41.0997756355816,730544954.078863,7669053.73449698,,,,0,14,430.842813971119,186.596,20403.0260665123,94224.724959436,2.7581929574502,520.867756434195,186.596,26755.9998364744,104342.865208807,2.54276754055091,186.596,4280.05950615016,7669.05373449698,21.3787327868985,0,727.637947021081,0,69.6634434699272,0,1190.318014767,0,50.1772081610218,0,1423.76650313805,0,44.5303371821373
-1.26867,12.4855795,BFA,"Kuvango - Angola",FALSE,33.296,1548.55313505811,24.8504324087384,51560625.1848949,827419.997481354,,,,0,13,390.763074278486,33.296,3166.68792550498,13654.1431554832,2.87606271337375,474.266200801219,33.296,4176.00001067332,15201.0478446761,2.64698687430059,33.296,490.953204235359,827.419997481354,26.1000139242744,0,141.988134984659,0,59.6805433685082,0,563.138927045155,0,23.8190135977596,0,39.5845773524343,0,139.846026294394
-0.433167,12.249994,BFA,"Pouytenga - Burkina Faso",TRUE,181.256,1596.38093961074,25.259614458178,289353623.590084,4578456.67823152,,,,0,13,684.360666026977,181.256,38386.5603455374,42475.4042830264,2.26201908888168,742.048964597393,181.256,43091.3346926928,47574.4972098408,2.18490747243312,181.256,3012.30073973783,4578.45667823151,13.7536183806611,0,471.804345297836,0,47.334147871915,0,795.114016067299,0,33.4243457317298,0,106.723581157022,0,127.499630964921
-0.199998,5.549954,GHA,"Accra - Ghana",TRUE,3048.022,3953.2102,68.5172293751128,12049471660.2244,208842022.51439,GHTEM,Tema,QQ,7407.89336449,14,911.087834296095,3048.022,971495.771559798,1031311.8057093,2.00094643097474,991.254557086129,3048.022,1095878.15749342,1157775.73643431,1.92991891828627,0,4774.15647663181,0,75.0511917240556,0,3632.34693779595,0,90.0527840945508,0,2933.08990245002,0,103.849667256045,3048.022,199994.432928863,208842.02251439,6.22219219134133
1.65764,13.7969694,NER,"",FALSE,0,908.340884736449,18.21835659222,0,0,,,,0,15,826.356833787316,1e-06,0.000277243852502714,3684.03230670087,3.00966399653924,901.020457388795,1e-06,0.000313710538939301,3279.67724806297,2.74237506512798,1e-06,88.1251843580042,1.821835659222e-05,30.5689764123965,0,28.0172118376606,0,65.6242441011439,0,151.627049281703,0,21.2893858541637,0,8.4611813724592,0,145.789726484072
0.05265,8.85392,GHA,"Chinde - Mozambique",FALSE,8.6,3953.2102,29.5972745903776,33997607.72,254536.561477247,,,,0,14,335.072964911471,8.6,656.62897279174,6095.90717241448,3.0719619349793,437.747788566217,8.6,961.95585999575,8158.54282956024,2.73946218327217,8.6,310.791372383954,254.536561477247,24.1969747753377,0,106.506046981879,0,49.4110630489186,0,133.893028047459,0,42.4197787697421,0,42.9335127005353,0,90.5474227147092
-0.233454,11.049927,GHA,"Bawku - Ghana",TRUE,100.737,3443.348943435,35.8736219329596,346872642.514812,3613801.05266056,,,,0,14,860.706622326624,100.737,29601.8481253173,32860.1031528089,2.05032813019111,874.576518306815,100.737,30285.6517104004,34813.2975697861,2.03632898272862,100.737,2325.50294422914,3613.80105266055,12.3689676774865,0,402.127422296391,0,39.8506666401812,0,468.986965228802,0,35.9669989946379,0,76.9409494351012,0,120.016149823295
-0.82513,9.98067,GHA,"Aioun - Mauritania",FALSE,12.666,3608.44598300667,29.1684758976839,45704576.8207625,369447.915720064,,,,0,14,460.033670447908,12.666,1520.9126104611,6452.87580517648,2.68177835560917,535.963749935138,12.666,1891.83811824452,7694.79229856473,2.51182264060315,12.666,206.946963143845,369.447915720064,27.9821362204974,0,74.159282078079,0,55.4638348545519,0,312.606177934287,0,21.2547108171672,0,22.8874347144026,0,121.447569204916
-0.01374,9.4424696,GHA,"Luuq - Somalia",FALSE,52.008,3953.2102,30.0437969546538,205598556.0816,1562517.79201763,,,,0,14,529.20816555263,52.008,7628.59944323217,24093.5231563293,2.52551475084451,625.569608448926,52.008,9687.8910823253,30062.7947196553,2.35079407346639,52.008,1427.85085703298,1562.51779201763,17.9244397305568,0,382.431141626642,0,43.1385279908109,0,498.584131435158,0,36.1472437064035,0,100.241884379361,0,105.325777526126
-0.22433,9.9239798,GHA,"Diallassagou - Mali",FALSE,10,3953.2102,25.3205514237845,39532102,253205.514237845,,,,0,14,597.190876132618,10,1743.23346719185,4053.34974487349,2.39803567992359,615.469313039748,10,1819.95304739477,5178.35895501879,2.36725074850157,10,218.456486018723,253.205514237845,19.5342046916633,0,58.5047819929062,0,47.0159035664299,0,117.066858881202,0,29.6084986654853,0,15.7015660508812,0,112.999637686277
-0.23763,32.7311096,DZA,"",FALSE,0,13822.566,39.9593271920494,0,0,,,,0,10,968.162463106055,1e-06,0.000347632162539554,2591.10410958902,2.72066767967319,1112.10617692757,1e-06,0.000423757219927156,2580.10773187714,2.41213145597217,1e-06,121.863953666185,3.99593271920494e-05,18.4604672343125,0,95.5733807636792,0,21.7070879518867,0,5.65724190499525,0,142.918912114769,0,13.8897141510685,0,78.5291074796678
0.062,34.1462479,DZA,"Magu - Tanzania",FALSE,18.568,13822.566,39.034247987274,256657405.488,724787.916627704,,,,0,10,859.293896183843,18.568,5443.4692304259,8508.72099343468,2.05177195198583,631.466707518868,18.568,3505.46301091245,11280.113203309,2.34136023380946,18.568,320.138864706182,724.787916627704,25.1643051477137,0,514.083565742386,0,18.350788476119,0,28.6468992216215,0,125.784018087485,0,92.0681409234385,0,57.7569557593161
-0.633443,35.696881,DZA,"Oran - Algeria",TRUE,725.418,13680.5691624158,63.5150657543658,9924131120.66136,46074971.9694005,DZORN,Oran,AI,255.6159,10,870.313393587169,725.418,216573.144108725,248642.667586951,2.04059785983159,1033.6403776583,725.418,276891.757932571,347098.641793077,1.89559609828646,0,2931.73317490306,0,45.7051130208411,0,2960.58286256944,0,45.4077100701093,0,479.415502579316,0,152.840939678509,725.418,38545.4569357446,46074.9719694005,8.20475500788688
-0.34739,35.5365906,DZA,"Kouribga - Morocco",FALSE,90.859,13775.9879587745,55.3395627750259,1251672489.94629,5028097.33417608,,,,0,10,609.86056289984,90.859,16321.0593959226,53831.4920069724,2.37655673468324,812.867594646211,90.859,24604.7364255227,56197.692134913,2.10119852034128,90.859,2050.45475038339,5028.09733417608,19.1005532611485,0,1681.41388471627,0,21.8019992540666,0,111.640105358656,0,132.963543886014,0,703.310978983265,0,38.9805362091425
0.05872,6.15661,GHA,"Zagora - Morocco",FALSE,34.381,3953.2102,38.8969776080709,135915319.8862,1337316.98714309,,,,0,14,477.255788626003,34.381,4350.96456254985,10012.4935749942,2.63986793233823,524.686731251767,34.381,4981.60921297718,11378.8729599142,2.53481909893878,34.381,331.433420259668,1337.31698714309,26.7761996282054,0,105.435739099645,0,57.458538107036,0,104.563900166687,0,57.7774833255485,0,231.077721575561,0,34.0544929816954
0.36174,12.0579901,BFA,"Mazabuka - Zambia",FALSE,73.2,1564.24563399205,22.6391773750371,114502780.408218,1657187.78385272,,,,0,13,551.086839275289,73.2,11376.7788378483,20269.724417567,2.48204606947116,611.176277194505,73.2,13189.5059663954,22661.4701346418,2.3743628098786,73.2,960.680743400988,1657.18778385272,19.5292880247686,0,300.398694351956,0,42.391011053657,0,503.76063234916,0,30.0323731814142,0,53.8870238244607,0,133.275300431204
0.3068,35.7280197,DZA,"Kassala - Sudan",FALSE,468.678,13822.566,55.9459393267844,6478332587.748,26220630.9517987,,,,0,10,924.343895475018,468.678,152496.292459991,169058.210898703,1.98859744558774,1044.90178532951,468.678,181685.02517057,194360.048724376,1.88681337418644,0,2019.64585440784,0,39.6232532664394,468.678,23265.7671697335,26220.6309517987,7.76822913352593,0,264.908705355882,0,153.486244051068,0,1097.46211453504,0,59.5032363621701
0.17407,26.7181301,DZA,"Asamankese - Ghana",FALSE,20.402,13754.6295522982,35.5508752420232,280621952.125989,725308.956687758,,,,0,10,469.667492516379,20.402,2523.45708949564,5512.15250438233,2.65806347310245,589.714479549294,20.402,3493.10830825029,6105.0201993887,2.41101840297522,20.402,629.097119701076,725.308956687757,10.9693307374374,0,74.3243021485248,0,45.5587047235675,0,21.7165457007099,0,103.466104439197,0,19.9836343717577,0,109.364308700614
1.0877,26.958849,DZA,"Kherrata - Algeria",FALSE,18.598,13747.3415581596,37.6662944731761,255673058.298652,700517.744612129,,,,0,10,673.881899088931,18.598,3852.82991396727,5161.82415639113,2.27702719877752,759.815655032852,18.598,4573.44364417534,5844.94003767743,2.16286389430507,18.598,700.517732034953,700.517744612129,8.8975371155952,0,66.5530069382088,0,42.7337275048541,0,16.8479994633102,0,106.786660496027,0,15.9266124683354,0,110.866487937458
2.101906,34.108919,DZA,"Aflou - Algeria",TRUE,114.592,13822.566,42.5694418617965,1583955483.072,4878117.48182698,,,,0,10,826.949836747922,114.592,31802.5017784943,37513.1411714625,2.08578822140831,886.226322969869,114.592,35108.4754255961,41497.3707380747,2.02481343674815,114.592,2932.33851842562,4878.11748182698,11.8464801500846,0,1245.83451896654,0,20.9616353362944,0,66.394890032335,0,148.016102509368,0,166.223104679935,0,80.2794660161192
3.666624,32.483817,DZA,"Ghardaïa - Algeria",TRUE,210.733,13822.566,54.3332823474776,2912870800.878,11449815.588931,,,,0,10,897.346857837654,210.733,65724.4464372568,73361.6268805246,2.01402092337709,988.174619652078,210.733,75430.3298256534,82230.8381548239,1.93249455794731,0,1257.53759899621,0,31.3661179252446,210.733,9341.80419879149,11449.815588931,8.23861582060815,0,149.632539973053,0,129.65543438759,0,252.665039083232,0,91.4347582633972
0.20933,10.8734493,TGO,"Al Manāqil - Sudan",FALSE,58.071,1468.95664149522,31.2532292472104,85303781.1282692,1814906.27561475,,,,0,16,746.171179463445,58.071,13915.3415118069,17285.6211600906,2.17972617444679,795.46341985552,58.071,15246.9182852228,18878.4571644459,2.12077934467551,58.071,1030.10827779089,1814.90627561476,14.7418243291718,0,332.699742948558,0,31.3163766477546,0,216.162562535667,0,41.7464449983587,0,46.5357176684567,0,116.220357717994
0.05048,5.7687697,GHA,"Ténès - Algeria",FALSE,37.402,3953.2102,53.4407004820401,147857967.9004,1998789.07942926,,,,0,14,375.797788723984,37.402,3364.1895805324,23192.833367525,2.92460097524869,465.64655906691,37.402,4569.65667890034,26198.0373618567,2.66787631657795,37.402,445.902098335111,1998.78907942926,40.3198139133156,0,277.445365673742,0,55.3214065326105,0,189.535370602444,0,71.3210975164285,0,939.418756925793,0,24.5342081000609
0.77777,18.9019699,MLI,"",FALSE,0,2285.3071,12.4608224567388,0,0,,,,0,9,476.859107719273,1e-06,0.00012640118690302,4562.3627117927,4.33549929917596,578.306908178174,1e-06,0.000166502266501617,4307.82669749314,3.6271546567847,1e-06,179.532405272596,1.24608224567388e-05,30.1747019737871,0,57.0960513171054,0,64.7640759442607,0,66.2457534138074,0,58.6542555299478,0,20.412654774389,0,128.569679915567
1.4786099,14.2064199,NER,"Namakgale - South Africa",FALSE,19.262,902.661251353596,18.3109624941318,17387061.023573,352705.759561966,,,,0,15,321.71626812241,19.262,1387.66713457855,4269.90802731275,3.12598678269415,399.057328992866,19.262,1887.75525113649,4336.78099865515,2.85028984077926,19.262,161.851141290888,352.705759561967,25.5225173677928,0,37.4708147325904,0,67.6921947723037,0,143.500947687458,0,27.654395700712,0,11.7925396654796,0,146.306107638248
0.46922,10.3394394,TGO,"Hamma Bouziane - Algeria",FALSE,34.791,1791.52743346508,23.7423490738048,62329030.9376835,826020.066626741,,,,0,16,575.149772330288,34.791,5747.65558125491,9945.03698628839,2.43699792147374,675.855533644458,34.791,7237.60554128043,11029.191720426,2.27417518780301,34.791,545.17249567359,826.020066626743,16.8848451648212,0,200.684478524539,0,32.8733415055378,0,130.088563526964,0,43.8894658892495,0,31.8140165197786,0,112.229589226234
1.14132,9.47579,TGO,"Cacongo - Angola",FALSE,33.327,1373.44357100469,23.4389778775196,45772753.8908734,781150.815724097,,,,0,16,585.00577827002,33.327,5641.07358365218,12669.4792989459,2.41931626877806,742.493506993667,33.327,7929.85675947448,16528.9630083309,2.1843467441362,33.327,890.407306523775,781.150815724096,15.3141480337692,0,338.095088160018,0,29.2051479440455,0,127.895405525458,0,55.8361359856964,0,56.9711234215478,0,95.7301625360605
0.59562,6.0068398,GHA,"",FALSE,0,3953.2102,37.1738924725988,0,0,,,,0,14,854.687345636726,1e-06,0.000290921428981441,5803.32820009441,2.94521766127732,962.812763922153,1e-06,0.000344891295599491,6189.19434480615,2.63288884068031,1e-06,145.579919834107,3.71738924725988e-05,32.0716241014259,0,81.8694907278806,0,47.0732168667672,0,38.7394495004019,0,77.5210489868971,0,155.185411259785,0,30.7341596393421
0.50771,7.5739598,GHA,"Kayanza - Burundi",FALSE,11.503,3218.33666164992,33.5632575458883,37020526.618959,386078.151550353,,,,0,14,317.017943294523,11.503,811.460989937783,8726.99968177832,3.1457582566909,447.834216080689,11.503,1329.23300111798,11588.6586462499,2.71284710920821,11.503,386.078159905865,386.078151550353,26.2017687262062,0,195.853652141211,0,41.1932744953839,0,117.808159795457,0,57.8092299136483,0,99.8021059491125,0,64.5685393289903
0.470198,6.611847,GHA,"Ho - Ghana",TRUE,183.715,3893.07070546691,38.4335396256206,715215484.654853,7060817.73232089,,,,0,14,596.47506449046,183.715,31970.9889584552,60010.003635656,2.39926862620108,631.857831142868,183.715,34714.3502863885,66823.6717898972,2.34073897191323,183.715,3032.75801747967,7060.81773232089,18.3970433652194,0,696.003128840225,0,49.0793818187483,0,449.425798499214,0,65.6953372069165,0,880.065373056319,0,41.9723471491599
0.14396,34.7495003,DZA,"Meknès - Morocco",FALSE,128.413,13832.7356266939,48.9472390691589,1776303080.03064,6285461.8105879,,,,0,10,870.797596563561,128.413,38368.1044716947,50732.3622124107,2.04011146185488,744.085818441246,128.413,30648.3578067555,54501.3861838119,2.18234219889683,128.413,2419.78770161977,6285.4618105879,17.4050939688971,0,1980.05605972338,0,19.8949518260167,0,116.829656846245,0,131.26808473881,0,349.376347160495,0,63.2410224661653
1.316772,35.366641,DZA,"Tiaret - Algeria",TRUE,273.948,13822.566,52.0993930151733,3786664310.568,14272524.5177207,,,,0,10,933.573333195045,273.948,90410.0975256558,101407.811053665,1.9801480160827,1034.59469582535,273.948,104703.784632885,116815.016255116,1.89484653445924,0,2066.21278192986,0,27.9119253577821,273.948,11372.6625151496,14272.5245177207,8.95361445971648,0,167.750027479546,0,148.866881595626,0,540.133471334404,0,68.2714453348061
0.83412,11.1550198,BFA,"Missour - Morocco",FALSE,13.579,1539.16365357952,21.9358482617815,20900303.2519562,297866.88354673,,,,0,13,568.70028397588,13.579,2207.47184739236,6547.13792889973,2.44880437563851,647.022550437707,13.579,2654.27894673229,7114.44098230659,2.31706749598254,13.579,297.866899464748,297.866883546731,19.2169462552501,0,150.57292768283,0,30.2831658896399,0,95.7499718397723,0,40.9518415111432,0,18.8135100422104,0,121.16745518808
1.064238,10.697912,BEN,"Matéri - Benin",TRUE,260.509,1341.27023884108,22.6149908758556,349412968.65025,5891408.65807827,,,,0,17,616.139777878371,260.509,47485.2147510532,58447.6538338406,2.36614638364429,678.648382243551,260.509,54514.1470605018,63224.1688471814,2.27015948384214,0,2003.55477709589,0,22.669623543412,260.509,2250.60589041451,5891.40865807827,20.9787118932287,0,617.690296460324,0,49.6742443111071,0,176.533941323234,0,114.48791413381
1.331625,36.164677,DZA,"Chlef - Algeria",TRUE,575.939,13822.566,54.0496792570843,7960954839.474,31129318.2216458,,,,0,10,961.409287224459,575.939,198222.835690285,200996.172785622,1.95537083070076,1039.7822740831,575.939,221704.149843553,227578.053675708,1.89078920946543,0,2310.12884526487,0,40.3310224810605,575.939,29762.9552168541,31129.3182216459,7.33859071544267,0,288.868462927678,0,161.285978786099,0,1071.62716559835,0,67.3029692804694
