lon,lat,iso3c,city_country,city_port,population,gdp_cap,IWI,gdp,wealth,port_locode,port_name,port_status,outflows,ctry,uj_orig,Lj_orig,Cj_orig,Dj_orig,PCj_orig,uj,Lj,Cj,Dj,PCj,Lj_1,Dj_1,Yj_1,Pj_1,Lj_2,Dj_2,Yj_2,Pj_2,Lj_3,Dj_3,Yj_3,Pj_3,Lj_4,Dj_4,Yj_4,Pj_4
-17.446713,14.692814,SEN,"Dakar - Senegal",TRUE,3223.755,2287.6685,70.2606002240275,7374882765.2175,226502961.27521,SNDKR,Dakar,AI,2417.263262,1,945.000004445707,3223.755,1082576.28079075,1119089.809675,1.96985101182324,985.121920550083,3223.755,1148830.34014718,1182703.94851637,1.93505874994564,0,2337.61606493692,0,122.865343009091,0,3725.31485661409,0,90.0539700025968,0,767.126500133647,0,258.24595587954,3223.755,312010.119377005,315941.70196921,4.70434394501474
-17.044529,14.7029696,SEN,"Yaoundé - Cameroon",FALSE,505.227,2302.16270413245,52.2935947198641,1163114756.52073,26420135.9795328,,,,0,1,689.660493402721,505.227,108183.122741642,220476.793209088,2.25455286569161,740.988758162621,505.227,119866.284265154,241133.226946952,2.18624670611866,0,2645.31762759618,0,44.2811260499704,505.227,20066.6423222323,26420.1359795328,11.469753042035,0,323.684879288398,0,179.661738928439,0,2968.49916547667,0,41.00585951236
-16.6384888,15.1122198,SEN,"Dzolokpuita - Ghana",FALSE,74.508,2361.8791047779,42.0766985704881,175978888.338792,3135050.65708993,,,,0,1,601.251331247726,74.508,13114.8275776086,24714.6017347737,2.39108168086469,618.542177920981,74.508,13656.9263840757,26042.6145674553,2.36220343696226,74.508,1159.71677361021,3135.05065708993,18.8020726668608,0,792.333125004071,0,24.238280703649,0,49.3863716620861,0,154.182685569753,0,239.771370163523,0,53.7743871233753
-16.4633198,14.7565098,SEN,"Gusau - Nigeria",FALSE,113.325,2297.65604456748,38.0772661124075,260381871.25061,4315106.18218858,,,,0,1,586.717048708098,113.325,19262.0935876219,32908.3533015417,2.41628961261038,656.644726906746,113.325,22623.6740875453,34524.735980004,2.30245469435378,113.325,1183.56558541536,4315.10618218858,21.8180760657689,0,1341.29685213329,0,20.0721888192973,0,61.1989014125708,0,157.198689119817,0,345.211735221863,0,49.6082952964583
-16.4205399,14.3423595,SEN,"Chipinge - Zimbabwe",FALSE,18.416,2269.64499576379,37.4244716433748,41797782.2419859,689209.069784391,,,,0,1,425.43911486972,18.416,1977.68416532637,12959.6854352881,2.77315297790652,509.756125788934,18.416,2560.56355965962,15570.3172193218,2.56637573358359,18.416,512.898256671814,689.20906978439,24.9745534620661,0,571.796395425852,0,23.2286661209155,0,31.5248759652175,0,160.355166343111,0,167.017398699792,0,52.7647725613152
-17.033333,20.933297,MRT,"Nouadhibou - Mauritania",TRUE,118,5196.45446473013,38.9206658183864,613181626.838156,4592638.5665696,MRNDB,Nouadhibou,AI,197.0295,2,1077.67460656114,118,47806.4865927667,50907.8006391487,1.86200512828567,1205.64298858932,118,56118.0600357864,59524.5941339435,1.7745822082821,0,362.596941393575,0,53.204005220181,0,210.306015320954,0,76.4996218642637,0,69.2406150056886,0,160.442642913108,118,10447.4700085243,11882.7300665696,5.66091103186262
-16.8981705,21.2914486,MRT,"",FALSE,0,5538.53368337853,18.6296720206833,0,0,,,,0,2,700.778181183704,1e-06,0.000219075952580733,7733.90970517569,3.27197814738423,464.258271214494,1e-06,0.000121656760889147,8395.78731940301,2.74591746672227,1e-06,115.96489729703,1.86296720206833e-05,47.6991602812434,0,63.8635490658727,0,70.9947769433792,0,19.8087275837388,0,154.937798080339,0,668.803797474182,0,14.8318711798374
-15.978542,18.085588,MRT,"Nouakchott - Mauritania",TRUE,1440.712,3726.39485774327,41.8651880562521,5368661788.28902,60315678.8148991,MRNKC,Nouakchott,AI,334.524,2,750.045826578488,1440.712,347796.385440615,371077.467681365,2.17489357115918,838.231625357411,1440.712,407653.453613644,434765.703700008,2.07371051435698,0,3004.28972647873,0,57.1597656705044,0,1545.78817715764,0,89.0194678850249,0,726.494151915221,0,147.264104117754,1440.712,67791.2758493814,72693.0668148991,7.15817716617001
-15.67383,23.8871498,ESH,"",FALSE,0,7041.16211331411,31.3978211479454,0,0,,,,0,3,849.805377216532,1e-06,0.000288550421730097,11611.0687141091,2.89619222227531,576.742142856947,1e-06,0.000165859044439966,11706.8844036404,2.48882855287954,1e-06,641.117359241122,3.13978211479454e-05,17.2582799530329,0,177.985620326184,0,40.5538966032738,0,19.2667847048524,0,178.545827267327,0,192.868106422988,0,38.4399006166497
-16.2439098,15.6356897,SEN,"Banikoara - Benin",FALSE,93.802,2287.6183979327,43.5760615586268,214583180.962884,4087521.72632231,,,,0,1,724.638134348921,93.802,21556.5428764234,32366.355411808,2.20725348474774,785.667638289408,93.802,24196.2033690595,38455.8174774386,2.13207156140276,93.802,2651.0635112329,4087.52172632231,12.6812789081267,0,682.604894202742,0,31.3326319580199,0,66.4507326541432,0,148.061891668561,0,351.630739641085,0,48.75867775442
-16.577537,13.453171,GMB,"Banjul - Gambia, The",TRUE,976.753,1827.81084253539,39.6195599018914,1785319723.87897,38698523.9928521,GMBJL,Banjul,AI,184.275,4,776.537531286496,976.753,247780.920120157,263533.245668504,2.14277903852687,877.157460302237,976.753,294890.564397264,318543.164841463,2.03375895678552,0,3306.3736635841,0,42.7409053265619,0,1452.09522294525,0,73.9744266706334,0,448.127312050289,0,161.985968402792,976.753,40782.3128820942,45516.6989928521,8.00627378920087
-16.2409897,12.7924099,SEN,"Quelimane - Mozambique",FALSE,91.883,2295.74090262069,36.7829540931087,210939561.355497,3379728.1709371,,,,0,1,542.052974829437,91.883,13947.2529123631,27629.9267505705,2.49969063487899,625.680893569795,91.883,17120.0339042559,28748.3151759451,2.35061487239798,91.883,1151.93814480106,3379.72817093711,20.0741410564951,0,179.847142676394,0,69.2342060844685,0,52.5431682699363,0,157.24574671312,0,1246.17421140269,0,19.048929367675
-16.076402,14.138908,SEN,"Kaolack - Senegal",TRUE,187.932,2278.7640345833,45.3761239685572,428252682.54731,8527625.72965889,,,,0,1,844.214101446256,187.932,53718.8759573685,69733.5678913603,2.06739978161334,885.281658417123,187.932,57490.5843262865,83709.1001656954,2.02573914039136,187.932,6819.82764938759,8527.62572965889,10.7791132662932,0,886.294546956499,0,42.0126346043017,0,136.586058239496,0,146.159726147315,0,1007.59213887711,0,38.5693323745628
-15.6096001,13.5730095,GMB,"Bria - Central African Republic",FALSE,70.315,1877.21348753621,26.69126049904,131996266.376109,1876795.98199,,,,0,4,469.677160778889,70.315,8697.28964158241,18392.4735258658,2.658040112227,522.143707830096,70.315,10117.7699436762,21157.4439539748,2.54010266498561,70.315,801.614240129862,1876.79598199,22.5173072467817,0,217.351357281382,0,53.7508288079241,0,50.7456307926539,0,141.762370335624,0,648.081627711938,0,25.9461901288537
-16.50258,16.034409,SEN,"Saint-Louis - Senegal",TRUE,154.555,2616.38725725041,41.8228350121846,404375732.544337,6463928.26530819,,,,0,1,902.101040166024,154.555,48568.622408636,49284.8045102924,2.00946524552089,986.87764439213,154.555,55218.1283393305,56242.6694162222,1.93358259841345,154.555,5979.79282083939,6463.92826530819,8.61554167104831,0,587.262423588606,0,40.4748458756111,0,81.9054853610743,0,150.49821665188,0,412.827539878696,0,51.1950028368398
-15.804984,16.512799,MRT,"Rosso - Mauritania",TRUE,159.231,3119.63824766881,37.3432812371366,496743117.814552,5946208.0146705,,,,0,2,608.70248871593,159.231,28525.2046070345,48121.1246386589,2.37849352333084,611.512129921716,159.231,28713.4851686038,58210.3060512702,2.37380384856358,159.231,3192.17269537669,5946.2080146705,16.445755616529,0,634.122003209231,0,48.3054578498314,0,138.582780242215,0,133.13898392734,0,1081.69053704049,0,33.8357700233156
-15.883334,14.866839,SEN,"Touba - Senegal",TRUE,597.23,2294.61226912889,41.7294708957356,1370411285.49184,24922091.9030602,,,,0,1,807.015856203513,597.23,160069.979698202,182956.230213688,2.1077147373413,862.540293441491,597.23,176032.0642929,203192.052461625,2.04845895038125,0,3370.43823342765,0,31.4949431270481,597.23,17928.5546954896,24922.0919030602,10.3355808810916,0,300.204080431844,0,157.914017638174,0,1305.05434210468,0,59.2851622736799
-15.575626,11.856113,GNB,"Bissau - Guinea-Bissau",TRUE,503.968,1367.43735056953,29.1359647460553,689144666.691825,14683593.88114,GWOXB,Bissau,AI,114.309,5,707.16926652716,503.968,111848.522307155,118725.516061447,2.2304584382041,783.953696468881,503.968,129593.481348975,135887.895099084,2.1340680157221,0,1634.10254605854,0,40.6576775079173,0,497.679731310377,0,89.8177425249022,0,238.02360434102,0,146.864022721475,503.968,16602.5401967333,18913.02688114,8.66720517548692
-15.65446,14.4204092,SEN,"",FALSE,0,2255.07749469541,31.0289501068166,0,0,,,,0,1,987.922165282592,1e-06,0.000357812027097657,5512.02267911083,2.63757267408651,631.171342375469,1e-06,0.000188664415784415,7360.19711279989,2.38992623191518,1e-06,357.875820933712,3.10289501068166e-05,17.9400047837687,0,157.680917858574,0,30.9830879634005,0,15.678338451532,0,144.359079303173,0,87.9348845356209,0,45.7302239220357
-15.5441999,14.1010094,SEN,"Debre Zeyit - Ethiopia",FALSE,69.357,2287.6685,33.2273419593215,158665824.1545,2304548.75627266,,,,0,1,745.225191757119,69.357,16589.6721174619,20038.8093839006,2.18091161220475,800.73978123403,69.357,18382.9315718411,23573.9252375409,2.11477892904408,69.357,1753.68295432941,2304.54875627266,11.95598941616,0,312.106293500777,0,37.7877666760742,0,44.5392205380019,0,138.375063947865,0,248.408801264372,0,43.9988767839243
-13.9632597,17.0292988,MRT,"Fritissa - Morocco",FALSE,15.521,3680.26830758623,24.3321127914395,57121444.4020459,377658.722635932,,,,0,2,252.79091693246,15.521,792.347485962006,13184.3827424369,3.46627903186815,334.294923312405,15.521,1181.13351542043,13597.3874931139,3.07502413412682,15.521,429.546430044118,377.658722635932,30.7712710191884,0,147.926004254373,0,62.63097326288,0,55.1721936858223,0,120.875609457939,0,377.51607206119,0,33.5373348870016
-15.945537,23.708077,ESH,"Ad Dakhla - Morocco",TRUE,106.277,6999.25678566019,41.685948396546,743860013.409608,4430257.53773972,,,,0,3,763.867680485813,106.277,26333.9634961956,28654.8147219224,2.15793934588987,854.178776580644,106.277,30891.9779864323,32832.621581859,2.05702886871936,106.277,3310.57829235479,4430.25753773972,9.49528895247154,0,312.195371852686,0,45.831047889649,0,38.8656955308734,0,183.822978348761,0,335.111892482264,0,43.717051904747
-14.2343597,16.6268101,MRT,"Had Zraqtane - Morocco",FALSE,10.415,3292.61139046978,26.1754116436426,34292547.6317428,272616.912268538,,,,0,2,328.910912151382,10.415,774.399382797858,2826.49395932013,3.09649656626678,386.097141113701,10.415,973.687776019826,2687.08482612886,2.89090743343632,10.415,115.185619733334,272.616912268538,23.6024051332909,0,31.9770285379614,0,55.4621073807313,0,9.25189506097949,0,126.785028532303,0,53.3108672913589,0,39.4467539683436
-13.9593992,16.1129189,SEN,"",FALSE,0,2493.74395561908,28.4022929330901,0,0,,,,0,1,728.054970796525,1e-06,0.000231358556321317,1137.89721090897,3.19320220997791,283.561126027337,1e-06,6.01534576011889e-05,2403.98275556583,3.45081445847579,1e-06,86.8680555242843,2.84022929330901e-05,31.5720251714113,0,30.5038006272597,0,63.4317274331038,0,11.9515761762968,0,118.465634807476,0,44.9805235799848,0,48.9620398832299
-13.203346,27.153675,ESH,"Laâyoune - Morocco",TRUE,217.732,7166.58209753815,43.2531834575172,1560394253.26118,9417602.14057214,,,,0,3,785.754593997188,217.732,56172.7974268486,74569.3447905474,2.1319704397524,858.178812353977,217.732,63712.8863020945,81707.3519145621,2.05291425410283,0,1539.31372662983,0,28.9952465345655,217.732,5832.17851057993,9417.60214057213,11.9304738991176,0,130.923480010344,0,149.922404953403,0,674.257272233036,0,50.272190342094
-14.2115793,13.3027792,GMB,"Tarkwa - Ghana",FALSE,61.291,1770.86443929862,23.1067512092836,108538052.349052,1416235.8883682,,,,0,4,540.826466608598,61.291,9273.52388075811,12167.7769576635,2.50211860153138,561.105373362044,61.291,9774.23190602936,13786.7950747741,2.46295533739568,61.291,932.415281459674,1416.2358883682,14.8374463457715,0,104.08867838342,0,63.997511539048,0,34.3233707927281,0,134.082509342573,0,244.744832863311,0,36.1928732869122
-15.3329,12.0479898,GNB,"",FALSE,0,1367.45133840083,18.1778592380354,0,0,,,,0,5,767.4660104514,1e-06,0.000249455267376268,4498.77689960299,3.08811633235335,451.057682316516,1e-06,0.000116745386306854,4800.87891357829,2.78230236322651,1e-06,145.856854217316,1.81778592380354e-05,28.5759228224692,0,32.5082848449096,0,77.7359879362367,0,14.2389544388995,0,134.782268057043,0,214.972000574059,0,22.0646424294198
-13.6763992,13.7135201,SEN,"Khénifra - Morocco",FALSE,78.8,2287.6685,28.5775553827832,180268277.8,2251911.36416331,,,,0,1,638.405488861469,78.8,15110.7736013857,19589.7747348895,2.33041966185861,674.807843278792,78.8,16356.5502506358,23101.3905043191,2.2756877275191,78.8,2100.81239968564,2251.91136416332,11.253300087557,0,221.479160339966,0,50.4254175240342,0,59.9473856711619,0,120.510415338265,0,186.063931902858,0,56.6365276253203
-14.8474998,12.0527,GNB,"Misséni - Mali",FALSE,54.756,1394.43121299449,18.6469722659379,76353475.4987265,1021033.6133937,,,,0,5,469.157161541171,54.756,6762.08137711113,9137.19499767967,2.6593023126035,455.877022249418,54.756,6490.30614167192,9806.96934253125,2.69223072269464,54.756,472.66522287404,1021.0336133937,20.3282372716917,0,74.7886469255763,0,69.4883026971596,0,30.4361262855355,0,126.534582520479,0,247.644385389787,0,31.2787817849303
-14.299376,10.940929,GIN,"Boké - Guinea",TRUE,116.27,1146.57562365401,27.5929884020649,133312347.762251,3208236.76150809,,,,0,6,583.700982455797,116.27,19617.6907963223,23182.4908641219,2.4216325709953,616.96686533373,116.27,21234.1862649395,25183.855937154,2.36478646347252,116.27,2106.71071118091,3208.23676150809,12.3633684621718,0,198.901387726064,0,59.6277203829611,0,72.6689678110555,0,116.674000049748,0,272.342767625057,0,48.3573897791429
-13.3009596,12.4839897,GIN,"Kalfou - Cameroon",FALSE,13.99,1189.02775135884,23.7319650851646,16634498.2415102,332010.191541452,,,,0,6,526.832076879375,13.99,2038.92136994699,3548.04098755104,2.53039013303577,543.724160400414,13.99,2132.95198952097,4016.38245478723,2.49639502310911,13.99,312.091157879848,332.010191541453,13.7093134188372,0,33.7733921399373,0,60.3698681776849,0,12.4512594476265,0,117.416147901806,0,45.2091897332458,0,49.7033353926932
-13.6282301,10.0732899,GIN,"",FALSE,0,1176.62521698137,26.8793431772143,0,0,,,,0,6,670.31365998785,1e-06,0.000205598388446946,3828.15789262192,3.366497601783,345.951606190493,1e-06,7.99179608492825e-05,4193.86336979795,3.14385114680382,1e-06,162.436176864463,2.68793431772143e-05,27.4631060363824,0,50.9802565830523,0,59.4661947811275,0,15.7920637663583,0,129.890952541038,0,88.3199995175741,0,41.2254547331518
-13.1784992,11.1257696,GIN,"",FALSE,0,1125.84335585272,17.2149499541175,0,0,,,,0,6,952.469214175314,1e-06,0.000339610383139492,548.34947702824,2.69765021218324,458.017522275674,1e-06,0.000119327279505817,1237.88332220939,2.7629282128115,1e-06,71.6459351258607,1.72149499541175e-05,18.4655268680341,0,14.9045259845994,0,52.5949399635324,0,4.95191669548422,0,109.64121971276,0,14.1456548622431,0,54.4595486598217
-13.0830994,11.79953,GIN,"Bethlehem - South Africa",FALSE,7.461,1135.4866,20.8461390559678,8471865.5226,155533.043496575,,,,0,6,478.568044289696,7.461,947.911169217146,1595.67230219351,2.63676328450566,457.564385471271,7.461,889.042794028019,2069.0434238664,2.68797132910959,7.461,129.171544542486,155.533043496576,17.080207126083,0,22.8770115288709,0,54.1591087219711,0,7.77531173166619,0,111.20538827303,0,23.5820201858399,0,53.074229514728
-13.8246593,13.3325996,SEN,"",FALSE,0,2141.07888826552,23.0399064754911,0,0,,,,0,1,941.643377395214,1e-06,0.00033410950417771,1161.32097697028,2.7169276349002,494.661388922881,1e-06,0.000133195960227357,1585.75905234848,2.66781438804268,1e-06,101.989338610847,2.30399064754911e-05,16.6192169900552,0,16.5813731129446,0,55.7913344501422,0,4.89276659743301,0,125.876332251623,0,20.6032273397282,0,48.2714384277831
-13.7090893,13.0267,SEN,"",FALSE,0,2287.6685,21.3110377398114,0,0,,,,0,1,935.533614088662,1e-06,0.000331016904409642,479.165667490808,2.72790053637618,483.183695398369,1e-06,0.000128802919767594,811.662596008737,2.69643046340534,1e-06,49.1094764702888,2.13110377398114e-05,17.495621501445,0,8.42472133286323,0,56.6677389936552,0,2.58744560338234,0,124.487410474251,0,11.5187550489341,0,46.0012060923492
-11.400062,16.629969,MRT,"Kiffa - Mauritania",TRUE,110.714,3692.66927840016,24.5103198098448,408830186.488796,2713635.54742716,,,,0,2,474.210556040021,110.714,13883.4746907898,21448.5138496794,2.64711999580196,537.926392620034,110.714,16623.2063211384,25061.6349497346,2.50789090080173,110.714,2541.1044720892,2713.63554742716,11.5336444467583,0,127.08375917732,0,84.9678973305747,0,97.1378090507359,0,101.637982839616,0,215.311015441986,0,59.7866299062601
-12.2216101,14.4544096,SEN,"Sidi Redouane - Morocco",FALSE,20.065,2223.952360451,30.4239054818422,44623604.1124494,610455.663493164,,,,0,1,394.629477343712,20.065,1935.35636587603,7299.18590323821,2.86395231592092,381.165844252864,20.065,1841.72359603542,8380.62707826971,2.90687749998247,20.065,551.430904753283,610.455663493164,17.8354336176389,0,89.3999840042623,0,59.986397392877,0,38.753944109099,0,104.729043115503,0,77.1177152897315,0,66.1975075772231
-13.712215,9.509116,GIN,"Conakry - Guinea",TRUE,1667.864,2150.37966857964,47.7173443768735,3586540835.55592,79586040.8617897,GNCKY,Conakry,AI,676.60790476,6,746.019093647505,1667.864,399547.788553332,415088.359404675,2.17991655929492,800.084978528842,1667.864,441547.622664999,459009.185552391,2.11552051223339,0,1673.20709609566,0,89.3164993723754,0,1166.37895760071,0,113.606986757494,0,531.940905308921,0,191.744345845633,1667.864,101443.910239184,104620.53333791,5.78736452192882
-13.5013895,9.7055101,GIN,"",FALSE,0,1177.39094451741,47.8186094627483,0,0,,,,0,6,528.771778950424,1e-06,0.000146508508486488,21904.7510820846,3.92815078431088,272.397854614899,1e-06,5.6799172752925e-05,26329.1119667823,3.51703459900912,1e-06,591.690217938145,4.78186094627483e-05,44.1642834649453,0,306.616548765192,0,68.4547708524287,0,97.8442232792914,0,146.592129949865,0,1000.91496230452,0,31.1078020945249
-12.1095896,12.6156893,SEN,"Ādēt - Ethiopia",FALSE,11.216,2258.58745277728,29.7127985122773,25332316.87035,333258.748113702,,,,0,1,373.863493476516,11.216,1001.43318404075,4602.96751273947,2.93107647815644,437.666795838456,11.216,1254.23781990953,4925.85233316403,2.73967943819865,11.216,333.258747839655,333.258748113702,16.5005962083412,0,55.6713745582013,0,54.4000601336452,0,20.2671075149549,0,106.698790303155,0,44.2455465348548,0,63.4026825973196
-12.9784594,10.6564093,GIN,"Bawku - Ghana",FALSE,30.311,1134.95099453162,19.5251633744116,34401499.5952479,591827.22704179,,,,0,6,461.618815397677,30.311,3657.62485486702,4802.90327356488,2.67782781034462,569.362631290141,30.311,4935.71203666975,6608.12927002276,2.44758313458744,30.311,434.838841544301,591.82722704179,15.0165759967987,0,78.4811601337933,0,47.0196648619932,0,19.8809033626124,0,117.444422470455,0,74.0339563509859,0,48.8842736409956
-12.854191,10.049703,GIN,"Kindia - Guinea",TRUE,181.126,1272.4382327917,31.7736110513414,230471647.35263,5755027.07528526,,,,0,6,610.219521099238,181.126,32563.1384134345,49622.226077562,2.37595748412713,637.832635639161,181.126,34688.4035113287,53973.6509053336,2.3313166251546,181.126,3495.02099160504,5755.02707528526,14.4573689907996,0,796.548390664142,0,38.74785640096,0,152.035257566905,0,116.885215500613,0,513.675566548331,0,51.9114530725743
-12.7595196,8.4948397,SLE,"",FALSE,0,1525.79033972791,18.3068914371631,0,0,,,,0,7,565.457637793673,1e-06,0.000161242570536139,19596.4044312888,3.75894315896679,300.403369641207,1e-06,6.53217621654879e-05,22900.6276341829,3.35826453582662,1e-06,293.01614821345,1.83068914371631e-05,61.3882787641867,0,524.247409441151,0,41.6538962752044,0,88.3162303659103,0,136.558732675546,0,788.661418415987,0,31.7263002221034
-13.234314,8.484392,SLE,"Freetown - Sierra Leone",TRUE,1035.246,1636.18751938735,51.9455928614036,1693856584.69567,53776467.2273966,SLFNA,Freetown,AI,292.305,7,780.534627789449,1035.246,264552.572549583,278398.809655896,2.13806933948203,833.556818053777,1035.246,290594.741206664,305890.675378312,2.07868680174327,0,909.165056493763,0,100.555244715374,0,1261.72470632445,0,80.8208622291849,0,393.547273951019,0,175.725698613631,1035.246,61897.4467664626,64591.7522273966,6.03093610690834
-11.6982899,26.7553997,ESH,"Malakal - South Sudan",FALSE,57.035,6390.125709182,25.1492270818786,364460819.823195,1434386.16661495,,,,0,3,584.206274292575,57.035,9635.1505551902,14007.8889400012,2.42073471169621,656.780989582535,57.035,11389.576771021,16278.6219687146,2.30224995889967,57.035,887.268979038263,1434.38616661495,16.0150156383502,0,444.484247041703,0,25.3898411191256,0,35.4846496413809,0,136.942174102765,0,111.767247273008,0,63.7315571062404
-11.1610899,28.4597492,MAR,"Kukawa - Nigeria",FALSE,73.209,6295.70213058728,39.2491173607986,460902057.278165,2873388.6328667,,,,0,8,748.022155757745,73.209,17605.0056584461,23677.4600775056,2.17741298138243,803.408467822898,73.209,19496.3463274379,26391.3443548796,2.1117654922758,73.209,1906.43368559645,2873.3886328667,12.1750913657742,0,483.276311641551,0,30.396461225311,0,51.1218690142385,0,135.89877729771,0,196.566685757794,0,55.3707094179469
-12.283231,11.316916,GIN,"Labé - Guinea",TRUE,127.747,1146.98337636056,35.8287216279254,146523685.379933,4577011.70180259,,,,0,6,668.946011661677,127.747,26188.0566611078,37823.0242901282,2.28421275031839,664.851455760794,127.747,25959.3650169753,41706.5239064785,2.29023110680744,127.747,3085.09274312654,4577.01170180259,12.9968015957169,0,552.795779995918,0,40.8920446268691,0,149.139937312712,0,97.9383240668605,0,288.980019322121,0,63.0139583572521
-12.08277,10.383497,GIN,"Mamou - Guinea",TRUE,376.269,1135.61305456118,26.8662514052221,427295988.426679,10108937.5499915,,,,0,6,621.04922549448,376.269,69367.825505518,94205.5727488111,2.35811195224228,661.987904453875,376.269,75991.2935978647,101266.778019088,2.29447165004128,0,2313.72400919006,0,28.4961587866044,376.269,5294.92156769199,10108.9375499915,16.4092098848822,0,382.844468347213,0,94.5465689981481,0,657.152913062515,0,65.9502428882061
-11.74007,7.956451,SLE,"Bo - Sierra Leone",TRUE,249.807,1496.9442,25.5146367561591,373947139.7694,6373734.86414584,,,,0,7,553.308075154393,249.807,39048.8733707928,56194.9794067518,2.47777088456188,602.045233358729,249.807,44053.7574622337,58372.1126943982,2.38972985796256,0,937.171914387155,0,37.5496800905115,249.807,2867.73492250464,6373.73486414584,17.815297587499,0,151.439002398327,0,126.568973538955,0,848.67761563689,0,40.1165816583441
-10.971644,8.643743,SLE,"Koidu - Sierra Leone",TRUE,300.387,1517.04766003136,22.0121301485176,455701395.453841,6612157.73892276,,,,0,7,575.484640967855,300.387,49666.788506448,61675.871078459,2.4363901334164,633.125984298961,300.387,56923.2264844371,70325.7945141113,2.33872847327771,0,1196.30330566533,0,35.3586248352076,300.387,4238.05338605408,6612.15773892276,15.2152334145262,0,217.663012160351,0,110.120069827552,0,606.097793739321,0,55.6366662611289
-10.8695793,12.6057196,MLI,"Kawambwa - Zambia",FALSE,10.832,2285.3071,24.4574447781555,24754446.5072,264923.041836981,,,,0,9,134.250293613779,10.832,223.906745842895,8742.93622029481,4.54626515309184,196.162233965698,10.832,384.904610521316,14942.6360595778,3.86428349306818,10.832,472.89633000366,264.92304183698,38.6227473608693,0,209.229061816795,0,66.517990484795,0,191.136091117064,0,70.6521407958416,0,136.014989313954,0,88.6399041995844
-11.432892,14.449705,MLI,"Kayes - Mali",TRUE,174.373,2363.01954108217,36.6490483544719,412046806.437122,6390604.50871433,,,,0,9,610.848055659963,174.373,31395.211380739,40563.4421247103,2.37490950125859,691.400932150871,174.373,37472.7816690612,46040.0649731351,2.25211886064164,174.373,5920.51369726701,6390.60450871433,8.83979783093469,0,228.566552360412,0,77.3879735566851,0,200.126316280136,0,84.5562651691254,0,193.786351588622,0,86.3905957157885
-11.8790693,12.8341799,SEN,"",FALSE,0,2287.6685,30.2988245952444,0,0,,,,0,1,554.909678637352,1e-06,0.000156962959137342,3779.74517974946,3.80556935385972,327.884376579923,1e-06,7.40229441032948e-05,3845.57771902049,3.22337291645618,1e-06,211.71410227557,3.02988245952444e-05,22.2733267964529,0,44.2024961002831,0,63.2878610864342,0,23.4664974839781,0,96.5278795411611,0,36.2080992635563,0,72.2904835713463
-11.5879192,10.1457901,GIN,"",FALSE,0,1178.37874359219,21.1600028678453,0,0,,,,0,6,1066.14472728084,1e-06,0.000398961757668262,1522.58535529744,2.51709859776226,635.150230537849,1e-06,0.000190365759201975,1392.54659174472,2.38319742850203,1e-06,39.3405540387032,2.11600028678453e-05,25.6924899882828,0,61.0879357486492,0,19.1600311165306,0,5.33823863437388,0,97.2973902307518,0,8.99714200919587,0,68.7010639343394
-9.299825,10.383689,GIN,"Kankan - Guinea",TRUE,198.013,1153.17201735961,31.112356240142,228343050.673428,6160650.99617924,,,,0,6,723.152060882691,198.013,45371.910292506,59681.0319612594,2.20919635056394,806.713172923196,198.013,53043.1414236713,66082.2869001203,2.10805363131635,198.013,5826.72744841961,6160.65099617924,10.6411499318655,0,849.89952586664,0,38.4025420845203,0,301.152303004143,0,76.6915601255711,0,245.245683906476,0,87.943575065971
-11.3188601,7.3100801,SLE,"",FALSE,0,1344.94827331861,15.4784810906556,0,0,,,,0,7,737.151056825346,1e-06,0.000235498899257503,13366.1397386513,3.16810138657128,466.308248758865,1e-06,0.000122424896771992,14508.9370603218,2.74042301099234,1e-06,348.574977306382,1.54784810906556e-05,32.9137372748618,0,331.009726402129,0,34.0680675612464,0,48.8854877314355,0,121.933030742097,0,311.440360228329,0,35.4806369749063
-11.1890097,7.8601699,SLE,"Khartoum North - Sudan",FALSE,188.463,1485.97140072144,26.5325861186727,280050628.094164,5000410.77768342,,,,0,7,576.951426293426,188.463,31274.4982833783,45681.4784409956,2.43373361395421,631.412353538213,188.463,35575.6591898048,47515.5034865911,2.34144660710413,188.463,1546.49084070775,5000.41077768341,22.969043718638,0,1436.8275005651,0,24.123374629582,0,143.648974311446,0,111.988337222473,0,538.193743538204,0,46.424658669392
-2.216954,31.616774,DZA,"Béchar - Algeria",TRUE,179.119,13194.7313701357,47.9612505819522,2363427088.28733,8590771.24298869,,,,0,10,785.372387992463,179.119,46178.9005383516,51207.6109782457,2.13241505542215,866.810494703658,179.119,53168.6677022567,58260.5279506559,2.04412796185421,179.119,8047.6000007649,8590.7712429887,7.64974164915282,0,509.996427576585,0,48.1259815578864,0,116.786356504634,0,128.57689980387,0,200.150726643324,0,89.7813729144234
-10.0955496,9.1883497,GIN,"Mongu - Zambia",FALSE,66.815,1121.84293071791,25.8338628216588,74955935.4159169,1726089.54442914,,,,0,6,560.540632470255,66.815,10639.8412840677,16766.131155646,2.46401849426087,627.875360797098,66.815,12511.6802639071,18844.119192468,2.34709039680265,66.815,813.650473236768,1726.08954442913,19.0701945601072,0,562.088249439481,0,24.4030461124824,0,78.4763038558946,0,90.6750948143631,0,106.56521387981,0,73.9440790689443
-10.3059597,14.7111797,MLI,"Ikot Abasi - Nigeria",FALSE,18.328,2285.3071,26.3038363987401,41885108.5288,482096.713516109,,,,0,9,297.407010071134,18.328,1180.19437705582,6391.00775673587,3.23303777720605,319.509218814671,18.328,1307.45906904864,8633.53114624261,3.13522280377432,18.328,561.186874836765,482.096713516109,19.3934784712567,0,61.3280198525739,0,84.8440558550437,0,99.4734028382995,0,61.4595533249458,0,50.2120340005022,0,96.9442764107728
-9.6050797,16.6627998,MRT,"Abū Ḩamad - Sudan",FALSE,24.199,3760.08548182476,19.5791653774687,90990308.5746773,473796.222969366,,,,0,2,238.445350113713,24.199,1136.44081487148,8916.84221531481,3.55416426656752,282.138190756153,24.199,1445.2296086588,10885.4358133405,3.30689562402123,24.199,473.796258390652,473.796222969365,26.7253427487843,0,137.77173293988,0,60.8897635481124,0,95.8343320705899,0,77.5598489923329,0,98.9602349327333,0,75.9178481864518
-10.801398,6.313299,LBR,"Monrovia - Liberia",TRUE,1110.25,967.725459213548,41.2600904571139,1074417191.09184,45809015.4300107,LRMLW,Monrovia,AI,467.27200002,11,776.36602818266,1110.25,281557.338023294,303553.071044625,2.1429818232112,850.472312049655,1110.25,320722.34300694,350453.198508378,2.0608661465794,0,1679.64818547032,0,72.4977041958773,0,1640.31623791881,0,73.6520344919681,0,505.099985859971,0,161.516997615518,1110.25,58677.8622333633,63098.0794307507,6.78401732727073
-10.132382,8.567176,GIN,"Guéckédou - Guinea",TRUE,221.715,1099.39487496181,19.6079430369351,243752334.702158,4347375.09043406,,,,0,6,623.298078580435,221.715,41086.3193097075,45589.2459715437,2.35446192105932,676.017173279174,221.715,46139.3463794317,50503.6592774253,2.27394212481056,0,1167.39482019105,0,28.0230969920585,221.715,2721.4412969456,4347.37509043407,15.9390337687858,0,174.148547668027,0,99.6279972470339,0,326.834795863829,0,65.4800667651797
-10.066664,28.983267,MAR,"Guelmim - Morocco",TRUE,118.318,6238.3237,43.0273185293868,738105983.5366,5090906.27375998,,,,0,8,944.100488787442,118.318,39678.6108024289,41747.2277333591,1.97065511169117,1015.16029437258,118.318,44012.890150073,47806.9299725901,1.91030888341753,118.318,4661.04133584931,5090.90627375999,9.01797158425948,0,474.759687422047,0,41.3474066549266,0,87.9626844884382,0,127.222868221195,0,395.588325685651,0,46.6948001752429
-10.4223099,8.6459198,GIN,"",FALSE,0,1227.60079775481,18.0701264188066,0,0,,,,0,6,1101.11958463815,1e-06,0.000417789427175264,1402.36064651687,2.46803252006387,664.868978534976,1e-06,0.000203216846006874,1395.65826334154,2.33485107809282,1e-06,34.759483807624,1.80701264188066e-05,27.3776625864994,0,69.2537564737458,0,17.2908504488446,0,5.05626505448013,0,98.9825629407318,0,9.11364954050115,0,66.8318831584451
-9.4627399,13.0295696,MLI,"Ghardaïa - Algeria",FALSE,57.187,2269.38964058337,35.3665191502151,129779585.376041,2022505.13064335,,,,0,9,199.519421378441,57.187,2081.94872966788,20852.4431841778,3.83628180047567,239.844538024009,57.187,2708.17473309696,25044.7375798282,3.54526338822972,57.187,548.38447395002,2022.50513064335,45.296995406626,0,158.420637282406,0,103.653743665481,0,1242.10269744184,0,26.2636143540115,0,118.520738913568,0,125.775657380902
-9.4801102,7.0074396,LBR,"Zuwārah - Libya",FALSE,34.046,786.9167,15.4325262289124,26791365.9682,525415.787989552,,,,0,11,249.072297552601,34.046,1701.64021122602,13638.7359259807,3.48836421755969,329.541548474763,34.046,2538.40106579998,20170.0459335374,3.09395556557936,34.046,450.416711141848,525.415787989552,39.0159632567898,0,431.142154010336,0,40.1702935650044,0,75.7676174757042,0,128.035256693468,0,468.990276123151,0,37.9789340660662
-9.544252,15.181505,MLI,"Nioro - Mali",TRUE,116.376,2301.37386339613,31.0032048103123,267824684.726588,3608028.96300491,,,,0,9,522.1473878665,116.376,16745.7505550037,23850.8246912687,2.54009533574158,516.278605181632,116.376,16477.5176963997,26860.9945365619,2.55242980622302,116.376,2314.42073843295,3608.0289630049,13.0839936584134,0,157.384328684208,0,78.5345710454627,0,259.111857004083,0,56.3261856141583,0,121.031659884719,0,93.5626556820702
-9.5260296,14.5371294,MLI,"Rundu - Namibia",FALSE,52.399,2258.05105134941,26.6645356098404,118319617.039658,1397195.00142003,,,,0,9,218.708466840019,52.399,2175.04247661333,13462.0535824395,3.68823761713239,248.508470849393,52.399,2610.46936601937,15687.6218115325,3.49175396907445,52.399,532.41930907088,1397.19500142003,33.3103486065428,0,104.290520612108,0,98.7609258534089,0,470.656683935797,0,36.1642022219039,0,87.6906956736616,0,110.861146587312
-9.4735699,8.5450697,GIN,"Manzini - Eswatini",FALSE,43.102,1096.84397846855,22.3680314344588,47276169.1599514,964106.890888042,,,,0,6,521.231604618926,43.102,6186.56408948823,10237.9189866794,2.54200668677681,591.198235910866,43.102,7406.20596493349,12115.7804127013,2.40842322920337,43.102,483.519459224798,964.106890888043,20.623281269232,0,381.84093035688,0,24.1386002842274,0,51.1275681296145,0,92.2281815733878,0,71.602703788369,0,73.6796332136265
-9.716798,29.717562,MAR,"Tiznit - Morocco",TRUE,108.998,6238.3237,44.8746618567915,679964806.6526,4891248.39306656,,,,0,8,588.244745598381,108.998,18595.5764239083,44155.5641216066,2.41359824180572,642.339352209485,108.998,21085.8115387177,48383.2395084379,2.32429248612483,108.998,2188.84182525221,4891.24839306656,18.3067459422338,0,475.816715827414,0,50.6361810150226,0,149.810958157982,0,109.410336246519,0,1104.54691526161,0,28.8822681430137
-9.599649,30.433289,MAR,"Agadir - Morocco",TRUE,1070.86,6374.8461531175,58.0517269919173,6826567751.5274,62165272.3665645,MAAGA,Agadir,AI,593.66057139,8,1076.83547955075,1070.86,433365.406416144,466361.04959776,1.86262683075794,1176.60792982132,1070.86,491845.971784121,529618.178395118,1.79321923535401,0,3132.27150320001,0,54.8322050735725,0,1629.52043056925,0,84.7686833565354,0,1569.66481835116,0,86.9101890719552,1070.86,78879.7311401673,84130.7135079945,6.3821209410909
-5.986109,14.249942,MLI,"Niono - Mali",TRUE,128.619,2285.3071,33.8806562465947,293933913.8949,4357696.12578076,,,,0,9,697.195707062888,128.619,27971.7750558994,36278.6971095828,2.24407700834241,765.591018107895,128.619,31972.7657753852,40977.829204742,2.1558562162566,128.619,3366.97061710996,4357.69612578076,11.4066874049849,0,482.705820977003,0,41.6419188746426,0,291.300803144056,0,58.3120043731173,0,126.087084449652,0,101.907314301186
-8.8621101,31.2670689,MAR,"Dayr Mawās - Egypt",FALSE,41.579,6727.27118707371,36.8417125347524,279713208.687338,1531841.56548247,,,,0,8,564.247531770863,41.579,6683.81777394054,47928.3361366345,2.45706783999903,637.597862985603,41.579,7958.82857568917,53461.8030734395,2.33168448340272,41.579,856.730972042483,1531.84156548247,36.6833682455202,0,848.026723670455,0,36.9339557896843,0,779.277436697097,0,39.0754615044058,0,859.096140769953,0,36.6160089121998
-9.551909,13.355745,MLI,"Balandougou - Mali",TRUE,1631.251,2258.59960670909,27.9096560141396,3684342867.04381,45527654.2827213,,,,0,9,485.701400049779,1631.251,211675.651477952,222533.820698421,2.62009642800955,555.775052886764,1631.251,256616.603622973,273445.171397896,2.47305130939807,0,1993.15018849978,0,65.78395035133,0,768.862486246822,0,124.140698609453,1631.251,41547.9798192947,45527.6542827212,8.68520402216117,0,619.716011313008,0,143.334748325192
-9.1929197,14.5529394,MLI,"Cahama - Angola",FALSE,43.276,2285.3071,27.938885275401,98898950.0596,1209083.19917825,,,,0,9,215.253363120475,43.276,1755.95084845969,15370.9987934566,3.7134941513128,269.102126075291,43.276,2415.66608989606,17692.8324059678,3.37462390756459,43.276,618.103550719337,1209.08319917825,31.577867327958,0,114.75901910691,0,97.0284446691524,0,542.871820570561,0,34.431722973448,0,92.4654913078845,0,112.056529327023
-8.816789,7.750291,GIN,"N’Zérékoré - Guinea",TRUE,195.027,1164.86349690503,28.8972795876179,227179833.210898,5635749.74613435,,,,0,6,648.472477143846,195.027,38243.9087108849,48184.4053399861,2.31484574106113,693.579441477683,195.027,42100.1090338595,54281.0853413772,2.24908449462538,195.027,3776.33170953515,5635.74974613436,13.2961129688615,0,914.379097042828,0,34.2258251279066,0,176.907249218958,0,102.315406417754,0,338.743982575949,0,66.3524648492619
-8.1639996,7.2641697,CIV,"",FALSE,0,3149.8581711304,28.2093242708592,0,0,,,,0,12,897.904212640422,1e-06,0.000312161701708889,4221.35631491272,2.79832816204399,516.057004736142,1e-06,0.000141501812489836,6097.29388020466,2.61705689829716,1e-06,179.672080526009,2.82093242708592e-05,27.431581852224,0,211.96208264836,0,24.5696591241023,0,20.5420008423766,0,116.450874872257,0,60.4678894287968,0,56.6962990007551
-7.5722198,9.5049696,CIV,"Bariadi - Tanzania",FALSE,86.279,3289.988,39.2309187365728,283856874.652,3384804.43767277,,,,0,12,876.269015816876,86.279,26010.7277353625,30192.2860308662,2.0346424132687,859.92326423359,86.279,25320.3668082588,33979.6522907959,2.0511284038469,86.279,2806.76556148679,3384.80443767276,10.8143737809969,0,546.307958236879,0,32.1993509551893,0,145.028725720836,0,77.9535890195993,0,114.433117779215,0,91.293035739363
-8.002662,12.639193,MLI,"Bamako - Mali",TRUE,4552.105,2286.20141850059,45.3510168389582,10407028908.1636,206442590.507706,,,,0,9,706.800037499518,4552.105,1009521.42473084,1100181.1974902,2.23095756470024,748.458568615584,4552.105,1095584.36832679,1190504.16667973,2.17686876874043,0,6264.17785287415,0,71.9576229841336,0,4906.40289579397,0,84.6858250735948,4552.105,194034.624956227,206442.590507706,7.29569558784563,0,2031.64001786402,0,152.436284961141
-9.166742,11.416769,GIN,"Siguiri - Guinea",TRUE,183.875,1135.4866,32.4018248026735,208787598.575,5957885.53559159,,,,0,6,460.718783044255,183.875,22126.3993781951,55995.9653433727,2.68006842251804,501.447766159583,183.875,24972.8195690658,59627.6574330597,2.58451375293912,183.875,3352.85681939819,5957.88553559159,17.6089721874993,0,732.449644971306,0,48.5466013018266,0,668.691230228888,0,51.5854148701007,0,255.031971938617,0,98.087634268908
-7.4854398,11.42488,MLI,"Souk Ahras - Algeria",FALSE,95.222,2285.3071,32.0476990885096,217611512.6762,3051646.00260606,,,,0,9,402.683972588108,95.222,9453.54161528922,44664.4295780008,2.83925981238881,454.767075658314,95.222,11247.5609556095,49434.1038046929,2.69504486099209,95.222,1935.38664495782,3051.64600260606,23.3743000984851,0,1008.253431506,0,36.1025021905266,0,571.605767311244,0,52.7051079913453,0,206.655672854117,0,103.852962080199
-9.233368,32.283274,MAR,"Safi - Morocco",TRUE,395.857,6780.39513730578,50.0776184680819,2684066877.86845,19823575.8139195,,,,0,8,1010.41399054827,395.857,146271.550684167,172452.48110232,1.91414950040786,1101.53563988901,395.857,165474.148293292,193497.903906462,1.84461088844737,0,1429.98577136188,0,48.6184527577969,395.857,14349.888040192,19823.5758139195,10.4501679267403,0,1330.58755654747,0,51.0105460661411,0,1432.96272383238,0,48.5510934883436
-8.500158,33.233179,MAR,"El Jadid - Morocco",TRUE,467.017,7268.41013196153,54.5650407804857,3394471094.59828,25482801.6501801,,,,0,8,854.096225669039,467.017,135731.033893157,236842.7607723,2.0571140724873,974.318153634847,467.017,163826.766586556,258088.830960565,1.94422563221207,0,1616.31302108477,0,57.2236853039825,467.017,18749.2442636008,25482.8016501801,11.1670114140723,0,1520.01325617779,0,59.6157787066884,0,2667.48965733553,0,40.975504426392
-8.3035603,32.2542381,MAR,"Funtua - Nigeria",FALSE,139.815,6725.98050128035,37.1479411148004,940392963.786512,5193839.38696582,,,,0,8,807.094443453814,139.815,37478.5219792086,58782.1172671098,2.10762678508287,834.951694630299,139.815,39340.0858067662,57548.1139194975,2.0771978044069,139.815,838.519404950083,5193.83938696582,34.8195515154026,0,1828.19483427281,0,20.708577435515,0,758.978676505908,0,37.2116449262691,0,479.833584009631,0,50.5170704225507
-8.2107401,31.9539585,MAR,"Ouled Fayet - Algeria",FALSE,38.613,6720.5864,38.3004049757337,259502002.6632,1478893.53732801,,,,0,8,640.236905406969,38.613,7434.83442517901,24325.1655198403,2.32756055725253,708.179692765581,38.613,8587.10313175821,28598.4500209034,2.2290939633502,38.613,384.430041881771,1478.89353732801,39.4286426969039,0,747.135766191245,0,25.3176672862329,0,528.707293553745,0,31.8820695808732,0,232.540407400635,0,55.1261615805985
-8.008349,31.630015,MAR,"Marrakech - Morocco",TRUE,1132.514,6720.5864,58.6646890573813,7611158186.2096,66438581.6631311,,,,0,8,1039.54773667712,1132.514,435813.775266384,506091.043984289,1.8909720216014,1127.37602691455,1132.514,489352.110013883,560376.678403493,1.82637077754253,0,2831.58632171289,0,62.0234301699133,0,4170.52610576597,0,47.9124547508126,1132.514,55068.2120307811,66438.5816631311,8.57646528729262,0,2836.20537440971,0,61.9560708467242
-7.6750998,8.2902699,CIV,"Krugersdorp - South Africa",FALSE,55.013,3186.43542100719,24.1835686231057,175295371.815869,1330410.66066291,,,,0,12,515.708652945814,55.013,7776.93358608601,14104.6711014321,2.55363838394495,557.747853990645,55.013,8698.16538460929,15746.9193344081,2.46929863522862,55.013,548.042613080424,1330.41066066291,23.1647596891765,0,583.585282282953,0,22.2143936918867,0,71.2025794048142,0,90.3039749423254,0,84.0231879571836,0,80.8669844056561
-7.583329,33.53329,MAR,"Casablanca - Morocco",TRUE,4219.891,9656.635,70.9405986874118,40749947126.785,299361593.935621,MACAS,Casablanca,AI,2434.0279715,8,1146.40653725668,4219.891,1867517.28900376,2021568.29116865,1.81331517882057,1183.02028453078,4219.891,1953303.30308672,2126236.06946061,1.78904712368151,0,5474.91807295785,0,95.2308551962011,0,7644.02077004546,0,76.2339100352317,0,7148.51304763658,0,79.7172468774219,4219.891,373273.601944964,389420.628881121,5.7061683759719
-7.9837198,32.2262306,MAR,"Qillīn - Egypt",FALSE,132.168,6742.80992422409,43.2105007592418,891183702.06485,5711045.46434747,,,,0,8,680.572347796282,132.168,27769.5734926339,83644.9455178613,2.26740681811334,744.973542318232,132.168,31598.3409273811,90541.776202594,2.18122731122983,132.168,1042.50213215768,5711.04546434747,42.7775228843174,0,1900.36614232739,0,28.6665487890381,0,1829.25574647946,0,29.4047380489424,0,1044.96934096054,0,42.7101635519678
-7.59407,7.3604698,CIV,"Pikine - Senegal",FALSE,241.969,3331.50044575431,31.6783867627629,806119831.358724,7665187.56659899,,,,0,12,666.238355947731,241.969,49316.9208359216,56748.5638856768,2.28818661325417,717.82907416919,241.969,54861.7175410602,64270.9880927232,2.21620236774147,0,819.972142873198,0,40.5900886855539,241.969,5655.5290303956,7665.18756659898,11.2022151196293,0,189.639288862179,0,107.729303924581,0,363.190653585587,0,69.8548058412983
-7.408295,32.048099,MAR,"El Kelaa des Srarhna - Morocco",TRUE,223.364,6725.77294838356,38.3125407240053,1502295548.84275,8557642.34627671,,,,0,8,753.009780738016,223.364,54226.0477742491,86027.1439066003,2.1712202629933,841.646968450725,223.364,63569.6580859087,95762.3198695403,2.07009990957677,0,673.39864014797,0,56.3991971784709,223.364,4673.90995318617,8557.64234627672,15.5000887408892,0,1519.15179373227,0,32.7884055549486,0,674.606835476681,0,56.3318378426947
-6.26652,13.449454,MLI,"Ségou - Mali",TRUE,240.936,2285.3071,34.5068161376911,550612751.4456,8313934.25295074,,,,0,9,538.859102017956,240.936,36265.0903647603,90804.4140619954,2.50602944692059,595.338070299964,240.936,41814.7381638821,96056.7156921147,2.40123137790483,0,2466.80916291545,0,27.5864275900434,240.936,3101.41456906043,8313.93425295074,23.6816859216055,0,1394.39186643497,0,40.3517714336263,0,278.532138440494,0,118.087054480862
-7.350092,6.733084,CIV,"Duekoué - Côte d’Ivoire",TRUE,284.596,3302.72447034709,26.4823462879371,939942173.3629,7536769.82416175,,,,0,12,659.088728524988,284.596,57117.7499094654,57405.2279815225,2.29879172762699,724.254603048586,284.596,65353.2736527524,65571.7852717926,2.20775434935143,0,542.985268460267,0,53.9390619850082,284.596,7372.01808571565,7536.76982416175,9.4777335036354,0,161.452131313164,0,121.078277193757,0,382.500880890403,0,68.1303251025161
-6.841593,34.020894,MAR,"Rabat - Morocco",TRUE,1891.455,7891.94605770258,67.9275739994679,14927260830.5718,128481949.479164,,,,0,8,971.753697872381,1891.455,661017.643011146,811321.935951518,1.94642290008114,1109.767541931,1891.455,799110.937639161,978448.783920743,1.83873438223237,0,3007.8665260251,0,86.9705110008733,0,6729.93702983273,0,50.8397877065263,1891.455,113555.663413466,128481.949479164,7.72808451506494,0,5392.74175330037,0,58.9302088060644
-6.5227799,32.8590393,MAR,"Randburg - South Africa",FALSE,178.623,9675.0688844993,45.6605596927238,1728189829.35592,8156026.1539934,,,,0,8,565.303879658315,178.623,28790.4442097126,98345.2894577542,2.45509905731776,662.803783631729,178.623,36138.2364874664,114693.772372616,2.29326077434968,178.623,1194.27423560588,8156.0261539934,48.09249316899,0,2537.93321193786,0,29.0955480069461,0,2141.98131856753,0,32.5788848707985,0,1499.40552852005,0,41.3238327914652
-6.4903197,9.5225697,CIV,"Kikuyu - Kenya",FALSE,92.792,3289.988,40.8585933304043,305284566.496,3791350.59231487,,,,0,12,770.647946566418,92.792,23284.6748865515,31829.2418450372,2.14978205693366,780.813995045331,92.792,23724.71386191,33430.348954763,2.13774146611992,92.792,1825.95454322314,3791.35059231488,14.8498641331482,0,1059.90497964537,0,21.3404955290603,0,130.889806475742,0,86.0554878704309,0,105.048978727626,0,99.6447828544895
-5.666994,11.316457,MLI,"Sikasso - Mali",TRUE,315.73,2285.3071,34.5993127669643,721540010.683,10924041.0199136,,,,0,9,731.24461068576,315.73,73504.4391208121,91021.371478281,2.19868497951239,775.853632296877,315.73,79993.059940791,97744.7832325174,2.14358829744785,0,2009.95699881318,0,28.5591925919448,315.73,7141.27875366994,10924.0410199136,12.2655335703898,0,523.616551115431,0,70.0156070831908,0,230.010757271596,0,121.163461135244
-6.36073,32.339077,MAR,"Béni Mellal - Morocco",TRUE,559.315,9578.10692231839,51.2521768542167,5357178873.25651,28666111.2972162,,,,0,8,1022.23263728704,559.315,210132.316650832,224384.248230223,1.90463342204877,1091.12080190346,559.315,230650.504915065,245313.777320566,1.85213625316147,0,1046.05374085613,0,70.434412178717,559.315,25208.6155772064,28666.1112972162,8.442185592161,0,1929.89575387577,0,46.8236205870623,0,1217.22967307834,0,63.6657518039191
-6.9510198,6.7373199,CIV,"",FALSE,0,3289.988,26.0983083598812,0,0,,,,0,12,1030.65218625557,1e-06,0.000380124187506146,821.979352138992,2.5697914245033,710.726607337567,1e-06,0.000223532372204905,586.527495053915,2.2662469182339,1e-06,4.70278429986048,2.60983083598812e-05,56.5712932195074,0,63.4990492680282,0,9.97672472299601,0,1.45425090771885,0,123.710508300303,0,3.89084142231531,0,64.1904559276804
-6.59448,6.48704,CIV,"",FALSE,0,3289.988,30.2351215412896,0,0,,,,0,12,792.327347859164,1e-06,0.000261079010656471,3237.47196873376,3.02650309264122,517.191778016046,1e-06,0.000141946525558279,3429.79405144627,2.61445371028495,1e-06,30.7434929189146,3.02351215412896e-05,60.5885901527188,0,276.965500908261,0,13.9940214039117,0,10.044106523816,0,127.727804365574,0,35.0311969045329,0,55.537927388995
-6.450154,6.883246,CIV,"Daloa - Côte d’Ivoire",TRUE,466.205,3289.988,31.5809428623859,1533808855.54,14723193.4671586,,,,0,12,689.147483307568,466.205,99721.3642649805,102339.214218418,2.25527228532006,756.162928221085,466.205,113858.175883357,116993.135476426,2.16733541261752,0,898.853438116047,0,55.6639205397674,466.205,13667.3777815766,14723.1934671586,9.06935179042534,0,267.474801094325,0,124.885245512377,0,706.365934729043,0,65.3651932633773
-5.51861,33.8304405,MAR,"Ibadan - Nigeria",FALSE,713.763,5725.32862494757,52.8535171786926,4086527735.32846,37724884.9820151,,,,0,8,939.897511339681,713.763,237843.613561844,301661.329310863,1.97442697610302,1028.76860082256,713.763,270610.496874601,334693.196032033,1.89943804825742,0,1015.2650221467,0,90.643522216649,713.763,30531.764105082,37724.8849820152,9.37321236681314,0,4566.80023402531,0,33.2645545871906,0,1534.3610489716,0,68.828981908959
-6.633194,4.750108,CIV,"San-Pédro - Côte d’Ivoire",TRUE,390.654,3573.43717303907,31.4114659961222,1395977525.39641,12271014.8372491,CISPY,San-Pdro,AI,2312.50202864,12,1378.89907663133,390.654,225070.348372858,287457.486900432,1.67534574243904,1437.01552096793,390.654,238743.254096102,310511.30902415,1.64596526277023,0,388.783315752849,0,141.688260100932,0,707.100038946309,0,95.0936913240802,0,221.237096187528,0,206.332186534091,390.654,93951.7707714013,97833.5898969291,3.65204090706276
-6.600167,5.783308,CIV,"Soubré - Côte d’Ivoire",TRUE,310.768,3216.67761193904,26.8544558285881,999640468.107073,8345505.52893867,,,,0,12,369.90038806187,310.768,27328.0379506314,75288.7907223364,2.94449394093885,383.182631479497,310.768,28740.5871291847,85645.148562745,2.90031061857142,0,766.232703582946,0,67.2985800799079,310.768,4490.42857324578,8345.50552893867,20.7040112751244,0,279.120953935467,0,131.942506546405,0,1683.19281848814,0,39.8251216408196
-4.034,5.317569,CIV,"Abidjan - Côte d’Ivoire",TRUE,9022.419,3473.84868051719,53.7001420652593,31342518338.2232,484505182.072294,CIABJ,Abidjan,AI,3248.84543344,12,700.628225009056,9022.419,1975990.83310402,2025558.87079014,2.23935878009905,752.847305545753,9022.419,2189696.30045246,2241879.3857945,2.17142106997283,0,4316.77157053751,0,140.296282936241,0,4796.91904937563,0,130.770750739865,0,2445.04891364248,0,204.94020937905,9022.419,598221.189886926,604712.463109575,5.23895114444866
-5.93669,6.13259,CIV,"Gagnoa - Côte d’Ivoire",TRUE,277.044,3292.32142843847,37.4502145097444,912117897.820308,10375357.2286376,,,,0,12,590.478802480252,277.044,47521.6660147901,67303.6337573476,2.40968032257767,627.146447660623,277.044,51792.8412808853,73861.8406673476,2.34825912882873,0,597.47100001796,0,58.2749017413243,277.044,6541.98691586439,10375.3572286376,11.8182450101708,0,195.034543504859,0,122.918828211172,0,737.017818977472,0,50.6649297547867
-5.900032,35.008948,MAR,"Ksar El Kebir - Morocco",TRUE,481.749,7708.3994,48.126429375983,3713513702.5506,23184859.2254504,,,,0,8,668.620412153725,481.749,98689.5865848111,241414.25540456,2.28468938268266,801.017396954069,481.749,127749.837010459,286251.230894095,2.11446477991456,0,1599.06337507077,0,67.161684456642,481.749,15437.0919991763,23184.8592254504,14.8134097493973,0,3406.60842173811,0,40.5649134493364,0,2902.64210531377,0,45.1339181512313
-5.667584,32.939324,MAR,"Khénifra - Morocco",TRUE,381.704,5810.59514758978,38.7930319415803,2217927410.21561,14807455.4642289,,,,0,8,821.424656990287,381.704,104923.920713834,128493.437119684,2.09178949121389,875.250423162431,381.704,114882.136182555,143327.831162424,2.03565688341666,0,659.802804097709,0,73.5612035635945,381.704,10579.0086198888,14807.455464229,11.5689768005154,0,1971.39392740774,0,35.4603203390806,0,762.597586598231,0,66.7925431783464
-5.759602,10.555472,MLI,"Kadiolo - Mali",TRUE,317.492,2328.09481993824,27.1998768923998,739151480.571833,8635743.31432181,,,,0,9,724.92780454092,317.492,73004.1856567416,75855.7255275275,2.20687578182183,783.782507434994,317.492,81616.4100849023,84436.3835696663,2.13426776499397,0,1349.23407666286,0,33.6416369876856,317.492,7476.1154976801,8635.7433143218,10.7436368377716,0,401.642456188585,0,75.4586292341096,0,204.255767425124,0,118.43655570335
-5.6370897,9.4510393,CIV,"Nneyi-Umuleri - Nigeria",FALSE,286.071,3289.988,35.5292803371237,941170157.148,10163896.7553213,,,,0,12,804.26412339476,286.071,76299.730951773,83425.9663938609,2.11080296089175,888.749426355608,286.071,88002.5680135474,94593.3890141717,2.02234787077199,0,2022.60141848163,0,26.2516243255963,286.071,7183.67918636841,10163.8967553213,11.2771260008775,0,384.207244896558,0,79.4424603165806,0,256.334093775821,0,104.046019513302
-5.30024,6.8373399,CIV,"Arzew - Algeria",FALSE,37.253,3289.988,41.8178867554655,122561922.964,1557841.73530136,,,,0,12,402.385538747267,37.253,3694.52425619679,13057.9892759379,2.84016219929152,439.285110218668,37.253,4187.86793190488,14326.1848180092,2.73534933613663,37.253,298.100182257928,1557.84173530136,36.1569401758714,0,749.123543771211,0,19.5612919067781,0,59.9132917276019,0,105.378265181802,0,98.0968603249509,0,75.8571333762509
-5.7609501,12.9448795,MLI,"Béni Mellal - Morocco",FALSE,89.799,2275.85166218126,32.5280080868355,204369203.412215,2920982.59818974,,,,0,9,626.703618524283,89.799,16770.818275095,22829.6356264662,2.34897023698854,700.42978790664,89.799,19658.8309934486,24889.6748142166,2.23963094341662,89.799,1675.04800124829,2920.98259818974,13.5364391753574,0,404.379448447411,0,34.9137547729983,0,225.171490777486,0,51.5838404148587,0,56.7269956728718,0,129.319123447403
-5.0414901,6.5430398,CIV,"Chipata - Zambia",FALSE,39.005,3289.988,39.0763581540411,128325981.94,1524173.34979837,,,,0,12,296.076305099158,39.005,2495.60895269369,16716.5585357858,3.23925724353663,380.142860351662,39.005,3566.4671572517,18308.9457379481,2.91022744528848,39.005,424.992635551995,1524.17334979837,35.7641757795862,0,676.303545546849,0,26.2386436204607,0,90.3442667830132,0,100.408102256765,0,173.112762667466,0,65.0853281758728
-4.6909499,5.9060397,CIV,"",FALSE,0,3289.988,32.1998889870533,0,0,,,,0,12,457.495046189705,1e-06,0.000119132868956483,39252.8986216302,4.3244049559444,252.137464065765,1e-06,5.08616154642525e-05,50875.988777912,3.64878247440625,1e-06,887.810397739197,3.21998889870533e-05,54.234594470099,0,1186.15510159876,0,44.7090622758153,0,273.577094769741,0,118.878520928655,0,1113.8118455016,0,46.6246223279161
-5.803895,35.77671,MAR,"Tangier - Morocco",TRUE,1007.037,7897.3692983517,60.3686019577755,7952943086.1042,60793415.8097524,MAPTM,Tanger Med,AI,29213.26830742,8,4168.40457704144,1007.037,2817802.52606947,2965503.61062809,1.04280423756958,4457.91981311997,1007.037,3101495.16706094,3271635.60935241,1.01322199998665,0,3311.62144144087,0,100.504946840404,0,3781.3340303575,0,91.9993021980635,0,2611.41570051262,0,117.750805897032,1007.037,1131273.59931699,1141684.34318429,2.05669295595211
-5.003295,34.043295,MAR,"Fès - Morocco",TRUE,1380.105,4852.60936283408,54.7499901257426,6697110444.69412,75560735.122488,,,,0,8,922.058577695725,1380.105,447467.027688375,521834.315336646,1.99070836557268,980.191237698611,1380.105,488306.945250212,602701.318790143,1.93922447539416,0,1936.50820522518,0,89.0601216544572,0,6522.0838253979,0,39.6374092591965,1380.105,62604.2259597888,75560.735122488,8.77594201022024,0,2523.48963797614,0,74.6497735299369
-4.31988,35.1186104,MAR,"Niangoloko - Burkina Faso",FALSE,87.889,5072.45692357448,40.7110698682004,445813166.556038,3578055.21964627,,,,0,8,319.262375017855,87.889,6262.79280584177,53653.4026724789,3.13626144563543,582.960081877586,87.889,14802.2156169674,62506.248594354,2.42295113048835,87.889,763.800955496198,3578.05521964626,45.6709606218855,0,1040.47984403163,0,37.1653160446192,0,472.378664225701,0,62.9168197394406,0,2011.89014463115,0,23.9455106204842
-5.466706,12.38318,MLI,"Koutiala - Mali",TRUE,173.39,2285.3071,34.2337289247921,396249398.069,5935786.2582697,,,,0,9,779.909289676547,173.39,44258.3496074617,50973.4400570801,2.13880392378434,834.530827321049,173.39,48752.0377498185,55808.0365568724,2.07764669581281,173.39,4216.36650049789,5935.7862582697,11.6254727832079,0,1000.44710855438,0,30.3323997554006,0,390.471442302059,0,56.7949875761725,0,107.10858121564,0,134.530270571014
-4.88414,13.22997,MLI,"Techiman - Ghana",FALSE,62.939,2285.3071,27.7750123769379,143834943.5669,1748131.5039921,,,,0,9,674.854666623818,62.939,13065.5706053837,14898.5874405622,2.27562006373321,727.423252905672,62.939,14543.4299832305,16497.6153669529,2.20362765573193,62.939,1356.06700564429,1748.13150399209,11.6564122092825,0,221.610538206294,0,38.9964785504796,0,129.938207257536,0,55.6665641495443,0,35.0256118908441,0,133.401847199972
-5.1606898,9.9698601,CIV,"",FALSE,0,3219.81194498956,23.6325528252283,0,0,,,,0,12,1046.89312568125,1e-06,0.000388710093589198,2607.97569026441,2.54530609848077,653.423188790572,1e-06,0.000198237629645235,2031.11485191902,2.35308243121566,1e-06,66.0067444693046,2.36325528252283e-05,23.1065223156467,0,90.3342952395315,0,18.7452694613302,0,12.3814987425053,0,70.5144276405521,0,6.0529490043593,0,113.627152029366
-5.31213,8.7883997,CIV,"",FALSE,0,3289.988,26.5663110545579,0,0,,,,0,12,1021.8829341804,1e-06,0.000375512243192141,4041.91930565909,2.58331616453031,635.807585053753,1e-06,0.000190647279862479,3830.34172919069,2.38209134199791,1e-06,90.927839174684,2.65663110545579e-05,28.8393528901038,0,224.603919168618,0,15.7823572978902,0,18.9545977442625,0,82.030188812483,0,13.9049089919191,0,100.848937211169
-5.199932,9.583411,CIV,"Ferkessédougou - Côte d’Ivoire",TRUE,160.267,3267.52578171889,28.1654532445121,523676554.458741,4513992.69513822,,,,0,12,644.371488068831,160.267,31144.0862608553,40443.4590434062,2.32114830450002,722.849313435369,160.267,36700.981204458,45120.6826745008,2.20959279611718,160.267,2162.58449785463,4513.99269513822,16.7461108959095,0,1416.8042587158,0,22.2001606633477,0,253.386822881391,0,69.9369468990396,0,133.397104642173,0,107.266740610469
-4.93154,12.8220196,MLI,"Siliana - Tunisia",FALSE,24.889,2270.88540033439,28.0674148072147,56520066.7289225,698569.887136766,,,,0,9,756.061162766669,24.889,6077.30789732165,6428.53170467484,2.1674605122676,799.733987654573,24.889,6584.9446747536,7202.33206378231,2.11591838407495,24.889,576.068779898139,698.569887136767,11.3980733058901,0,112.833956619722,0,33.7951564137323,0,52.1038733394319,0,56.5675886834322,0,14.242740514906,0,134.302871616001
-4.805582,12.183353,MLI,"Kouri - Mali",TRUE,137.964,2215.83852651061,27.169998873553,305705946.47151,3748481.72459086,,,,0,9,711.466252393725,137.964,30885.2793243507,34731.5457711926,2.2246749834489,745.935996660328,137.964,33044.924436901,38867.5279550719,2.18002071293221,137.964,2585.38298133373,3748.48172459087,13.2791000330197,0,809.844159614047,0,28.7906142049627,0,279.973235602421,0,58.448614676262,0,78.7207475372306,0,136.183897792365
-4.8452396,10.9798899,BFA,"Tiko - Cameroon",FALSE,33.422,1561.522,23.9344297130372,52189188.284,799936.50986913,,,,0,13,579.236302881102,33.422,5577.61919223205,7842.98861691797,2.4296146032157,656.528144604137,33.422,6670.51986981782,8435.85323927788,2.30262991368096,33.422,250.73649115724,799.936509869129,23.9974515343452,0,445.148675368207,0,16.3671638028692,0,48.8505029053101,0,71.4053568148747,0,21.0242320044206,0,125.265091455941
-5.016623,7.683365,CIV,"Bouaké - Côte d’Ivoire",TRUE,659.233,3289.988,40.2539059826232,2168868659.204,26536703.2026426,,,,0,12,791.404307593642,659.233,171825.534123857,183000.823099041,2.12543552721801,859.718179625668,659.233,193399.7224034,208805.554027713,2.05133808574965,0,2299.75915056157,0,41.4391053378528,659.233,23448.4765402092,26536.7032026426,8.81296786288071,0,666.430793712855,0,94.6299411600814,0,674.437075549999,0,93.8795465403039
-3.2846298,9.6600199,CIV,"",FALSE,0,3217.02361233922,19.5825015048918,0,0,,,,0,12,796.404565678752,1e-06,0.000263000382159101,4551.47817006219,3.01672747116095,487.162460892347,1e-06,0.000130320767459536,4391.87559964122,2.68639699327019,1e-06,175.180421013973,1.95825015048918e-05,23.0115833459102,0,86.8950741382711,0,36.7231652839158,0,57.5472997481102,0,48.334093665072,0,15.4554120636406,0,116.113617251594
-4.758877,10.630955,BFA,"Banfora - Burkina Faso",TRUE,126.236,1561.522,24.6889188876878,197120291.192,3116630.36470615,,,,0,13,639.072005117179,126.236,24243.2649397528,29535.4418520322,2.32937798153139,701.796368036414,126.236,27712.6917880352,32598.7506072739,2.23776084022829,126.236,1359.63487454731,3116.63036470616,18.6065609283538,0,1197.9037174626,0,20.2457109189672,0,203.452381919249,0,66.0144669557397,0,83.1443749034749,0,119.874200888979
-4.1257401,6.7047696,CIV,"Cidade de Nacala - Mozambique",FALSE,74.281,3289.988,36.3507584903294,244383598.628,2700170.69142016,,,,0,12,617.113357540789,74.281,13570.4105503475,21363.278367628,2.36454588505312,610.16552518563,74.281,13352.6756524555,23260.195024147,2.37604766407299,74.281,1607.42286828285,2700.17069142016,14.1094674207696,0,319.201044917628,0,41.4528613101336,0,121.896758308437,0,78.7533938968265,0,127.939912927953,0,76.2535409902368
-3.98735,7.06142,CIV,"Ilesa - Nigeria",FALSE,101.136,3289.988,30.9159129234854,332736226.368,3126711.76942962,,,,0,12,591.404601352115,101.136,17386.8402583311,28728.758836295,2.4080628560112,651.645290041424,101.136,19971.0760793198,35584.2388114474,2.31000865870368,101.136,1915.23967422338,3126.71176942962,16.204537547883,0,687.10838963778,0,32.0948408894412,0,216.113708965771,0,69.3953733732954,0,180.14870053583,0,78.3486117174394
-4.016502,34.216732,MAR,"Taza - Morocco",TRUE,215.147,4756.2676,43.2527353559962,1023296705.3372,9305696.25363651,,,,0,8,698.934057028686,215.147,46956.4429833927,73246.0848954484,2.24168376446951,756.674144831391,215.147,52594.6892531578,94289.716829409,2.16670774583729,0,643.931877418302,0,60.1935476401569,215.147,8507.2806571939,9305.69625363651,10.7708352539929,0,613.351887208651,0,62.1780006372798,0,506.097918993842,0,70.6784238235006
-4.1851397,14.0335598,MLI,"Rubengera - Rwanda",FALSE,35.513,2285.3071,26.5762081399309,81158111.0423,943800.879673367,,,,0,9,696.247953436954,35.513,7708.29449971395,8394.64458289995,2.24538555042974,746.903253477704,35.513,8521.78016853415,9267.05359751186,2.17881033582479,35.513,916.520003591887,943.800879673366,10.1879290287333,0,89.9370699420969,0,47.8874142274187,0,74.6955881606088,0,54.1980809619116,0,17.5588677930683,0,142.292782370345
-3.4726,12.4589195,BFA,"Al Marj - Libya",FALSE,63.617,1561.522,23.9784948796488,99339345.074,1525439.90875862,,,,0,13,536.681759983067,63.617,9520.24819538564,14852.6746406304,2.51038204936215,608.065491547234,63.617,11379.540629807,16634.083733014,2.37956105415818,63.617,912.801488221073,1525.43990875862,16.478280122692,0,327.486865868221,0,32.636244884771,0,174.15044365726,0,49.7217475761073,0,37.5725197085154,0,138.223714907717
-4.283237,11.183756,BFA,"Bobo-Dioulasso - Burkina Faso",TRUE,903.887,1563.71297280047,35.5323045529694,1413419827.8457,32117188.1654698,,,,0,13,792.335863499243,903.887,235989.546983686,253352.764700058,2.12436372062533,856.531298184448,903.887,263770.937239395,283267.092983518,2.05460563464033,0,4579.59941314032,0,32.1346986228031,903.887,25090.5242174887,32117.1881654699,10.3399729304538,0,1578.11895381688,0,65.3781661713385,0,541.431692780316,0,133.402338541148
-3.4547899,10.1577702,BFA,"",FALSE,0,1561.522,18.5995770061625,0,0,,,,0,13,854.670061714487,1e-06,0.000290913024501985,901.515620112004,2.8858232302849,490.036481047671,1e-06,0.00013142048119133,988.937134378701,2.6792242714282,1e-06,34.0738422158189,1.85995770061625e-05,25.3031225401014,0,31.0120834273167,0,26.9422727544129,0,9.65033906707657,0,58.67140360417,0,3.04999597422625,0,126.450927444272
-3.932213,35.247186,MAR,"Al Hoceïma - Morocco",TRUE,157.146,5081.60594467335,48.3370623895879,798554047.781638,7595976.00627419,,,,0,8,584.769466013088,157.146,26583.8700663593,74776.3778990597,2.41973526152538,704.378201230434,157.146,34679.8404336221,73895.3933468733,2.23424187725336,157.146,1750.27170157127,7595.97600627418,27.0897366892844,0,1957.92909760153,0,25.1387564667779,0,368.493269442307,0,76.5459219093617,0,1071.44744550639,0,37.5746129216025
-3.8383498,11.7186594,BFA,"",FALSE,0,1561.522,21.1535394343159,0,0,,,,0,13,1019.340636066,1e-06,0.000374178354192447,2538.38766559207,2.58727116302877,601.262977455676,1e-06,0.000176023923393248,3795.95125657938,2.44261921679949,1e-06,128.695076596789,2.11535394343159e-05,23.318193329343,0,144.325496509776,0,21.6026724283829,0,34.0659929132405,0,56.5616608499134,0,8.78565548880254,0,139.600425769134
-3.516123,11.495237,BFA,"Houndé - Burkina Faso",TRUE,102.324,1561.522,23.1279888600729,159781177.128,2366548.3321181,,,,0,13,619.050245606442,102.324,18777.465514147,24394.1668527423,2.36137240915087,692.438047457823,102.324,22036.5776712563,26598.2731935198,2.2506726006446,102.324,1108.98241065291,2366.5483321181,18.7182329074546,0,839.337815373948,0,22.5384178052756,0,239.771133091774,0,51.9617004745198,0,57.2557391449386,0,135.000466343825
-3.2551699,10.9504795,BFA,"Abū Za‘bal - Egypt",FALSE,25.688,1559.68196236009,20.0266158993534,40065110.249106,514443.709222591,,,,0,13,527.53474703199,25.688,3750.93898583187,6921.33457591625,2.52894519704935,612.420442622966,25.688,4642.04600882372,8126.27249201641,2.37229433744193,25.688,302.507909947788,514.44370922259,21.2783690044032,0,272.866621776423,0,22.7927057216156,0,73.7545003165209,0,54.5218365430261,0,19.9457310381761,0,130.375560351852
-4.031478,6.172398,CIV,"Adzopé - Côte d’Ivoire",TRUE,156.488,3289.988,28.5378806552521,514843642.144,4465835.86797909,,,,0,12,430.508119501652,156.488,17091.9314368042,31774.1479175566,2.75911168833911,445.271569134916,156.488,17935.3806407226,35550.9408938699,2.71952745927825,156.488,2241.56165459348,4465.83586797909,17.166972914652,0,336.140325712245,0,60.8200963011974,0,215.463902289418,0,81.810899388729,0,320.862970372282,0,62.7356566484937
-4.183454,14.484661,MLI,"Mopti - Mali",TRUE,175.604,2287.68401478936,27.9093141499409,401726463.733071,4900987.20198623,,,,0,9,712.173546079617,175.604,39367.3912077985,39631.5316651881,2.22372895368907,763.230951169159,175.604,43460.4254573483,43808.2388191176,2.15871070352124,175.604,4687.53578176367,4900.98720198622,9.57786203474259,0,363.626778155434,0,52.6576009382754,0,354.197887524008,0,53.5880141186647,0,79.6900800469057,0,144.864553552712
-3.5236499,14.0762997,MLI,"Kamsar - Guinea",FALSE,105,2285.3071,24.7752788915821,239957245.5,2601404.28361612,,,,0,9,683.879236382715,105,22214.6514175612,22359.305152476,2.26269970197813,731.951432396188,105,24478.5916240567,24648.5482855163,2.19777473934899,105,2478.6863428297,2601.40428361612,10.1631817441404,0,216.550574756025,0,51.6183970917674,0,214.558787160397,0,51.9373600683695,0,45.782139258546,0,145.449875424999
-0.04122,16.2347698,MLI,"Catabola - Angola",FALSE,49.483,2285.3071,23.3834754351307,113083851.2293,1157084.51495657,,,,0,9,460.998536799878,49.483,5959.64917882632,9310.7400173461,2.67937139648395,517.613626643109,49.483,7032.12577198979,9985.45266935163,2.54960636042683,49.483,719.269067106515,1157.08451495657,14.7273310635403,0,92.4923944883952,0,57.8070699680358,0,133.385522628083,0,45.2875864140412,0,25.4725553861714,0,136.564125885218
-3.7660499,6.5562596,CIV,"",FALSE,0,3330.13071312614,26.749789223801,0,0,,,,0,12,727.244929040112,1e-06,0.00023099091257444,2658.23148034442,3.19548900955325,412.278661396363,1e-06,0.000102675433589994,3799.54596072136,2.89920555263836,1e-06,168.477954610733,2.6749789223801e-05,23.1422059723986,0,52.2876269690075,0,50.4855999059944,0,31.0388899725834,0,71.4764029774978,0,32.7414576970744,0,68.9765500811542
-3.199681,5.466835,CIV,"Aboisso - Côte d’Ivoire",TRUE,115.831,3283.31415970208,30.802133925745,380309562.432452,3567841.97475296,,,,0,12,147.587809101346,115.831,2741.24569999983,46073.4711305995,4.3654133012092,177.886416315869,115.831,3579.26708349906,51972.3542680818,4.02968896058685,115.831,1400.43169639921,3567.84197475297,44.8344484187395,0,342.613866244481,0,114.617208902291,0,367.017832097066,0,109.478374861795,0,1716.52117844828,0,39.1459654292831
-2.884658,34.416684,MAR,"Taourirt - Morocco",TRUE,321.876,5909.4069394727,41.5215982796711,1902096268.04972,13364805.9678674,,,,0,8,764.832574780741,321.876,79900.3607497434,82318.2963640596,2.15677217619578,890.070990989122,321.876,99227.48486597,110463.306162695,2.02106043016581,0,733.065932640396,0,57.2307318272927,321.876,13364.8054054861,13364.8059678674,8.26195637929357,0,334.849102794111,0,96.4921310194077,0,569.578797267576,0,67.7156078784222
-3.3598599,7.0014696,CIV,"",FALSE,0,3315.53558628181,33.597304142047,0,0,,,,0,12,738.397422443003,1e-06,0.000236067931768259,9331.19601071092,3.16469889667125,439.865200402344,1e-06,0.000112629062731972,15925.8488452896,2.81443334203075,1e-06,588.91481784122,3.3597304142047e-05,25.3566011141155,0,242.942684085493,0,45.7569227849529,0,224.63147607754,0,48.2109422455478,0,88.6409050333991,0,89.6127708146113
-2.933289,35.166696,MAR,"Nador - Morocco",TRUE,398.424,7606.25038889618,51.3612061101847,3030512704.94557,20463537.1832442,,,,0,8,810.753981478837,398.424,107493.187396986,117967.112927719,2.10354438126794,971.465938334763,398.424,139180.624408965,150409.892514469,1.94666996719693,0,1034.25843287276,0,53.8340700890185,398.424,18642.2733770739,20463.5371832442,7.83088202250306,0,389.15791485072,0,103.290255306836,0,791.965955292411,0,64.3189462813145
-3.483656,6.733739,CIV,"Abengourou - Côte d’Ivoire",TRUE,164.424,3393.50643563291,31.3151713379485,557973902.172505,5148965.73207084,,,,0,12,583.363120605222,164.424,27719.5516640255,36796.2187466505,2.42223355210674,587.279292030785,164.424,27985.7678043454,40697.6644749955,2.41529793732266,164.424,3098.19965290795,5148.96573207084,13.4465468007235,0,335.284539538381,0,59.2117663246852,0,315.470785892916,0,61.6657858028899,0,223.034090634656,0,77.7027164897144
-2.416466,13.583359,BFA,"Ouahigouya - Burkina Faso",TRUE,124.58,1563.41905949248,24.9678181813964,194770746.431573,3110490.78903837,,,,0,13,660.134634658546,124.58,25059.6146766116,28307.2912456493,2.29723124690916,693.138638324799,124.58,26868.4352075058,30599.2876898569,2.24969737417612,124.58,2324.50175973967,3110.49078903836,12.5423349016793,0,302.0608199519,0,48.8879749316629,0,401.495571096763,0,40.4399993571049,0,61.360599484043,0,141.472463757639
-3.0625598,11.1466293,BFA,"Hohoe - Ghana",FALSE,25.922,1561.522,20.2432159885365,40477773.284,524744.644854843,,,,0,13,614.081826864154,25.922,4702.49630424888,5227.93704277452,2.3695416049072,659.672424063742,25.922,5209.06782995253,5673.57157081375,2.29791978848775,25.922,256.937359939617,524.744644854843,18.0864938468018,0,154.01614200273,0,25.4406613195865,0,53.7405898982887,0,51.3299613932806,0,12.8814930002264,0,133.023516234557
-2.7472,11.7775002,BFA,"Sébékoro - Mali",FALSE,40.627,1561.522,21.1605772475616,63439954.294,859690.771836685,,,,0,13,560.175164257803,40.627,6463.55263048665,8462.52773259004,2.46470736865774,635.416956360322,40.627,7738.62986200913,9341.29973693587,2.33511094878518,40.627,390.777074465013,859.690771836685,19.3772885686877,0,241.176331927719,0,26.7314551968458,0,110.393106563965,0,45.0074514831659,0,20.297387305072,0,139.193503675318
-3.03983,6.1229501,GHA,"",FALSE,0,3802.82235998441,26.9757504642009,0,0,,,,0,14,444.009156369396,1e-06,0.000114147938501778,6451.82958785998,4.41195574318839,286.205476181503,1e-06,6.0956429389018e-05,10734.7842960471,3.43572777420063,1e-06,392.894072035398,2.69757504642009e-05,31.1671656744944,0,101.311243217719,0,76.9323851962735,0,112.381102359166,0,71.7935511203203,0,144.529707489181,0,60.7075740180615
-2.75492,6.4242897,GHA,"",FALSE,0,3953.2102,29.0369393929079,0,0,,,,0,14,621.466687618451,1e-06,0.000184534061768583,6864.35415955321,3.53486693122669,323.721754002836,1e-06,7.26841041500819e-05,7708.29508112595,3.24266245355867,1e-06,266.141250172314,2.90369393929079e-05,30.5819965800958,0,67.4716201366708,0,76.3472159783659,0,120.255922822349,0,51.9361373939477,0,80.3166592099864,0,67.9730681841535
-2.366508,12.250045,BFA,"Koudougou - Burkina Faso",TRUE,252.816,1560.77676867213,26.6972220059627,394589339.548613,6749484.87865947,,,,0,13,560.577122470451,252.816,40262.9989093301,58146.254235963,2.46394946173555,579.683346419663,252.816,42237.6381097275,57400.1169337819,2.42881141234537,0,1433.39400698109,0,28.4288040472292,252.816,2048.85808883553,6749.48487865947,22.4041115903815,0,901.760784708077,0,38.7205409699223,0,120.374169599613,0,148.245019065634
-2.883702,7.283584,GHA,"Domaa-Ahenkro - Ghana",TRUE,1000,3838.14915389001,37.1443756204362,3838149153.89001,37144375.6204362,,,,0,14,719.760638398006,1000,227602.423334679,251921.875423867,2.21365147402877,799.155642544711,1000,264299.200664577,296422.049805456,2.11657450500464,0,2574.33695021531,0,50.0952987772283,0,1542.11812341553,0,70.495620455625,1000,31168.8466266992,37144.3756204362,9.50079782987904,0,984.115023280963,0,95.1064541584684
-2.800007,8.033291,CIV,"Bondoukou - Côte d’Ivoire",TRUE,141.568,3415.9826182662,35.1347520530404,483593827.30271,4973956.57864482,,,,0,12,746.406686451249,141.568,33938.719134884,40140.3847908395,2.17943149709943,786.307659539999,141.568,36559.9359582755,45206.4463638459,2.13132763825117,141.568,2975.43909064297,4973.95657864482,13.0742389999591,0,403.828988371016,0,49.5053500073047,0,653.154031980602,0,35.9285801327253,0,138.375834589644,0,101.09824749063
-3.0037599,9.2666302,CIV,"Birkat as Sab‘ - Egypt",FALSE,94.883,3281.84616266209,23.3886063445532,311391409.451867,2219181.13579024,,,,0,12,650.626684020974,94.883,18694.4866595335,21184.8104961951,2.31155476275139,698.070303412849,94.883,20671.933745084,24096.0576482461,2.24287209075864,94.883,1447.00873216508,2219.18113579024,14.6258484073327,0,282.458808378739,0,43.4642063759958,0,320.556319240503,0,39.9483586938971,0,72.3869986837067,0,107.727882284449
-2.500115,10.066876,GHA,"Wa - Ghana",TRUE,107.214,3936.48868750266,37.1891567694194,422046698.141911,3987198.25387653,,,,0,14,633.915843468104,107.214,20353.232813618,36247.1500304102,2.33747296684449,678.476165758775,107.214,22427.4826028736,41005.9528809074,2.27040642388686,107.214,2283.81283178557,3987.19825387653,15.5678225709006,0,474.064233470491,0,44.4061803880612,0,692.574990101929,0,34.4897735400659,0,101.84485002164,0,123.796632330489
-2.7890699,11.0427799,BFA,"",FALSE,0,2197.95807905528,23.1288106598402,0,0,,,,0,13,919.521305669016,1e-06,0.000322952994487895,2794.4682598806,2.75722517323591,538.637219654342,1e-06,0.000150428993249668,3368.38902314531,2.5668163538604,1e-06,130.597162318456,2.31288106598402e-05,22.4071763640445,0,85.3170112945927,0,29.7613438358199,0,41.6050467517426,0,48.0373399477819,0,8.60595288226565,0,137.344198334601
-2.75752,5.2915597,GHA,"Kolda - Senegal",FALSE,27.938,3680.15963132643,31.4353166300399,102816299.779998,878239.876010055,,,,0,14,180.01577451603,27.938,878.106421086141,6060.79862857742,4.00919116949888,226.170984918689,27.938,1216.62346922953,8288.21200811713,3.6355829144732,27.938,234.890339023947,878.239876010055,39.1115041384999,0,73.4749030961396,0,84.8767236614115,0,80.6909497086857,0,79.7378895580937,0,171.664697275844,0,48.2052078871376
-2.49212,9.0273695,GHA,"Mesra - Algeria",FALSE,10.555,3903.89231157778,29.1246396378985,41205583.3487034,307410.571378019,,,,0,14,448.122123381479,10.555,1220.80687355422,8081.33743128355,2.71210020441967,531.299065496044,10.555,1556.96678240025,8804.16127617895,2.52125042440506,10.555,313.017312526518,307.410571378019,23.3182384038516,0,93.5724723322074,0,52.1565962056456,0,244.3400375264,0,27.5049939019134,0,28.8620106722711,0,114.250187762791
-1.911082,34.686468,MAR,"Oujda-Angad - Morocco",TRUE,619.82,7265.94785567517,64.1855171619656,4503579799.90458,39783467.2473295,,,,0,8,920.745568929168,619.82,200553.566079598,200633.18219583,1.99192450372024,1106.14582128833,619.82,260644.518895452,308613.017735649,1.84131212165633,0,2515.58755806098,0,45.4615195270245,619.82,36797.7665746158,39783.4672473295,7.60074098229484,0,604.745046767102,0,117.585930384781,0,1842.66841645611,0,55.946395571717
-2.63341,7.4203897,GHA,"Béchar - Algeria",FALSE,96.471,3953.2102,36.4293790503192,381370141.2042,3514378.62636334,,,,0,14,590.776405165649,96.471,16559.6938639911,35598.527871856,2.40916009202227,639.04315203999,96.471,18525.7863685494,36755.5251904015,2.32942297363686,96.471,1084.04024185816,3514.37862636334,24.402435476616,0,435.750658619292,0,44.8027571631594,0,1103.02081530363,0,24.1216847490565,0,129.742375601365,0,100.479055898105
-2.42713,6.64852,GHA,"",FALSE,0,3953.2102,30.0019266172557,0,0,,,,0,14,707.852949168388,1e-06,0.000222242347028552,19394.6820869664,3.25104259120827,393.747800732006,1e-06,9.61466360264488e-05,27349.8850515994,2.96116575179999,1e-06,452.892300335333,3.00019266172557e-05,45.5795216686651,0,276.091193320098,0,63.3964129294934,0,1075.67581336603,0,25.6042535328794,0,184.401007259893,0,82.9705932661515
-1.9408599,7.58079,GHA,"Nnewi - Nigeria",FALSE,104.212,3953.2102,38.4258396252504,411971941.3624,4004433.5990266,,,,0,14,420.173156723137,104.212,10993.9069444223,47080.9446534232,2.78799457320766,491.743196409678,104.212,13763.7840948308,48758.064975028,2.60625124319194,104.212,1292.50432024064,4004.43359902659,29.315181340445,0,634.009944001662,0,47.1320729251001,0,1414.29387880068,0,27.607101553965,0,197.566349790816,0,102.542823167816
-2.3793299,11.9639797,BFA,"Gīnīr - Ethiopia",FALSE,8.983,1555.86958355345,20.7091832742223,13976376.4690606,186030.593352339,,,,0,13,421.162970748196,8.983,950.857747955653,4483.70937710092,2.78518517653376,528.664986262322,8.983,1315.70623167895,4557.33556453981,2.52662656726964,8.983,155.332700430749,186.030593352339,24.0347606481415,0,106.660119847618,0,30.880217584284,0,77.5392809998315,0,38.1944754871165,0,10.6084853027505,0,143.85097572355
-2.3323998,7.3266597,GHA,"Matola - Mozambique",FALSE,225.038,3934.99061586051,37.6600902235125,885522418.212017,8474951.38371881,,,,0,14,496.756905224212,225.038,30155.7147857797,63592.0963257315,2.59494539151313,525.895738136037,225.038,32714.0993168747,61037.7143480579,2.53231998866952,0,1265.58236877434,0,33.5524172604105,225.038,1266.60367492289,8474.95138371881,33.5343785230013,0,1368.76158807275,0,31.844337542233,0,291.911283212926,0,89.2106773201937
-1.527486,12.368619,BFA,"Ouagadougou - Burkina Faso",TRUE,2497.171,1561.522,38.4954008979503,3899387454.262,96129598.7557355,,,,0,13,724.103798215918,2497.171,573267.920888816,609564.180471577,2.20795044520729,789.722804984518,2497.171,648899.487723384,693528.87538965,2.12737264703237,0,6230.89414421083,0,49.2250713172548,0,3816.16649777472,0,68.2550925328681,2497.171,86343.4274881202,96129.5987557354,8.53231891703764,0,1089.1804793746,0,157.453881073308
-0.85435,10.77911,GHA,"Calabar - Nigeria",FALSE,93.991,3844.83852701892,32.5092252880077,361380217.993035,3055574.59404513,,,,0,14,539.023460357246,93.991,14153.4574943871,27103.2792718904,2.50570597201635,608.924001192111,93.991,16846.6344234683,30058.006516087,2.37812266114772,93.991,1356.62731188862,3055.57459404513,18.7600502223445,0,311.538851695234,0,50.0264352900418,0,726.142413201277,0,28.4572654295892,0,77.0305705866696,0,126.988860000394
-2.02933,8.1420498,GHA,"",FALSE,0,3909.39329504001,30.4736731110018,0,0,,,,0,14,977.899797949825,1e-06,0.000352637656836787,332.435398143307,2.654169971795,588.716453783134,1e-06,0.00017080022024771,824.057361968853,2.46590616870112,1e-06,25.1143283920963,3.04736731110018e-05,25.273601224098,0,8.20242857705764,0,53.2909185176288,0,27.4902232002223,0,23.7955636821191,0,2.81558049775261,0,108.701669851305
-0.852935,9.408997,GHA,"Tamale - Ghana",TRUE,1146.388,3953.2102,39.9885546755501,4531912734.7576,45842399.2173945,,,,0,14,779.429301317048,1146.388,292361.94993708,316734.752927863,2.1393685360517,840.75757794444,1146.388,325770.95954409,353244.886821996,2.07103812988565,0,3793.31308221737,0,42.5493462453061,0,1745.51226541057,0,71.3877040164171,1146.388,39372.1171959123,45842.3992173945,8.94223690659202,0,737.372754606821,0,126.798454403331
-2.0349898,7.0902801,GHA,"El Wak - Kenya",FALSE,45.153,3953.2102,34.7409805927437,178499300.1606,1568659.49670415,,,,0,14,371.629339127325,45.153,3997.16357678716,25440.3497067898,2.93861524242654,428.000719836926,45.153,4890.7182561823,29611.2798646816,2.76602757680894,45.153,575.561487625523,1568.65949670416,38.2619242277193,0,324.372247171866,0,56.0788155123745,0,1142.7450917009,0,24.221166132319,0,148.336704801331,0,94.4776045935503
-1.89963,5.9580197,GHA,"",FALSE,0,3910.51913372888,33.3768235924992,0,0,,,,0,14,594.146086371063,1e-06,0.000173055033684113,11603.1649942614,3.63952515820566,303.295567253747,1e-06,6.62220397640953e-05,34381.1558375064,3.34318057416169,1e-06,464.323407036728,3.33768235924992e-05,58.9512608521146,0,312.455802859138,0,76.7681521034054,0,863.703037269639,0,38.975992702594,0,606.384303899547,0,49.3410267308919
-1.625058,6.70004,GHA,"Kumasi - Ghana",TRUE,6898.949,3953.2102,55.7015155157662,27272995556.0798,384281914.76598,,,,0,14,805.357337181696,6898.949,1843634.62016441,1952469.31546868,2.10957421227438,872.918820657414,6898.949,2068491.61924379,2196990.25230831,2.03798538910996,0,8998.84340774828,0,79.6089733227844,0,6646.88746794219,0,97.4258646088702,6898.949,366103.962287158,384281.91476598,6.73002793122631,0,6708.59934363648,0,96.8274695979326
-2.26566,12.9614601,BFA,"Zomba - Malawi",FALSE,78.833,1627.34871682273,19.3775853082574,128288781.393286,1527593.18260586,,,,0,13,474.188131204961,78.833,9884.94701030451,21614.7401130568,2.64717359406189,562.812838353531,78.833,12626.3866060826,27715.8920028166,2.45975021473669,78.833,1118.02569792002,1527.59318260586,20.9126494066,0,423.554911943962,0,39.9426706216337,0,613.397360183475,0,31.204386297565,0,58.2923611544169,0,149.842778116569
-1.083295,13.083043,BFA,"Kaya - Burkina Faso",TRUE,141.824,1561.522,20.6131088024861,221461296.128,2923433.54280379,,,,0,13,543.738299473045,141.824,21623.6612339614,26129.271316505,2.49636821310006,582.716464034251,141.824,23871.6592317169,27825.3148050593,2.42338520900867,141.824,1427.12078932509,2923.43354280379,17.5553175104237,0,260.513396505392,0,54.554318700186,0,623.677204539641,0,30.4842791540797,0,69.5988711265695,0,131.516743594458
-2.0190399,12.1964092,BFA,"Sakouéba - Mali",FALSE,41.911,1578.17761345313,20.6985723020877,66143001.9574339,867497.863752799,,,,0,13,437.17419327593,41.911,4679.19587975032,19055.2587187211,2.74100206995103,543.176933108747,41.911,6380.67547090714,22728.7056985128,2.49747256420607,41.911,867.497849628959,867.497863752798,22.0312053322416,0,354.245235173615,0,40.0265216652124,0,530.338959211558,0,30.5854476675261,0,47.4023891531435,0,152.997279621824
-1.9836799,4.92097,GHA,"Bocaranga - Central African Republic",FALSE,27.719,3953.2102,37.6841551729159,109579033.5338,1044567.09723805,,,,0,14,248.982814078767,27.719,1384.70183157917,20180.570439705,3.48890146387632,364.971654894117,27.719,2391.26308996398,16935.8462239234,2.96147026035299,27.719,232.624209443788,1044.56709723806,51.634745015068,0,149.600557420536,0,69.3037129236958,0,191.313271082239,0,58.8231908004032,0,605.411279456856,0,27.2905091390173
-0.78598,32.4087105,DZA,"",FALSE,0,13888.5151898265,38.4111599953153,0,0,,,,0,10,804.728005519793,1e-06,0.00026693585626795,3737.65705251238,2.99704174042118,507.259157136202,1e-06,0.000138068225538021,4159.6332296317,2.63754160596913,1e-06,210.183277705948,3.84111599953153e-05,19.2976268513858,0,112.632097301308,0,29.2501365235178,0,10.7304230696165,0,140.224784993521,0,29.8424088717227,0,70.9055278825008
-0.29448,27.9394188,DZA,"Cuango - Angola",FALSE,77.757,13747.3943974488,41.9438900722357,1068956146.16242,3261431.06034683,,,,0,10,738.621742515314,77.757,18363.9009846381,21072.4142500448,2.18924659237985,831.77357096105,77.757,21759.8042490185,23895.8608361279,2.08059557032832,77.757,3261.4310498715,3261.43106034683,7.8486926360119,0,224.960673037114,0,46.6657648242919,0,56.383072271965,0,117.391584797765,0,66.7736875565528,0,104.873529149855
-1.735029,8.052471,GHA,"Kintampo - Ghana",TRUE,111,3953.2102,31.8375771190788,438806332.2,3533971.06021775,,,,0,14,626.426002440973,111,20717.1894575282,28914.7711067199,2.34941529477359,683.520894710407,111,23466.4830895531,31636.8671798422,2.26320975973351,111,1006.06460246183,3533.97106021775,22.5477498872993,0,292.423382020477,0,51.3861078880491,0,1113.76294193519,0,21.0697126310597,0,97.598460736959,0,106.796858066631
-1.704435,4.940486,GHA,"Sekondi - Ghana",TRUE,345.041,3953.2102,55.5145875968161,1364019600.6182,19154808.818993,GHTKD,Takoradi,AI,343.8114,14,1158.18362364477,345.041,154944.15427722,191994.066833452,1.80538955495798,1151.88641721657,345.041,153742.05358231,223295.957046774,1.80961306587747,0,952.64158535108,0,68.7944293898634,0,1530.24662309529,0,50.1570528437645,0,1227.36642866224,0,58.1018735007247,345.041,23389.1735217798,31875.830618993,8.14384900172078
-1.66741,7.6862698,GHA,"",FALSE,0,3953.2102,34.7148244506919,0,0,,,,0,14,1006.81179498354,1e-06,0.000367625596239451,525.307622116335,2.60697922110056,549.546822627383,1e-06,0.000154800385126229,1005.09610571292,2.54366350050164,1e-06,29.0549557115894,3.47148244506919e-05,27.0054388278391,0,10.6357307689999,0,52.7739777000221,0,31.6145618211672,0,25.5274013139603,0,3.9558824331149,0,102.039691752157
-1.2003399,5.16293,GHA,"Lubango - Angola",FALSE,242.548,3953.2102,47.126908309488,958843227.5896,11430537.3566497,,,,0,14,413.213389340732,242.548,24984.4206743914,135935.123061265,2.80802425529026,473.411874640772,242.548,30342.2313000016,140597.174696387,2.64903301215292,0,698.932281113082,0,90.945601569222,242.548,3530.27670048934,11430.5373566497,30.8934161976259,0,1963.12609519291,0,45.6849305337544,0,3635.38790898739,0,30.2950211896293
-0.983493,7.750098,GHA,"Atebubu - Ghana",TRUE,105.938,3953.2102,32.7029046576606,418795182.1676,3464480.31362325,,,,0,14,384.468375548252,105.938,9844.40355592054,33290.0560305527,2.89614979343312,400.051469503434,105.938,10419.3292506144,32857.4388799264,2.8472520745205,105.938,753.742014799063,3464.48031362325,35.2668421807825,0,331.054956792751,0,61.0353811066984,0,1152.11826221929,0,26.5776768524391,0,168.864418823525,0,95.6069853061507
-0.47613,6.2894998,GHA,"Benguela - Angola",FALSE,186.596,3915.11583355947,41.0997756355816,730544954.078863,7669053.73449698,,,,0,14,379.261645751973,186.596,17005.1474059804,97195.3044985161,2.91312337407356,455.682448169375,186.596,22104.0033372638,106464.09767895,2.69272333058538,186.596,4346.6297574694,7669.05373449698,22.7104332313482,0,569.594638715157,0,88.0271395735568,0,1150.34829319577,0,55.0944201588426,0,1864.48664600108,0,39.9289295014471
-1.26867,12.4855795,BFA,"Kuvango - Angola",FALSE,33.296,1548.55313505811,24.8504324087384,51560625.1848949,827419.997481354,,,,0,13,374.286198748168,33.296,2977.67378288897,13858.9030745102,2.92965717969409,454.249867394513,33.296,3926.51364599659,15449.582725506,2.69635953981658,33.296,502.531820056371,827.419997481354,26.4614269574482,0,135.862043383354,0,63.2883164632719,0,584.597541714586,0,23.9231105881473,0,41.1837330690594,0,140.250741019838
-0.433167,12.249994,BFA,"Pouytenga - Burkina Faso",TRUE,181.256,1596.38093961074,25.259614458178,289353623.590084,4578456.67823152,,,,0,13,671.468474555838,181.256,37357.692006693,41501.1923095246,2.28053034214148,728.400847359592,181.256,41963.5895116485,46386.9979674506,2.2023596623668,181.256,3040.20545737552,4578.45667823151,13.5482686345451,0,424.037239734547,0,50.3751581992312,0,780.19419602295,0,33.5493372548547,0,105.510026132321,0,127.337582909645
-0.199998,5.549954,GHA,"Accra - Ghana",TRUE,3048.022,3953.2102,68.5172293751128,12049471660.2244,208842022.51439,GHTEM,Tema,QQ,7407.89336449,14,1364.36743394139,3048.022,1729701.06740837,1802222.93595668,1.68297033363179,1467.45042247851,3048.022,1919374.66327066,1991499.4972148,1.63124734311848,0,5195.73341456526,0,86.0746723351959,0,3930.95634013501,0,103.667144933019,0,3218.17537826099,0,118.458659263072,3048.022,473588.768682084,482934.07700052,4.24983780091377
1.65764,13.7969694,NER,"",FALSE,0,908.340884736449,18.21835659222,0,0,,,,0,15,780.828773255441,1e-06,0.000255683198290302,3447.71810648686,3.05459861714228,454.557554998204,1e-06,0.000118041616959146,3105.03004510435,2.77234527897426,1e-06,80.6647975985977,1.821835659222e-05,31.6059239006225,0,25.2234127262395,0,68.6049247468527,0,150.745584050495,0,20.8318635832334,0,8.16095207255377,0,145.56734888763
0.05265,8.85392,GHA,"Chinde - Mozambique",FALSE,8.6,3953.2102,29.5972745903776,33997607.72,254536.561477247,,,,0,14,297.551985401874,8.6,554.165232764114,6849.2436955474,3.23236246981397,400.728080509039,8.6,847.880956008562,9047.87532536184,2.84519075473211,8.6,328.914595222749,254.536561477247,25.9270853240303,0,107.140528026838,0,54.7654430813777,0,156.511272943809,0,42.5381610757326,0,54.7072761570347,0,85.725968325548
-0.233454,11.049927,GHA,"Bawku - Ghana",TRUE,100.737,3443.348943435,35.8736219329596,346872642.514812,3613801.05266056,,,,0,14,854.812124512259,100.737,29312.6644236457,32416.1919475507,2.05638902330479,883.848996716263,100.737,30745.4003797403,34799.3637747384,2.02714574344379,100.737,2547.6227283474,3613.80105266055,11.5835701529365,0,358.074343544477,0,42.8499553305688,0,446.392464369712,0,36.9931465867937,0,76.585441841907,0,119.812379967128
-0.82513,9.98067,GHA,"Aioun - Mauritania",FALSE,12.666,3608.44598300667,29.1684758976839,45704576.8207625,369447.915720064,,,,0,14,453.191599740062,12.666,1488.70089407156,6566.63510301581,2.69905607350904,527.146434896425,12.666,1847.5335702247,7894.98967557312,2.52974333672346,12.666,222.11099341677,369.447915720064,27.3483293743949,0,70.7874519639164,0,58.6147142090652,0,318.436927471972,0,21.5094128181168,0,24.1530405861803,0,120.041007396989
-0.01374,9.4424696,GHA,"Luuq - Somalia",FALSE,52.008,3953.2102,30.0437969546538,205598556.0816,1562517.79201763,,,,0,14,494.628139769511,52.008,6926.59033435111,22649.9699858036,2.59972424978307,582.824443568124,52.008,8756.24661792022,28629.0552460094,2.42319277981834,52.008,1328.10160518814,1562.51779201763,18.7688836849586,0,328.760354817945,0,47.6072414049562,0,513.160207470593,0,35.3799593289354,0,103.280741383922,0,103.017991808192
-0.22433,9.9239798,GHA,"Diallassagou - Mali",FALSE,10,3953.2102,25.3205514237845,39532102,253205.514237845,,,,0,14,591.446587500677,10,1719.32879066289,4094.49235812423,2.40798950498104,615.630272800243,10,1820.63302935822,5284.92178475597,2.3669854724644,10,233.27732749622,253.205514237845,18.9513265093813,0,54.0812319232084,0,50.2177115983456,0,120.90419651868,0,29.3715625681861,0,16.3146907345577,0,111.644004550176
-0.23763,32.7311096,DZA,"",FALSE,0,13822.566,39.9593271920494,0,0,,,,0,10,937.94035747337,1e-06,0.000332234103875804,2559.97928256169,2.72352196343861,611.477785657228,1e-06,0.000180311506160847,2539.45011250849,2.42420919558323,1e-06,119.404810868835,3.99593271920494e-05,18.6086699783844,0,95.3171604897982,0,21.6246532941531,0,5.3491390645534,0,147.527832353037,0,13.8584055790845,0,78.2085752411968
0.062,34.1462479,DZA,"Magu - Tanzania",FALSE,18.568,13822.566,39.034247987274,256657405.488,724787.916627704,,,,0,10,847.101151110844,18.568,5333.46449243766,8505.62461727809,2.06437710134278,583.505126921943,18.568,3131.38977179087,11499.0793906149,2.42198091245294,18.568,361.861513904115,724.787916627704,24.2987817608865,0,461.633920965268,0,20.6576519217195,0,29.0262359653784,0,130.642841330516,0,100.113427867399,0,57.229226575007
-0.633443,35.696881,DZA,"Oran - Algeria",TRUE,725.418,13680.5691624158,63.5150657543658,9924131120.66136,46074971.9694005,DZORN,Oran,AI,255.6159,10,953.262110926983,725.418,246652.516472358,280762.853057882,1.96251573602224,1113.00266603986,725.418,307755.178472174,377654.551569893,1.83644194189858,0,2920.73831908594,0,46.9582517141806,0,2628.17845097575,0,50.3814255478445,0,462.795987198129,0,160.366614934247,725.418,48438.140885765,55532.7602694005,7.22074554577604
-0.34739,35.5365906,DZA,"Kouribga - Morocco",FALSE,90.859,13775.9879587745,55.3395627750259,1251672489.94629,5028097.33417608,,,,0,10,597.57857103417,90.859,15853.5363465281,54673.6293475691,2.39736883654704,794.530031086323,90.859,23815.6422433613,56845.7203005413,2.12184674148126,90.859,2107.35900487245,5028.09733417608,19.0847661630589,0,1645.37603123553,0,22.5079400809547,0,108.806358156475,0,137.639476432385,0,741.190790548468,0,38.3023880334285
0.05872,6.15661,GHA,"Zagora - Morocco",FALSE,34.381,3953.2102,38.8969776080709,135915319.8862,1337316.98714309,,,,0,14,421.951002546224,34.381,3648.9879532802,10737.3475300742,2.78295472273097,439.99035962566,34.381,3873.87393604691,10966.8990042962,2.73346943775602,34.381,275.317069168145,1337.31698714309,31.8821812663189,0,74.6595057596486,0,76.0991918910942,0,94.7910730201569,0,64.9020616080153,0,334.499357673719,0,28.0009818227049
0.36174,12.0579901,BFA,"Mazabuka - Zambia",FALSE,73.2,1564.24563399205,22.6391773750371,114502780.408218,1657187.78385272,,,,0,13,541.301050199467,73.2,11089.280234628,19309.976291114,2.50117787563676,597.079991460237,73.2,12757.0843617713,21893.756787322,2.39822657950524,73.2,1040.26087724339,1657.18778385272,18.281376559651,0,269.516687505298,0,44.9828151480077,0,441.328912197851,0,32.3789045581264,0,53.5729959058007,0,132.070690758277
0.3068,35.7280197,DZA,"Kassala - Sudan",FALSE,468.678,13822.566,55.9459393267844,6478332587.748,26220630.9517987,,,,0,10,919.133520516081,468.678,151269.782210114,168301.378001163,1.99342100230025,1041.51571609562,468.678,180844.521551339,193936.58192104,1.8894398849425,0,2054.70819057976,0,39.1687280569707,468.678,23200.2229634147,26220.6309517987,7.78236264562925,0,252.087952971176,0,158.637129360308,0,1103.00343523427,0,59.3000409808136
0.17407,26.7181301,DZA,"Asamankese - Ghana",FALSE,20.402,13754.6295522982,35.5508752420232,280621952.125989,725308.956687758,,,,0,10,475.683157246452,20.402,2569.75682095064,5444.47359149419,2.64360457643118,602.417034332925,20.402,3601.09125186513,6205.04391477992,2.38909765469172,20.402,654.098060326371,725.308956687757,10.7061970789355,0,77.0447685922071,0,44.5555393243863,0,20.0405614535065,0,109.342891082736,0,20.2110412429877,0,108.727153135802
1.0877,26.958849,DZA,"Kherrata - Algeria",FALSE,18.598,13747.3415581596,37.6662944731761,255673058.298652,700517.744612129,,,,0,10,671.638837305159,18.598,3834.52240868958,5154.47230269232,2.28028329056718,766.462432397775,18.598,4630.70480926072,5808.02181448098,2.1548054283952,18.598,700.517734622536,700.517744612129,8.82702039168026,0,68.2175997700469,0,41.7025486014138,0,15.4108455783104,0,112.428368576298,0,15.9942194566183,0,109.677662855615
2.101906,34.108919,DZA,"Aflou - Algeria",TRUE,114.592,13822.566,42.5694418617965,1583955483.072,4878117.48182698,,,,0,10,823.237918254198,114.592,31598.7674459064,37311.420266196,2.08981366675005,882.203943963807,114.592,34881.0550823261,41252.223694796,2.0287648957905,114.592,2935.97828159357,4878.11748182698,11.8130326715375,0,1242.49385140597,0,20.9572260951276,0,63.2693312762004,0,152.546109177068,0,166.219602760257,0,80.1201593471382
3.666624,32.483817,DZA,"Ghardaïa - Algeria",TRUE,210.733,13822.566,54.3332823474776,2912870800.878,11449815.588931,,,,0,10,894.59663949638,210.733,65436.8720247762,72994.8164651197,2.01667234760997,985.875259026114,210.733,75179.7162082537,81879.8474678891,1.93442490913713,0,1261.58160933041,0,31.2411006655814,210.733,9349.41180031695,11449.815588931,8.21890006375204,0,141.825531670661,0,134.122079741861,0,254.437978736409,0,90.8410059231269
0.20933,10.8734493,TGO,"Al Manāqil - Sudan",FALSE,58.071,1468.95664149522,31.2532292472104,85303781.1282692,1814906.27561475,,,,0,16,743.898637440919,58.071,13854.837302364,17210.1147399498,2.18257713427049,800.800328434668,58.071,15393.2628904135,19226.2696610629,2.11471040163954,58.071,1146.41762862768,1814.90627561476,13.8553983690074,0,314.257081027338,0,32.834031170091,0,198.870098667105,0,44.5452357330566,0,50.1527311813568,0,111.596659723126
0.05048,5.7687697,GHA,"Ténès - Algeria",FALSE,37.402,3953.2102,53.4407004820401,147857967.9004,1998789.07942926,,,,0,14,338.124304762059,37.402,2892.94850429148,23883.8397991134,3.06005022151353,447.597050236437,37.402,4318.73115075063,27123.0808336334,2.71346305589497,37.402,351.967456135795,1998.78907942926,49.1377106915083,0,222.403394275034,0,66.7301833046035,0,162.799603519791,0,82.1575910264394,0,1507.42811567637,0,18.6319732044428
0.77777,18.9019699,MLI,"",FALSE,0,2285.3071,12.4608224567388,0,0,,,,0,9,448.819420435377,1e-06,0.000115918667123987,4504.46569135202,4.38021583457047,245.677999152561,1e-06,4.90104351646168e-05,4405.18924336345,3.69431638019299,1e-06,182.910831300817,1.24608224567388e-05,30.809466846466,0,60.1622604856548,0,64.6588091646069,0,65.0630565533779,0,61.3697222485611,0,21.3913429281466,0,128.830422992418
1.4786099,14.2064199,NER,"Namakgale - South Africa",FALSE,19.262,902.661251353596,18.3109624941318,17387061.023573,352705.759561966,,,,0,15,310.351220178187,19.262,1318.17065200256,4303.87698761718,3.17454321545562,384.775138084605,19.262,1791.98283801311,4337.50485889888,2.89516004893291,19.262,156.203894763881,352.705759561967,26.5483776933653,0,36.7766248724165,0,69.6281164637176,0,150.518772111433,0,27.2127301593877,0,11.8212413959542,0,148.385171765518
0.46922,10.3394394,TGO,"Hamma Bouziane - Algeria",FALSE,34.791,1791.52743346508,23.7423490738048,62329030.9376835,826020.066626741,,,,0,16,566.555420566722,34.791,5625.35514126852,9814.0848756575,2.4527729068352,670.909688319624,34.791,7162.06136132381,11347.4967909663,2.28134506033163,34.791,605.730024245021,826.020066626743,16.0918122512823,0,192.517803238706,0,34.552310412465,0,122.20057202247,0,46.7816496153766,0,35.0911681480863,0,107.479542133925
1.14132,9.47579,TGO,"Cacongo - Angola",FALSE,33.327,1373.44357100469,23.4389778775196,45772753.8908734,781150.815724097,,,,0,16,550.181849032676,33.327,5167.55096796206,12338.7727253518,2.48379470178558,705.508778296455,33.327,7371.65500707596,15714.4432346022,2.23270673254245,33.327,905.800115399616,781.150815724096,14.9626815518494,0,279.604431747235,0,32.7593277029989,0,116.205444624187,0,58.8229358870954,0,61.7748810371788,0,89.6375001141418
0.59562,6.0068398,GHA,"",FALSE,0,3953.2102,37.1738924725988,0,0,,,,0,14,994.114090989108,1e-06,0.000361020084283686,9078.4043302013,2.62744350794536,656.408914431545,1e-06,0.000199532922807319,11347.50058086,2.3482878502962,1e-06,164.589314588049,3.71738924725988e-05,39.4836277859936,0,94.6990826407926,0,57.0761002901319,0,50.9695664359358,0,86.2602768453128,0,664.320651280091,0,15.5751762961755
0.50771,7.5739598,GHA,"Kayanza - Burundi",FALSE,11.503,3218.33666164992,33.5632575458883,37020526.618959,386078.151550353,,,,0,14,268.712989438864,11.503,640.771369202703,10254.7778396515,3.37671747357704,358.208923124324,11.503,966.177706007216,13015.7059779298,2.98530390810558,11.503,386.078164022454,386.078151550353,31.154219552103,0,157.296492372806,0,56.6875486364074,0,147.213943725377,0,59.2471873283127,0,172.154807409455,0,53.3770128860031
0.470198,6.611847,GHA,"Ho - Ghana",TRUE,183.715,3893.07070546691,38.4335396256206,715215484.654853,7060817.73232089,,,,0,14,571.961029402933,183.715,30110.5810791464,70443.5889282751,2.44281144646767,615.162136388289,183.715,33411.4309311864,79100.4662421367,2.36775726567203,183.715,2777.53617460222,7060.81773232089,22.0808976277783,0,533.869459659278,0,66.2979075816078,0,504.37957590944,0,68.8575467221099,0,2095.85043898726,0,26.640948411379
0.14396,34.7495003,DZA,"Meknès - Morocco",FALSE,128.413,13832.7356266939,48.9472390691589,1776303080.03064,6285461.8105879,,,,0,10,865.071956639238,128.413,38008.2175966574,50495.0510656395,2.04588755444303,748.353950266985,128.413,30899.8108373835,55071.9987466516,2.17699918790904,128.413,2517.11939607814,6285.4618105879,17.029802657988,0,1986.41224855819,0,19.9418710286006,0,110.924590477064,0,136.498203966877,0,353.047645725566,0,63.0845892603273
1.316772,35.366641,DZA,"Tiaret - Algeria",TRUE,273.948,13822.566,52.0993930151733,3786664310.568,14272524.5177207,,,,0,10,931.108055315418,273.948,90069.2262589449,101153.245307938,1.98239338417839,1030.97210428628,273.948,104180.440615227,116188.645062921,1.89769712136105,0,2068.24657587805,0,27.8356359302407,273.948,11371.8584816584,14272.5245177207,8.93542181907388,0,159.402572635714,0,153.69950641884,0,540.504235410401,0,68.0983552446313
0.83412,11.1550198,BFA,"Missour - Morocco",FALSE,13.579,1539.16365357952,21.9358482617815,20900303.2519562,297866.88354673,,,,0,13,511.564901073301,13.579,1897.60403052775,6312.34342702417,2.56248288844685,595.770393406362,13.579,2359.09727065231,7007.95852676069,2.40048446165921,13.579,297.866886192716,297.866883546731,19.709628139815,0,141.978002336417,0,32.3007450736168,0,92.8234934241558,0,42.8799866791059,0,19.9799993872078,0,119.388620696334
1.064238,10.697912,BEN,"Matéri - Benin",TRUE,260.509,1341.27023884108,22.6149908758556,349412968.65025,5891408.65807827,,,,0,17,611.919725559428,260.509,47021.2764318184,58418.0053001475,2.37312380083526,669.018120409504,260.509,53412.4092670815,63284.0886456648,2.2841072100379,0,1905.74435274339,0,23.5977037061368,260.509,2489.07068240872,5891.40865807827,19.74943543208,0,546.158882374673,0,54.2875410505225,0,187.721421416634,0,110.637821452069
1.331625,36.164677,DZA,"Chlef - Algeria",TRUE,575.939,13822.566,54.0496792570843,7960954839.474,31129318.2216458,,,,0,10,960.181897295846,575.939,197861.416646894,200632.761230882,1.95644172419867,1037.95765935377,575.939,221148.576811816,226783.20318229,1.89221297976348,0,2310.57994919535,0,40.262117055955,575.939,29759.8808080082,31129.3182216459,7.32751105502696,0,275.682721458446,0,166.125987613077,0,1081.45756582208,0,66.7888991374395
