lon,lat,iso3c,city_country,city_port,population,gdp_cap,IWI,gdp,wealth,port_locode,port_name,port_status,outflows,ctry,uj_orig,Lj_orig,Cj_orig,Dj_orig,PCj_orig,uj,Lj,Cj,Dj,PCj,Lj_1,Dj_1,Yj_1,Pj_1,Lj_2,Dj_2,Yj_2,Pj_2,Lj_3,Dj_3,Yj_3,Pj_3,Lj_4,Dj_4,Yj_4,Pj_4
-17.446713,14.692814,SEN,"Dakar - Senegal",TRUE,3223.755,2287.6685,70.2606002240275,7374882765.2175,226502961.27521,SNDKR,Dakar,AI,2417.263262,1,317.299752218308,3223.755,227703.562420769,227867.052259181,3.14456065733604,317.391010087945,3223.755,227797.124344292,227971.49031943,3.14417313684682,0,32.4345177505006,0,28.7888771997672,0,130.198740287146,0,20.3387796979486,0,3.05982975241152,0,51.9460199144249,3223.755,226386.53720089,226502.96127521,3.14966190933472
-17.044529,14.7029696,SEN,"Yaoundé - Cameroon",FALSE,505.227,2302.16270413245,52.2935947198641,1163114756.52073,26420135.9795328,,,,0,1,261.192677513882,505.227,27025.1170224036,27510.543338405,3.41804681117522,261.657467257671,505.227,27093.844530739,27609.102459798,3.41544338428783,0,186.4970293999,0,11.9135772045025,505.227,26108.9910498971,26420.1359795328,3.46347965156546,0,2.48348727282076,0,35.0707205727119,0,116.424071860287,0,13.4029212939259
-16.6384888,15.1122198,SEN,"Dzolokpuita - Ghana",FALSE,74.508,2361.8791047779,42.0766985704881,175978888.338792,3135050.65708993,,,,0,1,224.932428049749,74.508,3219.26627537081,3293.22491872211,3.64414894117344,225.598741936912,74.508,3232.89832285482,3318.16112260018,3.63953226506668,74.508,3053.68718754777,3135.05065708993,3.71589817324631,0,59.0237546668107,0,9.96582449326937,0,0.778998675755141,0,29.4026045675256,0,6.9500354435924,0,17.0126980665602
-16.4633198,14.7565098,SEN,"Gusau - Nigeria",FALSE,113.325,2297.65604456748,38.0772661124075,260381871.25061,4315106.18218858,,,,0,1,210.363880542944,113.325,4449.74969757201,4597.83714270947,3.75024257808898,211.98056223629,113.325,4498.6829929961,4639.01518199435,3.73795799518655,113.325,4163.4976909514,4315.10618218858,3.84039842582912,0,118.582167336557,0,9.34837273099457,0,1.26995248347461,0,29.0598938142178,0,12.5340547056222,0,16.3952473521827
-16.4205399,14.3423595,SEN,"Chipinge - Zimbabwe",FALSE,18.416,2269.64499576379,37.4244716433748,41797782.2419859,689209.069784391,,,,0,1,176.902906052312,18.416,564.579189716168,700.866070414728,4.0392753087179,180.698251655474,18.416,581.962287400382,712.936384279409,4.00269461025106,18.416,569.295266860183,689.20906978439,4.23429154191623,0,47.9532507360071,0,7.85978450794045,0,0.325088699563731,0,27.3914352729879,0,3.89070781545022,0,14.7267872308968
-17.033333,20.933297,MRT,"Nouadhibou - Mauritania",TRUE,118,5196.45446473013,38.9206658183864,613181626.838156,4592638.5665696,MRNDB,Nouadhibou,AI,197.0295,2,210.609266210939,118,4641.03826917066,4650.75937960795,3.74836931415608,210.863380667575,118,4649.03995054961,4658.75959346588,3.74643269133507,0,9.57012004825542,0,17.5977104872156,0,3.68101863185584,0,22.3456770051367,0,0.394215737733879,0,39.061784704878,118,4564.30973539852,4592.63856656959,3.76566543745343
-16.8981705,21.2914486,MRT,"",FALSE,0,5538.53368337853,18.6296720206833,0,0,,,,0,2,85.4520351373367,1e-06,1.08413421274336e-05,24.2001414049979,6.36400199884964,68.7797945733693,1e-06,7.95103587093575e-06,23.963645514772,6.33297945464264,1e-06,0.651561677791159,1.86296720206833e-05,15.595793874844,0,0.225040653226862,0,20.3437607618914,0,0.0204349904273458,0,37.059873462929,0,20.7577600970423,0,6.56449255952439
-15.978542,18.085588,MRT,"Nouakchott - Mauritania",TRUE,1440.712,3726.39485774327,41.8651880562521,5368661788.28902,60315678.8148991,MRNKC,Nouakchott,AI,334.524,2,221.95046998832,1440.712,61073.268680052,61204.691748733,3.66505180973684,222.360290614445,1440.712,61234.4306658106,61395.5888752557,3.66215534103263,0,150.668363111406,0,16.4537743645104,0,25.6361727460822,0,25.6187395580175,0,8.09442819505604,0,34.1762583719942,1440.712,60156.3166164022,60315.6788148991,3.68087225444032
-15.67383,23.8871498,ESH,"",FALSE,0,7041.16211331411,31.3978211479454,0,0,,,,0,3,84.4171689245209,1e-06,1.06542671577458e-05,36.6459878753647,6.40776500893285,75.7639685740069,1e-06,9.1290659103859e-06,37.6844507747319,6.05129181385367,1e-06,25.952036911368,3.13978211479454e-05,6.64271730191139,0,3.00161783217451,0,11.3906840605153,0,0.0253945648362207,0,37.558171351285,0,1.51791367514261,0,13.5075600103445
-16.2439098,15.6356897,SEN,"Banikoara - Benin",FALSE,93.802,2287.6183979327,43.5760615586268,214583180.962884,4087521.72632231,,,,0,1,228.378327180359,93.802,4141.89120403014,4227.6208979163,3.62048156216182,230.01356587007,93.802,4184.32304258903,4267.66552840868,3.60942800330607,93.802,4016.86083803062,4087.52172632231,3.66449624035604,0,43.249194792454,0,11.3760494789222,0,1.04322690029951,0,28.8663128725022,0,9.82865767630611,0,16.4764039338263
-16.577537,13.453171,GMB,"Banjul - Gambia, The",TRUE,976.753,1827.81084253539,39.6195599018914,1785319723.87897,38698523.9928521,GMBJL,Banjul,AI,184.275,4,214.420220323767,976.753,39413.4077146474,39564.5974134265,3.7196711465944,215.38168480709,976.753,39666.1222343047,39861.4869213592,3.71254578117174,0,212.430654500072,0,13.7406062622904,0,33.7491816720678,0,21.7642838394114,0,4.85962194481125,0,35.3312966293101,976.753,38493.6653314293,38698.5239928521,3.7450953128175
-16.2409897,12.7924099,SEN,"Quelimane - Mozambique",FALSE,91.883,2295.74090262069,36.7829540931087,210939561.355497,3379728.1709371,,,,0,1,200.393775054447,91.883,3366.05192531566,3544.35809071894,3.82909925118143,201.237502913389,91.883,3386.31625637308,3583.47160434205,3.82221058717085,91.883,3219.25969024076,3379.72817093711,3.92601179352365,0,9.66441972316221,0,16.7724560627156,0,1.26123472353933,0,27.905618341965,0,89.5174908661754,0,9.61421054478981
-16.076402,14.138908,SEN,"Kaolack - Senegal",TRUE,187.932,2278.7640345833,45.3761239685572,428252682.54731,8527625.72965889,,,,0,1,237.062900786048,187.932,8752.71161799956,8846.82517884947,3.56303222986671,237.576218595535,187.932,8779.7991039867,8997.57287686186,3.55973085256788,187.932,8383.88501597999,8527.62572965889,3.62315720043778,0,78.5167590621645,0,11.6468348048604,0,3.31484700300506,0,25.6940547367783,0,50.1297447190028,0,13.0294065093432
-15.6096001,13.5730095,GMB,"Bria - Central African Republic",FALSE,70.315,1877.21348753621,26.69126049904,131996266.376109,1876795.98199,,,,0,4,162.926171587049,70.315,1916.52513782803,1984.62915121413,4.18429558494016,163.663748711999,70.315,1928.9317670275,2021.08972414403,4.17620347789206,70.315,1805.9170351799,1876.79598199,4.29539987540994,0,12.9777517792968,0,14.752926812653,0,1.36913550044946,0,25.8860906656469,0,41.3314086320055,0,11.0435321322531
-16.50258,16.034409,SEN,"Saint-Louis - Senegal",TRUE,154.555,2616.38725725041,41.8228350121846,404375732.544337,6463928.26530819,,,,0,1,224.98690222761,154.555,6680.16652736657,6680.50501246089,3.64377076780829,225.832130251004,154.555,6716.0467499486,6716.07726451507,3.63791979779523,154.555,6462.53270463806,6463.92826530819,3.67308816355932,0,27.2374854584244,0,14.4158511936083,0,1.65208627459339,0,29.048511303372,0,15.2747432553428,0,16.6586024883523
-15.804984,16.512799,MRT,"Rosso - Mauritania",TRUE,159.231,3119.63824766881,37.3432812371366,496743117.814552,5946208.0146705,,,,0,2,205.777711142311,159.231,6058.45643724747,6156.29528367331,3.78583782650644,205.619766211625,159.231,6051.81442209894,6214.00757132116,3.78708385745297,159.231,5839.99434542787,5946.2080146705,3.84631421156512,0,31.3573430566381,0,14.2089849415924,0,2.95632300555809,0,25.6424730692912,0,41.4373480982992,0,13.2525630623075
-15.883334,14.866839,SEN,"Touba - Senegal",TRUE,597.23,2294.61226912889,41.7294708957356,1370411285.49184,24922091.9030602,,,,0,1,223.636271129803,597.23,25592.3483873186,25760.4952555168,3.65318577931227,224.735122897485,597.23,25772.1798068602,26062.4926464261,3.6455197398178,0,306.523905780321,0,11.0699932024062,597.23,24564.7262850794,24922.0919030602,3.69986143373552,0,6.83768739494282,0,28.6441629749544,0,26.1850104794116,0,20.4762420818547
-15.575626,11.856113,GNB,"Bissau - Guinea-Bissau",TRUE,503.968,1367.43735056953,29.1359647460553,689144666.691825,14683593.88114,GWOXB,Bissau,AI,114.309,5,173.564686401706,503.968,15035.3344636208,15089.1034811537,4.07238919132044,174.224011326603,503.968,15116.9938856707,15177.5162056641,4.06577716797997,0,107.253492454545,0,14.0229985415069,0,7.95683624521092,0,26.8694420544131,0,2.95196353031646,0,34.4283343092099,503.968,14583.7987067226,14683.59388114,4.10654024743563
-15.65446,14.4204092,SEN,"",FALSE,0,2255.07749469541,31.0289501068166,0,0,,,,0,1,96.502844452066,1e-06,1.289843183767e-05,28.1063421809952,5.94864480532001,90.4729697914738,1e-06,1.17626867047033e-05,29.2103398780033,5.57176158595179,1e-06,18.1900107506099,3.10289501068166e-05,6.27217869983436,0,4.48527741531542,0,8.90080630998102,0,0.0531974219530387,0,26.971473640454,0,0.46590470424625,0,15.6784278294526
-15.5441999,14.1010094,SEN,"Debre Zeyit - Ethiopia",FALSE,69.357,2287.6685,33.2273419593215,158665824.1545,2304548.75627266,,,,0,1,192.038274933589,69.357,2390.85078377549,2401.58682513684,3.89963236206432,193.766587968396,69.357,2421.64891460165,2437.1808030184,3.88468717468357,69.357,2274.33911600647,2304.54875627266,3.95242996711518,0,21.1650451081165,0,12.7254512773193,0,1.50286471127226,0,24.6517663417939,0,11.6517542304044,0,14.7733900809498
-13.9632597,17.0292988,MRT,"Fritissa - Morocco",FALSE,15.521,3680.26830758623,24.3321127914395,57121444.4020459,377658.722635932,,,,0,2,119.62443881516,15.521,272.090555605865,370.39377951795,4.77665854031751,119.933260506765,15.521,273.094577950772,380.363734279534,4.77138328321718,15.521,321.375355483877,377.658722635932,4.9766939768721,0,4.92918190617604,0,14.1416596412494,0,0.742567611425133,0,22.6991782046198,0,11.1891855311244,0,11.5211138116746
-15.945537,23.708077,ESH,"Ad Dakhla - Morocco",TRUE,106.277,6999.25678566019,41.685948396546,743860013.409608,4430257.53773972,,,,0,3,222.526440787731,106.277,4521.90266426117,4536.66982217913,3.66098323148117,223.033046685941,106.277,4536.61641907758,4551.27606996113,3.65741703728538,106.277,4390.71429639358,4430.25753773972,3.6904046067574,0,17.6027861844727,0,14.6660252568604,0,0.292930632267498,0,40.833505135242,0,10.2650954592324,0,16.7829011170239
-14.2343597,16.6268101,MRT,"Had Zraqtane - Morocco",FALSE,10.415,3292.61139046978,26.1754116436426,34292547.6317428,272616.912268538,,,,0,2,162.267901759751,10.415,282.237068691441,285.858859608183,4.19156203765639,167.190811812428,10.415,294.548356918189,298.892974283104,4.13821566406594,10.415,274.367023008411,272.616912268538,4.22774774850448,0,2.73608238155098,0,13.3785725366393,0,0.231269097825801,0,24.8120592413967,0,2.53673887123107,0,13.6339950076819
-13.9593992,16.1129189,SEN,"",FALSE,0,2493.74395561908,28.4022929330901,0,0,,,,0,1,152.323439422999,1e-06,2.47581279377921e-05,4.20529738042795,4.67666971564076,85.3186341176196,1e-06,1.08171721414523e-05,24.323553487339,5.72523681754345,1e-06,17.3023489711586,2.84022929330901e-05,6.23410231391819,0,2.15651268450662,0,10.4920951790252,0,0.0813375754189504,0,23.8082718663335,0,0.436732323935497,0,15.6403508015917
-13.203346,27.153675,ESH,"Laâyoune - Morocco",TRUE,217.732,7166.58209753815,43.2531834575172,1560394253.26118,9417602.14057214,,,,0,3,228.673798805563,217.732,9631.87905178735,9770.39480249885,3.61847593286585,229.434213412618,217.732,9677.66752726474,9822.68670747623,3.61333131361638,0,106.029552968068,0,11.2100777813956,217.732,9260.31421841837,9417.60214057213,3.66698325641187,0,2.11342942784974,0,29.8344774354875,0,15.6875749205447,0,18.0749210043712
-14.2115793,13.3027792,GMB,"Tarkwa - Ghana",FALSE,61.291,1770.86443929862,23.1067512092836,108538052.349052,1416235.8883682,,,,0,4,149.215468935133,61.291,1473.41357951935,1483.54110774767,4.34494146695475,150.059778597252,61.291,1485.33808111571,1497.006092299,4.33444736642501,61.291,1397.85461312219,1416.2358883682,4.40934544189225,0,5.70271412207994,0,17.4469386695532,0,1.35142944496452,0,25.005832001404,0,13.6801268589087,0,14.0190020360713
-15.3329,12.0479898,GNB,"",FALSE,0,1367.45133840083,18.1778592380354,0,0,,,,0,5,72.4335692659928,1e-06,8.56123832202074e-06,23.6323963095583,6.99449820588163,59.2484642971397,1e-06,6.42503445373208e-06,29.5718671200289,6.79869479588541,1e-06,13.9673589355346,1.81778592380354e-05,8.20099690104593,0,0.321946889429692,0,21.0474407706054,0,0.0943481725027582,0,28.6063333441586,0,8.2289279982543,0,9.36072334138876
-13.6763992,13.7135201,SEN,"Khénifra - Morocco",FALSE,78.8,2287.6685,28.5775553827832,180268277.8,2251911.36416331,,,,0,1,173.129867627779,78.8,2342.50272848161,2346.92343631568,4.07676944296035,173.918831337457,78.8,2357.76751081993,2363.11529729852,4.06883320917746,78.8,2248.5637136219,2251.91136416332,4.11969263986927,0,11.4646329477779,0,15.4170429280387,0,2.32419044549305,0,22.9759355889702,0,6.96132595679887,0,17.4649815208331
-14.8474998,12.0527,GNB,"Misséni - Mali",FALSE,54.756,1394.43121299449,18.6469722659379,76353475.4987265,1021033.6133937,,,,0,5,128.62957978606,54.756,1064.76898907437,1074.5816744487,4.63036488210518,128.743159177649,54.756,1066.11236695719,1082.37641592116,4.6286137001872,54.756,995.0286274039,1021.0336133937,4.72701110058712,0,5.20898926495496,0,17.5734552891979,0,1.2452309744851,0,25.132348183625,0,13.1713086980494,0,13.9360048565095
-14.299376,10.940929,GIN,"Boké - Guinea",TRUE,116.27,1146.57562365401,27.5929884020649,133312347.762251,3208236.76150809,,,,0,6,168.286176601846,116.27,3319.07055150741,3326.63536966346,4.12665035586695,169.129721378243,116.27,3342.8632625955,3350.54527588228,4.11781692007185,116.27,3186.95266701269,3208.23676150809,4.16967305310557,0,14.5683020658974,0,16.0359124283294,0,2.44921446833805,0,25.0431651663985,0,12.9144950941535,0,16.5263350333404
-13.3009596,12.4839897,GIN,"Kalfou - Cameroon",FALSE,13.99,1189.02775135884,23.7319650851646,16634498.2415102,332010.191541452,,,,0,6,152.32200111467,13.99,346.36153764507,349.327044475193,4.3067409048109,152.564473575935,13.99,347.149452838037,352.184379770386,4.30380600753071,13.99,330.910543030179,332.010191541453,4.37136989488548,0,1.98469959040196,0,15.7080235302534,0,0.412311933468032,0,23.2669164974557,0,1.75528686616856,0,16.1978814212703
-13.6282301,10.0732899,GIN,"",FALSE,0,1176.62521698137,26.8793431772143,0,0,,,,0,6,79.1583827635811,1e-06,9.71892103202867e-06,10.6067993705316,6.64570999487429,70.1499769081941,1e-06,8.17827661522676e-06,11.117227096096,6.27428924351347,1e-06,7.7696788213754,2.68793431772143e-05,6.862191781911,0,0.638708179591475,0,12.8155750333412,0,0.0354990150520517,0,26.3943242528985,0,0.549623369713134,0,13.3059973787574
-13.1784992,11.1257696,GIN,"",FALSE,0,1125.84335585272,17.2149499541175,0,0,,,,0,6,154.387818256886,1e-06,2.52388550463321e-05,2.6907571149739,4.64482438315722,117.369240156847,1e-06,1.70602636848305e-05,4.49093616579044,4.94518664925947,1e-06,4.00185082019257,1.72149499541175e-05,5.08980986560817,0,0.0820910695910948,0,13.4491124839319,0,0.0101399778246148,0,22.6861946296044,0,0.0289897120826598,0,17.446473553479
-13.0830994,11.79953,GIN,"Bethlehem - South Africa",FALSE,7.461,1135.4866,20.8461390559678,8471865.5226,155533.043496575,,,,0,6,138.991484672667,7.461,162.064671107254,164.063579526306,4.47914321508736,138.562363227664,7.461,161.350347916311,164.608419886816,4.48508276949083,7.461,152.669006913726,155.533043496576,4.57031095519353,0,1.49293836773413,0,14.5335946321278,0,0.216893347035037,0,23.5408477501989,0,0.811363410303858,0,16.9269878931634
-13.8246593,13.3325996,SEN,"",FALSE,0,2141.07888826552,23.0399064754911,0,0,,,,0,1,139.641065186294,1e-06,2.18667435064594e-05,2.63385417700066,4.88926142527868,113.505204927798,1e-06,1.62635905111755e-05,3.44108791034893,5.02111690983339,1e-06,3.11945761068079,2.30399064754911e-05,5.14581704263237,0,0.0299200356208453,0,16.443167320361,0,0.00659062158933788,0,24.0020602863676,0,0.0369010768138921,0,15.6032820506313
-13.7090893,13.0267,SEN,"",FALSE,0,2287.6685,21.3110377398114,0,0,,,,0,1,142.884153381957,1e-06,2.25958286168125e-05,0.80534591568192,4.83192940762071,113.641296250436,1e-06,1.62914545836116e-05,1.21548421597922,5.01838119309191,1e-06,1.09971632711469,2.13110377398114e-05,5.14553279093801,0,0.0104463425642474,0,16.4821876069657,0,0.00230809990674887,0,24.0410807717711,0,0.0139136070072367,0,15.3424567746485
-11.400062,16.629969,MRT,"Kiffa - Mauritania",TRUE,110.714,3692.66927840016,24.5103198098448,408830186.488796,2713635.54742716,,,,0,2,155.830668228202,110.714,2831.67548607096,2837.16821713632,4.26491161366896,155.815058121131,110.714,2831.27026775502,2846.87668609589,4.26509471378806,110.714,2713.63554655807,2713.63554742716,4.31651211052121,0,10.0363020359653,0,17.5036015412592,0,5.42362865446464,0,20.4149521129873,0,7.58292718019816,0,18.7742081636086
-12.2216101,14.4544096,SEN,"Sidi Redouane - Morocco",FALSE,20.065,2223.952360451,30.4239054818422,44623604.1124494,610455.663493164,,,,0,1,178.775453608957,20.065,624.455462037034,633.216783956246,4.02108850223986,178.202057477792,20.065,621.596216007373,633.986068549663,4.02662845220494,20.065,600.789399139023,610.455663493164,4.08113461649117,0,4.14511929902717,0,14.1604561295159,0,0.757860018001585,0,21.655304487591,0,1.38640811834165,0,18.6203889753889
-13.712215,9.509116,GIN,"Conakry - Guinea",TRUE,1667.864,2150.37966857964,47.7173443768735,3586540835.55592,79586040.8617897,GNCKY,Conakry,AI,676.60790476,6,242.11694915662,1667.864,80055.3787958748,80115.231705573,3.53096449722213,242.320545863255,1667.864,80151.5657715809,80213.7787838972,3.52969274798069,0,51.2754012102536,0,22.1984106235988,0,20.1338034890316,0,28.0425622079372,0,4.10563644532643,0,41.7305424177724,1667.864,79506.5989806835,79586.0408617897,3.53751550920157
-13.5013895,9.7055101,GIN,"",FALSE,0,1177.39094451741,47.8186094627483,0,0,,,,0,6,57.3816528190694,1e-06,6.1377972757391e-06,61.3642998057208,8.03894145286402,48.5040282124512,1e-06,4.82762600149125e-06,70.2993153694398,7.49038492064634,1e-06,20.7182164402394,4.78186094627483e-05,10.1660868540938,0,3.36803406317863,0,16.0102385050388,0,0.284476525103623,0,29.6982191430172,0,26.5349150330113,0,9.55624952399533
-12.1095896,12.6156893,SEN,"Ādēt - Ethiopia",FALSE,11.216,2258.58745277728,29.7127985122773,25332316.87035,333258.748113702,,,,0,1,176.159141499739,11.216,341.78546203423,348.358768418666,4.04657555721284,177.574630516752,11.216,345.715555431356,353.019739692948,4.03271975489559,11.216,333.258739409525,333.258748113702,4.0912159281251,0,2.55845694603037,0,13.8214397990369,0,0.446821289062038,0,21.3803309623048,0,0.835903917901471,0,18.2813709115485
-12.9784594,10.6564093,GIN,"Bawku - Ghana",FALSE,30.311,1134.95099453162,19.5251633744116,34401499.5952479,591827.22704179,,,,0,6,134.069945361396,30.311,625.352333133594,629.714820123326,4.54888512302711,131.356205997834,30.311,607.348363342219,648.923132404589,4.58892581372098,30.311,548.097269219123,591.82722704179,4.78679622941895,0,24.6212200919042,0,10.3975725798947,0,0.870777807630107,0,23.9763217147563,0,4.99202699152703,0,15.4949482688138
-12.854191,10.049703,GIN,"Kindia - Guinea",TRUE,181.126,1272.4382327917,31.7736110513414,230471647.35263,5755027.07528526,,,,0,6,184.779861443239,181.126,5909.33289063353,6000.80879530545,3.96456021459817,185.45237275371,181.126,5940.0813747999,6065.1523966308,3.95839232736067,181.126,5602.34513929106,5755.02707528526,4.0377255901688,0,68.9021378749446,0,12.1247025273551,0,3.41154677965658,0,25.7034514205829,0,31.4944929677317,0,14.7458771775303
-12.7595196,8.4948397,SLE,"",FALSE,0,1525.79033972791,18.3068914371631,0,0,,,,0,7,58.3335005118598,1e-06,6.28376104647198e-06,57.1816675630323,7.95830752672442,49.9168103401432,1e-06,5.02975118153165e-06,74.8662520162814,7.38599558436866,1e-06,14.2209485776118,1.83068914371631e-05,11.1878960927686,0,19.0281438038619,0,10.4023499103643,0,0.250170563627554,0,30.720029805791,0,17.7950074745312,0,10.5780598793959
-13.234314,8.484392,SLE,"Freetown - Sierra Leone",TRUE,1035.246,1636.18751938735,51.9455928614036,1693856584.69567,53776467.2273966,SLFNA,Freetown,AI,292.305,7,256.979870256862,1035.246,54104.8472860655,54163.9561804108,3.44194979408518,257.231113689873,1035.246,54180.4303874527,54254.0427993197,3.44050860694345,0,27.5998427212687,0,22.9088888304251,0,31.7336276557659,0,22.1233426584423,0,2.34303846455617,0,42.4410216810572,1035.246,53699.1101439739,53776.4672273966,3.44936301779645
-11.6982899,26.7553997,ESH,"Malakal - South Sudan",FALSE,57.035,6390.125709182,25.1492270818786,364460819.823195,1434386.16661495,,,,0,3,158.641978758021,57.035,1496.49581628823,1534.38535485358,4.23235511680966,161.203306151115,57.035,1531.13118447142,1572.58179125749,4.20340299543177,57.035,1385.67050538122,1434.38616661495,4.33849744885868,0,48.305442268384,0,10.0404996600994,0,1.76567459501318,0,22.9628979656377,0,3.86118375676704,0,18.8831409558797
-11.1610899,28.4597492,MAR,"Kukawa - Nigeria",FALSE,73.209,6295.70213058728,39.2491173607986,460902057.278165,2873388.6328667,,,,0,8,213.068946441878,73.209,2927.53064809507,2986.98505729609,3.72976289816867,214.024244880729,73.209,2946.29955647656,3011.46456132057,3.72261898730156,73.209,2819.44431366755,2873.3886328667,3.78444455396589,0,34.9278223125652,0,11.3435803641384,0,1.6679420921095,0,24.265978503343,0,5.85694474521184,0,17.7265922261742
-12.283231,11.316916,GIN,"Labé - Guinea",TRUE,127.747,1146.98337636056,35.8287216279254,146523685.379933,4577011.70180259,,,,0,6,200.286511635461,127.747,4676.31951661881,4741.52330723223,3.82997797353645,201.789935766036,127.747,4726.5460219364,4791.2872745446,3.81772253440169,127.747,4514.85928355781,4577.01170180259,3.87486306317221,0,42.5206268588459,0,12.4384854115888,0,4.81177840506658,0,21.4457391155915,0,9.01569009089043,0,18.3302199436952
-12.08277,10.383497,GIN,"Mamou - Guinea",TRUE,376.269,1135.61305456118,26.8662514052221,427295988.426679,10108937.5499915,,,,0,6,165.127844159496,376.269,10454.2474533009,10634.4802275785,4.16029392780786,166.242193101822,376.269,10555.1779474251,10760.1129350249,4.14831932328485,0,210.123428201813,0,11.0970557473395,376.269,9855.36411946718,10108.9375499915,4.240413594889,0,8.29285997627203,0,24.8971885524442,0,14.0949873496242,0,21.8052071741188
-11.74007,7.956451,SLE,"Bo - Sierra Leone",TRUE,249.807,1496.9442,25.5146367561591,373947139.7694,6373734.86414584,,,,0,7,159.746661046649,249.807,6619.7853838346,6721.31157218606,4.21978694684055,160.429002945321,249.807,6660.21625741401,6763.17176809236,4.21208568665801,0,83.5142905016613,0,12.6355631810391,249.807,6221.66009919332,6373.73486414584,4.30088897364409,0,2.69347794533634,0,29.8164859347848,0,38.7132867453014,0,15.313335312589
-10.971644,8.643743,SLE,"Koidu - Sierra Leone",TRUE,300.387,1517.04766003136,22.0121301485176,455701395.453841,6612157.73892276,,,,0,7,144.783769315384,300.387,6916.77142871625,6961.73895407852,4.40144854253297,145.887510566772,300.387,6992.22166955667,7051.76633076483,4.38714611838095,0,94.0139826287117,0,12.9109579154859,300.387,6507.15312626915,6612.15773892276,4.47619317538653,0,5.13168251565038,0,26.7110917700966,0,25.7062540609659,0,17.8544666157012
-10.8695793,12.6057196,MLI,"Kawambwa - Zambia",FALSE,10.832,2285.3071,24.4574447781555,24754446.5072,264923.041836981,,,,0,9,149.027026558071,10.832,259.927718909172,280.34649935185,4.34729537002577,149.551926940004,10.832,261.236580882034,283.903828611079,4.34074943612547,10.832,264.923069102093,264.92304183698,4.41649337307227,0,1.78787578364694,0,15.4089563893554,0,1.51620776914154,0,16.0571286398153,0,0.489616123428587,0,21.3006909319495
-11.432892,14.449705,MLI,"Kayes - Mali",TRUE,174.373,2363.01954108217,36.6490483544719,412046806.437122,6390604.50871433,,,,0,9,203.733198228631,174.373,6540.61467315826,6549.41896321895,3.80207359243766,204.494215229747,174.373,6575.54481256496,6581.31309260143,3.79600315669256,174.373,6384.23159958097,6390.60450871433,3.82496569479323,0,13.8959255038295,0,17.7085432851375,0,9.96132103351163,0,19.2453349281025,0,5.65816345676883,0,22.1684760002819
-11.8790693,12.8341799,SEN,"",FALSE,0,2287.6685,30.2988245952444,0,0,,,,0,1,131.920922553637,1e-06,2.01604002051102e-05,7.03166900782634,5.03514876844661,115.695928724423,1e-06,1.67138638023455e-05,6.98872201706142,4.97759622831211,1e-06,6.37293070340993,3.02988245952444e-05,5.09371012719237,0,0.0753966428715333,0,15.4447832309628,0,0.0323029814583344,0,19.0901745373512,0,0.0273312289630398,0,19.9047152309325
-11.5879192,10.1457901,GIN,"",FALSE,0,1178.37874359219,21.1600028678453,0,0,,,,0,6,96.8297406285112,1e-06,1.29608949365365e-05,14.291240139808,5.93762553448705,79.130214522083,1e-06,9.71398077304759e-06,17.9129914520504,5.92949533828848,1e-06,5.14479225705067,2.11600028678453e-05,8.09967863028506,0,8.34364349490391,0,7.17746042681861,0,0.096267377394021,0,21.8998124342742,0,0.124025203853705,0,20.5557162593808
-9.299825,10.383689,GIN,"Kankan - Guinea",TRUE,198.013,1153.17201735961,31.112356240142,228343050.673428,6160650.99617924,,,,0,6,183.957235267836,198.013,6419.23285652619,6477.19071632924,3.97214860925448,184.551253494966,198.013,6448.8653508569,6502.50812180634,3.96666417577489,198.013,6120.4680705894,6160.65099617924,4.02716571156987,0,58.2511878311592,0,12.8934596205117,0,15.9382442086339,0,17.8272988048779,0,4.49334361278186,0,24.4654529481358
-11.3188601,7.3100801,SLE,"",FALSE,0,1344.94827331861,15.4784810906556,0,0,,,,0,7,74.4455709929045,1e-06,8.90297447727031e-06,48.7161429102462,6.88423129813749,64.5479985906249,1e-06,7.26150158202883e-06,57.6290689909655,6.52640538575275,1e-06,24.393454293081,1.54784810906556e-05,8.09125923875462,0,8.56213778521608,0,10.5120857430517,0,0.182218292244747,0,27.5224210907595,0,7.77376231792703,0,10.7690311703839
-11.1890097,7.8601699,SLE,"Khartoum North - Sudan",FALSE,188.463,1485.97140072144,26.5325861186727,280050628.094164,5000410.77768342,,,,0,7,163.963220572973,188.463,5183.57268318736,5332.80755340813,4.17293277691365,164.43648153905,188.463,5204.95987595009,5381.99599094186,4.16778137812051,188.463,4787.50527219008,5000.41077768341,4.29154287685031,0,134.664345346785,0,10.479187638457,0,1.58977423584818,0,31.7912004624159,0,27.0559421290217,0,15.6521899284032
-2.216954,31.616774,DZA,"Béchar - Algeria",TRUE,179.119,13194.7313701357,47.9612505819522,2363427088.28733,8590771.24298869,,,,0,10,245.284243520473,179.119,8758.60719748963,8766.05473363974,3.51135143314255,244.679661193413,179.119,8727.78289527977,8899.17099841695,3.51506719886308,179.119,8458.91368861173,8590.7712429887,3.5599374846148,0,74.5039288593784,0,11.6205377844615,0,7.38816640342906,0,20.7079381418157,0,7.14560077237628,0,20.8814830113116
-10.0955496,9.1883497,GIN,"Mongu - Zambia",FALSE,66.815,1121.84293071791,25.8338628216588,74955935.4159169,1726089.54442914,,,,0,6,158.540538741314,66.815,1751.50424030766,1829.36161592017,4.2335154779048,159.661709613611,66.815,1769.22577686024,1841.63780433506,4.22074904051663,66.815,1619.04111469166,1726.08954442913,4.35889207374919,0,57.9772831945137,0,10.0201938117649,0,4.0397014573072,0,19.5030834799172,0,2.5707522807716,0,21.8361236507574
-10.3059597,14.7111797,MLI,"Ikot Abasi - Nigeria",FALSE,18.328,2285.3071,26.3038363987401,41885108.5288,482096.713516109,,,,0,9,161.11018238713,18.328,491.617715754976,502.664669997832,4.20444417343556,161.94153829515,18.328,495.245763287399,507.211577649152,4.1951800995552,18.328,482.096873093907,482.096713516109,4.24878073714957,0,1.68405660070205,0,17.4766729538485,0,2.28092821078774,0,16.2001866924649,0,0.574456620738139,0,22.8682884119161
-9.6050797,16.6627998,MRT,"Abū Ḩamad - Sudan",FALSE,24.199,3760.08548182476,19.5791653774687,90990308.5746773,473796.222969366,,,,0,2,132.24436088115,24.199,489.571163237213,504.295014432391,4.5756921870362,133.945090116209,24.199,498.590364689965,509.09620811695,4.5507018116236,24.199,473.796233668489,473.796222969365,4.63319354152553,0,4.06731857283982,0,15.2212847625085,0,2.01962055518122,0,18.1326351661458,0,1.08780198676436,0,21.1661038484132
-10.801398,6.313299,LBR,"Monrovia - Liberia",TRUE,1110.25,967.725459213548,41.2600904571139,1074417191.09184,45809015.4300107,LRMLW,Monrovia,AI,467.27200002,11,219.599814549151,1110.25,46354.1813540942,46459.3866871891,3.68181425985589,219.948910100147,1110.25,46459.4868631919,46583.1265592826,3.67930870008204,0,75.236522469667,0,18.3533864046042,0,45.8347863545284,0,20.7742131858185,0,4.37030201743862,0,37.3848402404761,1110.25,45680.6636548643,45809.0154300107,3.69734762323668
-10.132382,8.567176,GIN,"Guéckédou - Guinea",TRUE,221.715,1099.39487496181,19.6079430369351,243752334.702158,4347375.09043406,,,,0,6,135.345888395979,221.715,4636.56344630608,4708.57338319118,4.53045662801002,136.132501540025,221.715,4675.10722035405,4749.12620861458,4.51921877301242,0,144.243696264673,0,10.8253658707155,221.715,4209.59138441442,4347.37509043407,4.65754230138839,0,4.35520979677158,0,25.9695564308537,0,8.17617491805838,0,22.1860125950255
-10.066664,28.983267,MAR,"Guelmim - Morocco",TRUE,118.318,6238.3237,43.0273185293868,738105983.5366,5090906.27375998,,,,0,8,229.390588993938,118.318,5257.5241784101,5262.30688705017,3.61362580489493,229.958066861439,118.318,5276.11448811486,5282.1786068492,3.60980131160107,118.318,5090.90627142792,5090.90627375999,3.64324009976001,0,17.2494110351113,0,15.1005583074869,0,1.45442258605976,0,28.0229556630864,0,13.687143071581,0,15.9995722287798
-10.4223099,8.6459198,GIN,"",FALSE,0,1227.60079775481,18.0701264188066,0,0,,,,0,6,94.7333524576793,1e-06,1.25618958193698e-05,13.0832805423961,6.00943111003816,82.0673772653466,1e-06,1.02331412745063e-05,12.3619487993859,5.82958908592472,1e-06,2.48100424432506,1.80701264188066e-05,8.70969191056171,0,7.11865041731013,0,6.69206620687173,0,0.0440966731614802,0,23.8538827704134,0,0.0879876731437997,0,20.0703390979157
-9.4627399,13.0295696,MLI,"Ghardaïa - Algeria",FALSE,57.187,2269.38964058337,35.3665191502151,129779585.376041,2022505.13064335,,,,0,9,180.812898960936,57.187,1808.79922230889,2072.83573849589,4.00160671699196,175.305419068658,57.187,1730.60851785628,2076.30276358775,4.05500934343176,57.187,1815.0467309986,2022.50513064335,4.193653814332,0,5.35742719900392,0,17.9918354173718,0,71.0907378232635,0,9.42673449516168,0,1.72528646486542,0,23.8835702867128
-9.4801102,7.0074396,LBR,"Zuwārah - Libya",FALSE,34.046,786.9167,15.4325262289124,26791365.9682,525415.787989552,,,,0,11,101.959481110204,34.046,475.037626987939,566.104992478194,5.11521329517784,100.036665404888,34.046,462.291593957741,575.518659200455,5.15712130118007,34.046,458.211935644819,525.415787989552,5.45953429544757,0,14.8923111706589,0,12.8582444214012,0,1.13152372252379,0,24.4909886050893,0,20.9325666344239,0,11.8090940324454
-9.544252,15.181505,MLI,"Nioro - Mali",TRUE,116.376,2301.37386339613,31.0032048103123,267824684.726588,3608028.96300491,,,,0,9,182.47137334307,116.376,3729.24772429485,3736.25890113792,3.98597870802108,183.615637459777,116.376,3762.70089118264,3771.38632622332,3.97531396755564,116.376,3608.028771089,3608.0289630049,4.01956625847458,0,10.6729610283751,0,17.235562602986,0,14.3895807040003,0,15.9950152782087,0,3.26215428351045,0,23.1803814491668
-9.5260296,14.5371294,MLI,"Rundu - Namibia",FALSE,52.399,2258.05105134941,26.6645356098404,118319617.039658,1397195.00142003,,,,0,9,156.749825584116,52.399,1351.48957503212,1442.13519083568,4.25417556066646,156.191680896849,52.399,1344.62011400182,1476.84762079842,4.26068409336124,52.399,1342.03148972098,1397.19500142003,4.36387778995066,0,9.0997532484821,0,15.2074311545601,0,21.2986367576396,0,12.2949086997567,0,1.49280857281398,0,23.8952870996634
-9.4735699,8.5450697,GIN,"Manzini - Eswatini",FALSE,43.102,1096.84397846855,22.3680314344588,47276169.1599514,964106.890888042,,,,0,6,145.430314078884,43.102,998.812776715636,1033.95842936853,4.3930517556657,144.922650956144,43.102,993.835617605824,1039.2101272703,4.39964034718928,43.102,910.10828170779,964.106890888043,4.54799262238915,0,33.2329493609719,0,10.404010916089,0,2.40687694848959,0,20.0553186114627,0,1.80860667136774,0,21.5405610266928
-9.716798,29.717562,MAR,"Tiznit - Morocco",TRUE,108.998,6238.3237,44.8746618567915,679964806.6526,4891248.39306656,,,,0,8,231.761897454988,108.998,4915.0689915559,5048.77850654374,3.59773349745362,231.211583356498,108.998,4898.40499962087,5080.90502445216,3.60140088985463,108.998,4782.53309254361,4891.24839306656,3.65630352082083,0,10.9414892460381,0,16.7181274731159,0,1.10734668877161,0,29.6405230365007,0,52.8792855434732,0,11.2754879059477
-9.599649,30.433289,MAR,"Agadir - Morocco",TRUE,1070.86,6374.8461531175,58.0517269919173,6826567751.5274,62165272.3665645,MAAGA,Agadir,AI,593.66057139,8,279.394590562046,1070.86,63068.0548284409,63214.7681404409,3.32077379719294,279.923142919759,1070.86,63238.5677804454,63405.5654911022,3.31808507297451,0,132.589811556018,0,15.516430623102,0,32.283256048854,0,22.0889478823205,0,32.0915282147273,0,22.1218663119623,1070.86,62010.8988250758,62165.2723665646,3.33658624613066
-5.986109,14.249942,MLI,"Niono - Mali",TRUE,128.619,2285.3071,33.8806562465947,293933913.8949,4357696.12578076,,,,0,9,193.589941173915,128.619,4484.97623785104,4537.69799854844,3.88620593978489,194.288942529893,128.619,4508.12847712524,4568.01527131267,3.88020766246221,128.619,4297.51967978074,4357.69612578076,3.93987449029284,0,51.14745500413,0,11.9283630798002,0,5.19048876952009,0,21.1341507215561,0,3.03537180635808,0,24.1676206084404
-8.8621101,31.2670689,MAR,"Dayr Mawās - Egypt",FALSE,41.579,6727.27118707371,36.8417125347524,279713208.687338,1531841.56548247,,,,0,8,193.542575824327,41.579,1449.36323909124,1709.6504890992,3.88661352793162,196.013401909192,41.579,1475.86827805887,1737.97225125901,3.86554068617177,41.579,1423.86678043405,1531.84156548247,4.06306358060334,0,30.327666435495,0,10.6355808157321,0,29.9550824577963,0,10.6684992457825,0,26.4154050951926,0,11.0092223262566
-9.551909,13.355745,MLI,"Balandougou - Mali",TRUE,1631.251,2258.59960670909,27.9096560141396,3684342867.04381,45527654.2827213,,,,0,9,167.407112558628,1631.251,46218.9699889498,46276.9653793959,4.13592327836023,168.281255240642,1631.251,46564.1263117194,46654.9523718239,4.12670206348189,0,176.545430521083,0,16.6384717137699,0,23.7200332678715,0,27.4820250253184,1631.251,45407.0800418222,45527.6542827212,4.15476686122391,0,7.90536478865281,0,36.1698807841978
-9.1929197,14.5529394,MLI,"Cahama - Angola",FALSE,43.276,2285.3071,27.938885275401,98898950.0596,1209083.19917825,,,,0,9,155.884336077211,43.276,1107.39277749829,1234.16790863915,4.26428229191096,155.924157621726,43.276,1107.79692792463,1279.1541788827,4.26381549039869,43.276,1096.53543480076,1209.08319917825,4.43122149059471,0,19.5574112487827,0,12.1255455627116,0,30.1164048212449,0,10.8849978401127,0,1.24889364701094,0,24.1211380133106
-8.816789,7.750291,GIN,"N’Zérékoré - Guinea",TRUE,195.027,1164.86349690503,28.8972795876179,227179833.210898,5635749.74613435,,,,0,6,174.92171011834,195.027,5883.51406752798,5900.79941354621,4.05881913805563,175.348083100694,195.027,5904.0120631732,5923.83502952913,4.05458647048135,195.027,5603.46123394672,5635.74974613436,4.11133828755972,0,48.3225956238361,0,13.491484648394,0,5.58118252749986,0,23.1427922378012,0,9.98919936158774,0,20.0085050033475
-8.1639996,7.2641697,CIV,"",FALSE,0,3149.8581711304,28.2093242708592,0,0,,,,0,12,79.1994312813299,1e-06,9.72612163444045e-06,22.2206982572287,6.64374955123679,65.6461772316402,1e-06,7.43863233426247e-06,24.5013755283111,6.47433877299005,1e-06,8.44825175987606,2.82093242708592e-05,8.44892226568111,0,8.60228043442626,0,8.4108449488491,0,0.0754892392423719,0,27.4803470365994,0,0.856519568131752,0,14.9729979550017
-7.5722198,9.5049696,CIV,"Bariadi - Tanzania",FALSE,86.279,3289.988,39.2309187365728,283856874.652,3384804.43767277,,,,0,12,216.836882498641,86.279,3537.67381913669,3542.79924096865,3.70184739582742,217.601088296093,86.279,3555.49861492068,3559.90473860887,3.69627004318641,86.279,3384.8044166414,3384.80443767276,3.74317293219911,0,27.3607593267426,0,12.4836404773947,0,5.07051362978405,0,19.0265614335215,0,2.13481091970082,0,23.6201935224054
-8.002662,12.639193,MLI,"Bamako - Mali",TRUE,4552.105,2286.20141850059,45.3510168389582,10407028908.1636,206442590.507706,,,,0,9,234.740217663754,4552.105,209047.728657445,209435.482769828,3.5780990676159,234.972149316023,4552.105,209342.857636023,209748.677400473,3.57658501223775,0,356.854837662735,0,17.6104503814548,0,127.002905863953,0,22.8002676889969,4552.105,206087.886257236,206442.590507706,3.59236324107983,0,17.7305024368056,0,37.3003666548002
-9.166742,11.416769,GIN,"Siguiri - Guinea",TRUE,183.875,1135.4866,32.4018248026735,208787598.575,5957885.53559159,,,,0,6,185.734075024409,183.875,6043.32552739659,6203.28184481035,3.95581821088263,185.923636116306,183.875,6052.13866426001,6223.89427429903,3.95408918265664,183.875,5860.73445725202,5957.88553559159,4.01396887739604,0,24.081547390326,0,15.8540753161292,0,45.9834594531544,0,13.4868834089743,0,3.15109446696018,0,26.3600765835521
-7.4854398,11.42488,MLI,"Souk Ahras - Algeria",FALSE,95.222,2285.3071,32.0476990885096,217611512.6762,3051646.00260606,,,,0,9,181.474289575101,95.222,3027.57999418461,3237.54873716351,3.99534989246071,181.930368202378,95.222,3038.45566146794,3254.5569563308,3.99105428091364,95.222,2929.62189898879,3051.64600260606,4.09739383860329,0,56.5650152458968,0,10.9919217414719,0,22.1359881954782,0,13.897474241982,0,2.27858842936171,0,24.5354568255473
-9.233368,32.283274,MAR,"Safi - Morocco",TRUE,395.857,6780.39513730578,50.0776184680819,2684066877.86845,19823575.8139195,,,,0,8,254.694488585686,395.857,20426.25349593,20551.9703300692,3.45515233007078,255.899939478306,395.857,20564.5020172495,20728.7788820924,3.44816750682803,0,154.969316356354,0,11.7265525998845,395.857,19637.981721248,19823.5758139195,3.49508362915173,0,25.9471037491117,0,18.3319880147026,0,31.2609854583737,0,17.4977062096189
-8.500158,33.233179,MAR,"El Jadid - Morocco",TRUE,467.017,7268.41013196153,54.5650407804857,3394471094.59828,25482801.6501801,,,,0,8,267.508907444034,467.017,25848.6796523739,26257.0690928978,3.38322291189168,268.175208148887,467.017,25940.7042602632,26379.6395505137,3.37961783764996,0,90.8071352903849,0,13.9525894308225,467.017,25261.5513159128,25482.8016501801,3.41640857782808,0,19.2669799039518,0,20.5580254426095,0,83.1726924765758,0,14.262301679532
-8.3035603,32.2542381,MAR,"Funtua - Nigeria",FALSE,139.815,6725.98050128035,37.1479411148004,940392963.786512,5193839.38696582,,,,0,8,210.543065494292,139.815,5496.57125150801,5639.96381111324,3.74887437870845,211.741446579211,139.815,5541.31956093478,5721.44859545947,3.7397664996936,139.815,5030.90685097521,5193.83938696582,3.86197464189778,0,121.168487777034,0,9.80332872685521,0,33.2113977401588,0,13.5487491030564,0,21.9486318130588,0,15.0268906624321
-8.2107401,31.9539585,MAR,"Ouled Fayet - Algeria",FALSE,38.613,6720.5864,38.3004049757337,259502002.6632,1478893.53732801,,,,0,8,205.067164767224,38.613,1461.91426668665,1608.56855209612,3.79145417178875,203.434450888643,38.613,1445.314762912,1642.85420845844,3.80446548223537,38.613,1344.78472795347,1478.89353732801,3.99972572925138,0,49.622758635025,0,9.12584692609004,0,27.2084963613945,0,10.6051611339862,0,9.3983749267375,0,13.8334409149791
-8.008349,31.630015,MAR,"Marrakech - Morocco",TRUE,1132.514,6720.5864,58.6646890573813,7611158186.2096,66438581.6631311,,,,0,8,282.731668178849,1132.514,67840.133515706,68166.0054462426,3.30391892148179,283.53148403495,1132.514,68114.4596929314,68494.3719505231,3.29992139114195,0,233.505095505674,0,13.6566200318397,0,112.775146801333,0,16.3818885377353,1132.514,66094.8391884792,66438.5816631311,3.329472474716,0,45.0781485865062,0,20.602778799008
-7.6750998,8.2902699,CIV,"Krugersdorp - South Africa",FALSE,55.013,3186.43542100719,24.1835686231057,175295371.815869,1330410.66066291,,,,0,12,151.783299501992,55.013,1355.12452712147,1416.4121213301,4.3132850049081,151.616224219092,55.013,1352.99409888793,1426.31358910789,4.31532137163989,55.013,1264.36323444052,1330.41066066291,4.44732567737076,0,40.1783605863096,0,10.5334065766349,0,2.97973188048604,0,20.1847148062335,0,2.24303093580186,0,21.6699596363509
-7.583329,33.53329,MAR,"Casablanca - Morocco",TRUE,4219.891,9656.635,70.9405986874118,40749947126.785,299361593.935621,MACAS,Casablanca,AI,2434.0279715,8,320.760343338978,4219.891,302718.483663901,303385.811089284,3.12997597226117,320.917034222672,4219.891,302929.759298117,303654.781760226,3.12932092021893,0,238.417800398545,0,18.6943541410614,0,156.436059846566,0,20.7711679673815,0,166.967207416956,0,20.4355974434348,4219.891,298926.700857054,299361.593935621,3.14162220132164
-7.9837198,32.2262306,MAR,"Qillīn - Egypt",FALSE,132.168,6742.80992422409,43.2105007592418,891183702.06485,5711045.46434747,,,,0,8,227.113559001671,132.168,5789.85174450115,6197.89882277515,3.6291087192045,227.816158877737,132.168,5815.45658324182,6267.83701505213,3.62430773391212,132.168,5415.56245657886,5711.04546434747,3.75918411779284,0,88.5676144574924,0,10.5120097141096,0,78.3097775951253,0,10.8405294304148,0,46.9637296401399,0,12.3186707073477
-7.59407,7.3604698,CIV,"Pikine - Senegal",FALSE,241.969,3331.50044575431,31.6783867627629,806119831.358724,7665187.56659899,,,,0,12,183.579160572154,241.969,7821.18818854825,7890.85998742674,3.97565247478744,184.373300540422,241.969,7869.56646946266,7946.82878800919,3.96830452387612,0,61.5424137842887,0,13.377033841627,241.969,7561.76218733535,7665.18756659898,4.01788685182883,0,2.74271799556468,0,29.1144224336037,0,12.5633276395456,0,19.9011094609036
-7.408295,32.048099,MAR,"El Kelaa des Srarhna - Morocco",TRUE,223.364,6725.77294838356,38.3125407240053,1502295548.84275,8557642.34627671,,,,0,8,210.287935666164,223.364,8765.95042384858,8962.45731306933,3.75082296586332,211.73306057258,223.364,8852.13513604139,9099.18732018604,3.73982997785938,0,80.0348789987295,0,12.2118844876457,223.364,8377.38532125466,8557.64234627672,3.81790736704849,0,68.4619426682834,0,12.6981427882466,0,9.56201494335423,0,20.771370873869
-6.26652,13.449454,MLI,"Ségou - Mali",TRUE,240.936,2285.3071,34.5068161376911,550612751.4456,8313934.25295074,,,,0,9,194.257897070453,240.936,8442.94007372061,8823.73571320919,3.88047341791953,194.166189151284,240.936,8437.24656641057,8902.78478331881,3.88125879896913,0,161.94068123985,0,10.56854207576,240.936,7999.46738736612,8313.93425295074,3.98647277657817,0,66.7020547537966,0,13.1922620234195,0,2.41006736300879,0,30.2584577389294
-7.350092,6.733084,CIV,"Duekoué - Côte d’Ivoire",TRUE,284.596,3302.72447034709,26.4823462879371,939942173.3629,7536769.82416175,,,,0,12,163.015790770811,284.596,7763.12368390181,7763.19730922259,4.18330954912566,163.26416589675,284.596,7780.02648262282,7780.11525016263,4.18058088539996,0,29.6910160073708,0,16.8200342251668,284.596,7533.59849686628,7536.76982416175,4.21436862778918,0,2.11510839434085,0,32.5574209481936,0,9.2216688506235,0,22.5310152730168
-6.841593,34.020894,MAR,"Rabat - Morocco",TRUE,1891.455,7891.94605770258,67.9275739994679,14927260830.5718,128481949.479164,,,,0,8,311.170431064513,1891.455,129927.712830266,130556.990192568,3.17095866956621,312.570012138614,1891.455,130763.357240884,131647.059627784,3.16486581070677,0,117.419369670294,0,18.3135760358835,0,279.007735822774,0,14.750407915826,1891.455,127967.039497127,128481.949479164,3.18737792854422,0,143.549728324766,0,17.4163642198098
-6.5227799,32.8590393,MAR,"Randburg - South Africa",FALSE,178.623,9675.0688844993,45.6605596927238,1728189829.35592,8156026.1539934,,,,0,8,234.197280281203,178.623,8175.86873970547,8652.09460832081,3.58165175249368,234.390850173441,178.623,8185.52410549344,8888.48683144227,3.58038378652874,178.623,7749.12298683666,8156.0261539934,3.7053002148946,0,135.018928464531,0,10.1985370142856,0,81.3875984316012,0,11.5743599047902,0,64.6223764598321,0,12.2614211593338
-6.4903197,9.5225697,CIV,"Kikuyu - Kenya",FALSE,92.792,3289.988,40.8585933304043,305284566.496,3791350.59231487,,,,0,12,218.465330642653,92.792,3845.60947966606,3958.28400877208,3.6899962390386,218.972962166484,92.792,3858.38119680646,3991.46556139658,3.68632767446203,92.792,3659.43339571312,3791.35059231488,3.76724245124581,0,80.5288712918284,0,9.78113225531848,0,4.53867172185562,0,20.0745052508817,0,1.99050274296583,0,24.6681373263391
-5.666994,11.316457,MLI,"Sikasso - Mali",TRUE,315.73,2285.3071,34.5993127669643,721540010.683,10924041.0199136,,,,0,9,196.898346583603,315.73,11279.3513867866,11410.9140899287,3.85808536577894,197.66129787193,315.73,11341.8400189331,11520.7284887159,3.85169611295115,0,186.349400089344,0,10.8004040084799,315.73,10702.3095022179,10924.0410199136,3.92330998961559,0,14.0792098871054,0,20.6004844293566,0,2.66274291061084,0,31.238466264173
-6.36073,32.339077,MAR,"Béni Mellal - Morocco",TRUE,559.315,9578.10692231839,51.2521768542167,5357178873.25651,28666111.2972162,,,,0,8,258.002002995426,559.315,29397.6014867637,29467.6443447846,3.43609914237426,258.710248492311,559.315,29512.9547442483,29581.1840704936,3.43206455378582,0,93.5833567721225,0,14.4713711568222,559.315,28583.4448651273,28666.1112972162,3.46163038422971,0,53.3743898540951,0,16.6523720943441,0,14.5965694636363,0,23.0274919735833
-6.9510198,6.7373199,CIV,"",FALSE,0,3289.988,26.0983083598812,0,0,,,,0,12,172.271961485111,1e-06,2.95169779096549e-05,2.00106833418212,4.39553639430093,150.954067133093,1e-06,2.44407799962827e-05,2.54322408083154,4.41374847642959,1e-06,0.0180411259801983,2.60983083598812e-05,15.2086610486322,0,2.41941638138029,0,4.46915924910639,0,0.00105271443561409,0,30.946049496921,0,0.00504002850602767,0,20.9196418222019
-6.59448,6.48704,CIV,"",FALSE,0,3289.988,30.2351215412896,0,0,,,,0,12,147.261766846477,1e-06,2.35912549952504e-05,6.5828049911876,4.75787004825258,137.755321061639,1e-06,2.14461196945093e-05,7.66784412403868,4.59926273628703,1e-06,0.060853405750158,3.02351215412896e-05,15.409417790463,0,7.21420012810761,0,4.669919688914,0,0.00482258841886816,0,29.0431172499714,0,0.0262356650593517,0,19.0167077611875
-6.450154,6.883246,CIV,"Daloa - Côte d’Ivoire",TRUE,466.205,3289.988,31.5809428623859,1533808855.54,14723193.4671586,,,,0,12,184.353237076111,466.205,15160.0448993945,15178.3417547211,3.96848960983072,184.906739438455,466.205,15225.110332037,15245.413786838,3.96339410464961,0,79.6778626801704,0,14.7406842964584,466.205,14677.5590919018,14723.1934671586,4.00118473927698,0,3.9796259782475,0,31.1811053447566,0,18.783628550182,0,21.1547156736607
-5.51861,33.8304405,MAR,"Ibadan - Nigeria",FALSE,713.763,5725.32862494757,52.8535171786926,4086527735.32846,37724884.9820151,,,,0,8,262.747207890648,713.763,38504.9577856162,38831.59413412,3.4093652436811,263.688033158802,713.763,38702.0740016557,38992.9037696866,3.40414658740452,0,38.1920334718099,0,19.2424981443006,713.763,37519.5320805262,37724.8849820152,3.437085172216,0,194.188143442621,0,12.8144204853729,0,26.3547037144732,0,21.1125219841178
-6.633194,4.750108,CIV,"San-Pédro - Côte d’Ivoire",TRUE,390.654,3573.43717303907,31.4114659961222,1395977525.39641,12271014.8372491,CISPY,San-Pdro,AI,2312.50202864,12,179.871295190753,390.654,12264.3905104453,12429.0053790968,4.01057098336805,180.100200923714,390.654,12286.6933996211,12477.6025446006,4.0083855869891,0,6.89230806748715,0,26.1463526103204,0,38.7244562537018,0,16.9826691171211,0,1.30873204261628,0,39.6086110474149,390.654,12182.5403825151,12271.0148372491,4.03243906892297
-6.600167,5.783308,CIV,"Soubré - Côte d’Ivoire",TRUE,310.768,3216.67761193904,26.8544558285881,999640468.107073,8345505.52893867,,,,0,12,163.331350206976,310.768,8500.48746235977,8633.70604069352,4.17984381839988,163.840242829685,310.768,8538.3484625555,8685.53998255073,4.1742748466638,0,31.8467947630198,0,16.9634356741491,310.768,8250.41955790369,8345.50552893867,4.22825565352394,0,3.00883264042639,0,30.5971340524819,0,48.329841570974,0,15.2836261233723
-4.034,5.317569,CIV,"Abidjan - Côte d’Ivoire",TRUE,9022.419,3473.84868051719,53.7001420652593,31342518338.2232,484505182.072294,CIABJ,Abidjan,AI,3248.84543344,12,262.802133733754,9022.419,486872.555013368,487041.440160536,3.40905984155093,262.935313927559,9022.419,487225.06803487,487416.595600644,3.40831970572411,0,159.864471774098,0,25.3266305097758,0,92.8849602077443,0,29.008752588631,0,29.0557574041594,0,38.7888902093744,9022.419,484340.153017557,484505.182072295,3.41371912190123
-5.93669,6.13259,CIV,"Gagnoa - Côte d’Ivoire",TRUE,277.044,3292.32142843847,37.4502145097444,912117897.820308,10375357.2286376,,,,0,12,206.296285980437,277.044,10579.000910777,10669.3852649638,3.78175634531507,206.876641348921,277.044,10621.5422148511,10737.3731574838,3.77720596098861,0,61.8596680240818,0,13.7101839825568,277.044,10254.4680402234,10375.3572286376,3.82091075485258,0,3.90966854656927,0,27.3438839247778,0,24.3020263417793,0,17.3174745626005
-5.900032,35.008948,MAR,"Ksar El Kebir - Morocco",TRUE,481.749,7708.3994,48.126429375983,3713513702.5506,23184859.2254504,,,,0,8,245.934230486539,481.749,23645.9144901537,24106.4065208202,3.50737116972451,248.054208057518,481.749,23937.6373909265,24424.6801367964,3.49449301610356,0,79.6900681975091,0,14.6214468279429,481.749,22876.1061859082,23184.8592254504,3.55218742179789,0,159.974235886442,0,12.2836911223792,0,61.6713150140156,0,15.589083985821
-5.667584,32.939324,MAR,"Khénifra - Morocco",TRUE,381.704,5810.59514758978,38.7930319415803,2217927410.21561,14807455.4642289,,,,0,8,212.640453336831,381.704,15220.0027595014,15352.7730593728,3.73298211977453,213.619733371116,381.704,15320.2345993034,15668.1083784434,3.72563842513226,0,106.261319546586,0,12.9825811329193,381.704,14570.7254410187,14807.455464229,3.79388840418788,0,109.643308343567,0,12.8812886926715,0,14.0262409469562,0,21.5387018819815
-5.759602,10.555472,MLI,"Kadiolo - Mali",TRUE,317.492,2328.09481993824,27.1998768923998,739151480.571833,8635743.31432181,,,,0,9,167.128397823229,317.492,8974.25621253536,9013.34210554564,4.13887788158004,168.746912627099,317.492,9098.66914057364,9171.11594498764,4.12181779335229,0,149.989011301444,0,11.5260228327185,317.492,8512.30659439834,8635.7433143218,4.19935433462917,0,11.3281200527228,0,21.986438165188,0,2.39416879121837,0,32.4269167521838
-5.6370897,9.4510393,CIV,"Nneyi-Umuleri - Nigeria",FALSE,286.071,3289.988,35.5292803371237,941170157.148,10163896.7553213,,,,0,12,200.469908434055,286.071,10485.6448377862,10575.2674144803,3.82847594861407,201.384454131446,286.071,10554.0481768268,10654.7783382332,3.82101501334477,0,148.624161808288,0,11.1184051313971,286.071,10017.6300554474,10163.8967553213,3.88037413814516,0,4.4162546193074,0,26.7794301167923,0,2.16079044774579,0,32.0192901646269
-5.30024,6.8373399,CIV,"Arzew - Algeria",FALSE,37.253,3289.988,41.8178867554655,122561922.964,1557841.73530136,,,,0,12,206.504047793913,37.253,1424.56303737944,1628.07229862269,3.78012527646393,206.39673719195,37.253,1423.50561298372,1638.94771102557,3.78096743433066,37.253,1400.22838152371,1557.84173530136,3.93273326608278,0,70.8882113347982,0,8.2908814968525,0,1.94421277602181,0,20.3731548771522,0,3.59035930040623,0,17.4767127399099
-5.7609501,12.9448795,MLI,"Béni Mellal - Morocco",FALSE,89.799,2275.85166218126,32.5280080868355,204369203.412215,2920982.59818974,,,,0,9,186.793891982835,89.799,2975.46552484619,3036.02632483321,3.94618362764979,188.298609916072,89.799,3009.76576709501,3062.58695136734,3.93263786522023,89.799,2859.55784616361,2920.98259818974,4.00065721443038,0,43.0976665326811,0,11.418068022066,0,4.04897167705756,0,20.6238570544739,0,0.958371926009361,0,29.5680426611027
-5.0414901,6.5430398,CIV,"Chipata - Zambia",FALSE,39.005,3289.988,39.0763581540411,128325981.94,1524173.34979837,,,,0,12,200.659310227742,39.005,1431.61909252793,1567.4998445968,3.82692683240711,202.230893428642,39.005,1447.66390666408,1583.99894069308,3.8141527073799,39.005,1400.3468712112,1524.17334979837,3.9334885635958,0,41.2556029398385,0,9.49436810729128,0,2.87360240552639,0,18.4811991279291,0,5.68260047479282,0,15.5847567460919
-4.6909499,5.9060397,CIV,"",FALSE,0,3289.988,32.1998889870533,0,0,,,,0,12,64.9457557002604,1e-06,7.32550983743003e-06,93.6746578505285,7.45871177759288,57.3454618689305,1e-06,6.13226781568323e-06,122.831839988082,6.90605056132249,1e-06,59.4406837345283,3.21998889870533e-05,8.28011829313419,0,13.6451990781642,0,11.9622403809026,0,1.21159612988872,0,21.9138182445919,0,13.9920447647232,0,11.8874087921837
-5.803895,35.77671,MAR,"Tangier - Morocco",TRUE,1007.037,7897.3692983517,60.3686019577755,7952943086.1042,60793415.8097524,MAPTM,Tanger Med,AI,29213.26830742,8,286.883417622893,1007.037,61593.2065276514,61846.1728623846,3.28334182945808,287.502139485875,1007.037,61783.0629841858,62067.5718424519,3.28031170112986,0,82.5606183152248,0,17.1766342639054,0,107.019804460253,0,16.0977531807978,0,18.909078355321,0,24.8292564234669,1007.037,60604.4273021097,60793.4158097524,3.29993369758771
-5.003295,34.043295,MAR,"Fès - Morocco",TRUE,1380.105,4852.60936283408,54.7499901257426,6697110444.69412,75560735.122488,,,,0,8,268.108350985858,1380.105,76631.3558058317,77072.1540046348,3.37997899594565,269.607058039344,1380.105,77244.0365512764,77800.7408447262,3.37191381785429,0,105.019766657085,0,17.5915714837264,0,327.178397345937,0,13.2411664266712,1380.105,75122.6224928902,75560.735122488,3.40157236072869,0,24.6328373807636,0,25.2780629334782
-4.31988,35.1186104,MAR,"Niangoloko - Burkina Faso",FALSE,87.889,5072.45692357448,40.7110698682004,445813166.556038,3578055.21964627,,,,0,8,214.084563023587,87.889,3538.5209929111,3760.67767233011,3.72216945472222,209.834071919707,87.889,3438.58572490722,3949.95488373295,3.75429777399069,87.889,3263.99826508229,3578.05521964626,3.93766957244114,0,104.555856792818,0,9.30764175312625,0,43.4840029469767,0,11.5902918597224,0,42.9793897448006,0,11.6241629723071
-5.466706,12.38318,MLI,"Koutiala - Mali",TRUE,173.39,2285.3071,34.2337289247921,396249398.069,5935786.2582697,,,,0,9,195.256090355679,173.39,6120.62713435157,6174.75905988433,3.87195902954606,196.514129643134,173.39,6177.04101289759,6226.48578998906,3.86131635166634,173.39,5871.36113863769,5935.7862582697,3.91842407268942,0,70.924434697707,0,11.8194471952564,0,6.94644590434744,0,21.1278583423785,0,1.69251673991094,0,30.0720413563044
-4.88414,13.22997,MLI,"Techiman - Ghana",FALSE,62.939,2285.3071,27.7750123769379,143834943.5669,1748131.5039921,,,,0,9,169.692369607269,62.939,1818.15674916607,1828.04137229939,4.11195991986026,170.619365796305,62.939,1832.36224764047,1842.80651446779,4.10237037208558,62.939,1746.39759043135,1748.13150399209,4.15785194268745,0,16.185961648002,0,13.4004745677483,0,2.99130637527478,0,20.4380563739474,0,0.700292983254409,0,29.3822401524485
-5.1606898,9.9698601,CIV,"",FALSE,0,3219.81194498956,23.6325528252283,0,0,,,,0,12,95.8569869126091,1e-06,1.27752883608501e-05,22.3511656701443,5.97060511592741,92.1552075623272,1e-06,1.20763747177889e-05,17.6652753736612,5.52454271107503,1e-06,10.844649458554,2.36325528252283e-05,6.24126371923759,0,3.32041146073962,0,8.39031870073893,0,0.0715076143272233,0,21.902260456046,0,0.0148892667969613,0,32.4235122523171
-5.31213,8.7883997,CIV,"",FALSE,0,3289.988,26.5663110545579,0,0,,,,0,12,100.281838579238,1e-06,1.36260064147136e-05,22.2585143274166,5.82508488296207,86.1630465766346,1e-06,1.09704377799631e-05,21.9853524657046,5.69913063420265,1e-06,4.05072191685058,2.65663110545579e-05,8.69879025324281,0,13.6342881689099,0,6.42220010242796,0,0.065867943058407,0,24.3598164579341,0,0.030215112164251,0,29.5996761166127
-5.199932,9.583411,CIV,"Ferkessédougou - Côte d’Ivoire",TRUE,160.267,3267.52578171889,28.1654532445121,523676554.458741,4513992.69513822,,,,0,12,171.316978990558,160.267,4693.17937332009,4774.17295958543,4.09520269862451,172.611857636519,160.267,4743.93680092376,4828.04118135711,4.08200826336891,160.267,4371.22140201475,4513.99269513822,4.18471532887245,0,115.191784076749,0,10.3863091536581,0,8.64165782304187,0,19.8457428593623,0,1.57634979413266,0,30.3671120709715
-4.93154,12.8220196,MLI,"Siliana - Tunisia",FALSE,24.889,2270.88540033439,28.0674148072147,56520066.7289225,698569.887136766,,,,0,9,172.081868617659,24.889,733.490273185081,734.063499255302,4.0873916050146,173.416750413349,24.889,741.632145152075,742.730012522592,4.07387770539255,24.889,698.569722189106,698.569887136767,4.13678824352829,0,8.5001428249818,0,12.4554431276806,0,1.07106113179419,0,20.9055793618484,0,0.257691360317387,0,29.8497631806074
-4.805582,12.183353,MLI,"Kouri - Mali",TRUE,137.964,2215.83852651061,27.169998873553,305705946.47151,3748481.72459086,,,,0,9,166.742562752761,137.964,3886.84737006046,3927.83958459065,4.14297968531225,167.431711100918,137.964,3909.81678073385,4005.76545157661,4.13566285347558,137.964,3636.35800509663,3748.48172459087,4.23691593924077,0,92.1123235225694,0,10.6203070385864,0,6.75763752673915,0,20.4064655199123,0,1.44627623618746,0,30.0022423954006
-4.8452396,10.9798899,BFA,"Tiko - Cameroon",FALSE,33.422,1561.522,23.9344297130372,52189188.284,799936.50986913,,,,0,13,144.854210490251,33.422,770.116633018656,861.852087980142,4.40053115635275,147.465432085559,33.422,790.025188313279,875.545922244831,4.36696554870899,33.422,684.013534490033,799.936509869129,4.64497438822433,0,75.198914604376,0,8.06671299922404,0,1.38359261475642,0,21.9026906863638,0,0.288090655069814,0,32.4240534805088
-5.016623,7.683365,CIV,"Bouaké - Côte d’Ivoire",TRUE,659.233,3289.988,40.2539059826232,2168868659.204,26536703.2026426,,,,0,12,217.730775932474,659.233,27189.6741755912,27277.6008809066,3.69532632944637,218.186419279251,659.233,27270.9957554748,27375.3931991255,3.69201705473885,0,159.695205704012,0,13.3592113548293,659.233,26398.37743993,26536.7032026426,3.72571372273184,0,12.8864570966761,0,25.0651558809603,0,9.70957041835814,0,26.9031906728901
-3.2846298,9.6600199,CIV,"",FALSE,0,3217.02361233922,19.5825015048918,0,0,,,,0,12,102.136310469271,1e-06,1.3987399716724e-05,8.8440914904816,5.76736176882763,86.4336593553029,1e-06,1.10196921970651e-05,13.6941115672449,5.69084757165493,1e-06,10.9896390752855,1.95825015048918e-05,6.01263065359997,0,0.645324912087139,0,12.214224085623,0,0.197120155219332,0,16.4296347048388,0,0.0272236806012438,0,26.9510051064158
-4.758877,10.630955,BFA,"Banfora - Burkina Faso",TRUE,126.236,1561.522,24.6889188876878,197120291.192,3116630.36470615,,,,0,13,157.813216415563,126.236,3287.51427638248,3342.50590014304,4.24186643871379,157.519062139575,126.236,3278.76387767801,3382.92770506697,4.24525948185538,126.236,2967.16254925491,3116.63036470616,4.38674192136953,0,124.106597722272,0,9.70015564605855,0,5.00637034627413,0,21.6444565045207,0,1.02643391989522,0,32.1658253672251
-4.1257401,6.7047696,CIV,"Cidade de Nacala - Mozambique",FALSE,74.281,3289.988,36.3507584903294,244383598.628,2700170.69142016,,,,0,12,205.233784090641,74.281,2815.5937664044,2822.36438197444,3.79013466845772,205.025229217584,74.281,2811.50729140237,2839.72286458345,3.79178648390885,74.281,2665.4528694547,2700.17069142016,3.85230009616834,0,18.9817048194461,0,13.2610851385125,0,6.27898680966442,0,17.4860002164231,0,8.51588525814138,0,16.2033726455547
-3.98735,7.06142,CIV,"Ilesa - Nigeria",FALSE,101.136,3289.988,30.9159129234854,332736226.368,3126711.76942962,,,,0,12,181.784017166379,101.136,3223.4585405073,3293.26449090682,3.99243102859192,182.203704445307,101.136,3234.09528841322,3335.45691218343,3.98848721429597,101.136,3045.83243132918,3126.71176942962,4.08009745007485,0,43.7548747300149,0,11.7852941953985,0,13.5923685045866,0,15.7860421112082,0,8.12728847718213,0,17.9519084730932
-4.016502,34.216732,MAR,"Taza - Morocco",TRUE,215.147,4756.2676,43.2527353559962,1023296705.3372,9305696.25363651,,,,0,8,227.40066984503,215.147,9441.91841624522,9615.7407254438,3.62714428093813,231.567339915039,215.147,9690.03486158695,9913.76283154437,3.59902863563265,0,118.164112747317,0,10.8923988195529,215.147,9112.71841298605,9305.69625363651,3.67563980176894,0,46.3927554918693,0,13.7604422728579,0,13.9604848042386,0,18.5788920746326
-4.1851397,14.0335598,MLI,"Rubengera - Rwanda",FALSE,35.513,2285.3071,26.5762081399309,81158111.0423,943800.879673367,,,,0,9,163.27827938638,35.513,970.941972111607,975.584720580185,4.18042605724387,163.706995759928,35.513,974.585994643232,980.324035634299,4.17573062985843,35.513,943.800881732729,943.800879673366,4.21555531697518,0,3.82894447601586,0,16.7034097472071,0,1.96943635864181,0,19.7237470319816,0,0.416922823476782,0,29.0777667520687
-3.4726,12.4589195,BFA,"Al Marj - Libya",FALSE,63.617,1561.522,23.9784948796488,99339345.074,1525439.90875862,,,,0,13,150.271783592371,63.617,1544.81937457049,1595.89974902903,4.33182558043331,151.70073025902,63.617,1565.84750667553,1618.99641527341,4.3142909713361,63.617,1460.04904230463,1525.43990875862,4.42719898865862,0,37.816003910463,0,11.0357536480471,0,4.32331452580068,0,18.978710757825,0,0.725591369394424,0,29.6515855264226
-4.283237,11.183756,BFA,"Bobo-Dioulasso - Burkina Faso",TRUE,903.887,1563.71297280047,35.5323045529694,1413419827.8457,32117188.1654698,,,,0,13,199.812825184417,903.887,32976.0435042205,33199.6273838954,3.83386656462748,200.720709679063,903.887,33190.2980395465,33428.2020235557,3.82642505757935,0,346.044716202388,0,11.9960539717628,903.887,31762.5016286389,32117.1881654699,3.87563430433664,0,20.1257280157657,0,24.4277557299579,0,4.80331012804148,0,34.9491256484363
-3.4547899,10.1577702,BFA,"",FALSE,0,1561.522,18.5995770061625,0,0,,,,0,13,125.98108765701,1e-06,1.88762545749841e-05,2.95772917318118,5.15752724778503,80.0822265707312,1e-06,9.88136516204372e-06,19.7353976928023,5.89649376632273,1e-06,10.6851678251556,1.85995770061625e-05,6.87400680131282,0,4.54795656059342,0,8.51042461652547,0,0.171743102156183,0,19.3057085172027,0,0.0301427249587734,0,29.8270787140978
-3.932213,35.247186,MAR,"Al Hoceïma - Morocco",TRUE,157.146,5081.60594467335,48.3370623895879,798554047.781638,7595976.00627419,,,,0,8,245.781798399995,157.146,7706.44286103592,7938.45341231961,3.50830325679479,249.735389090518,157.146,7884.14300765671,8142.93432594226,3.48439167094394,157.146,7362.06181644199,7595.97600627418,3.57332349527919,0,161.63998979903,0,9.28292831816774,0,17.5419048384116,0,16.1734628587421,0,17.3957231617846,0,16.207333970269
-3.8383498,11.7186594,BFA,"",FALSE,0,1561.522,21.1535394343159,0,0,,,,0,13,92.6172841254659,1e-06,1.21629708578164e-05,19.2798797951598,6.08478111123557,81.5660393629736,1e-06,1.01439543127553e-05,22.1342909768668,5.84624782744901,1e-06,10.9416434127582,2.11535394343159e-05,6.9722502880446,0,6.0439881133963,0,8.08747059858004,0,0.17693082489149,0,19.5520814268597,0,0.0240625829561398,0,32.1965451636897
-3.516123,11.495237,BFA,"Houndé - Burkina Faso",TRUE,102.324,1561.522,23.1279888600729,159781177.128,2366548.3321181,,,,0,13,150.162688771628,102.324,2482.16960233589,2541.56686195016,4.33317405481836,151.353798137143,102.324,2510.34431319313,2568.98885099839,4.31852641975123,102.324,2276.53195099067,2366.5483321181,4.45100106281412,0,70.5481397177725,0,10.6085186711343,0,10.6208632707751,0,17.03084460067,0,1.05947372658281,0,30.3042553942205
-3.2551699,10.9504795,BFA,"Abū Za‘bal - Egypt",FALSE,25.688,1559.68196236009,20.0266158993534,40065110.249106,514443.709222591,,,,0,13,131.687181786465,25.688,516.570010784505,554.708767076131,4.58397936675618,130.525756673818,25.688,510.073862667617,556.366441627626,4.60141585029693,25.688,458.989576104825,514.44370922259,4.82815283397167,0,30.0370744706292,0,9.54590943721982,0,2.81046630493909,0,17.259854821679,0,0.286969448755678,0,30.5332411605585
-4.031478,6.172398,CIV,"Adzopé - Côte d’Ivoire",TRUE,156.488,3289.988,28.5378806552521,514843642.144,4465835.86797909,,,,0,12,171.628352842542,156.488,4594.42002171373,4612.85648618344,4.0920169100313,173.325779836654,156.488,4659.47079067335,4679.52597264271,4.07479392154631,156.488,4422.26942901433,4465.83586797909,4.13280405877563,0,17.719714274883,0,16.4263828065275,0,11.1451277555711,0,18.4452632077089,0,18.0463196866405,0,16.3515511251136
-4.183454,14.484661,MLI,"Mopti - Mali",TRUE,175.604,2287.68401478936,27.9093141499409,401726463.733071,4900987.20198623,,,,0,9,168.930869133167,175.604,5040.28928056298,5040.8950429509,4.11989358733062,169.271709808993,175.604,5054.82335830284,5055.24554899081,4.11633623304795,175.604,4899.60234298044,4900.98720198622,4.14864426795729,0,12.4336221120956,0,18.4840440021745,0,10.548917967202,0,19.2594744276599,0,1.60063422595024,0,30.8583997101761
-3.5236499,14.0762997,MLI,"Kamsar - Guinea",FALSE,105,2285.3071,24.7752788915821,239957245.5,2601404.28361612,,,,0,9,155.969363305696,105,2688.94667852609,2689.53347232776,4.26328582107059,156.3212676008,105,2697.61787946681,2698.09180995617,4.25917001332676,105,2602.78910025312,2601.40428361612,4.29763385284977,0,7.94629963903765,0,18.283019774531,0,6.8307794062847,0,18.9876666693304,0,1.00511750679019,0,30.6573758693311
-0.04122,16.2347698,MLI,"Catabola - Angola",FALSE,49.483,2285.3071,23.3834754351307,113083851.2293,1157084.51495657,,,,0,9,149.299383856919,49.483,1190.50930207014,1198.54518158813,4.34389468783298,150.078742557239,49.483,1199.39720232312,1204.56956941091,4.33421263071095,49.483,1150.62224050844,1157.08451495657,4.38414585035555,0,3.35081830473541,0,18.8725454495968,0,5.68728605884957,0,16.5345327446595,0,0.678544795885369,0,28.1334895749674
-3.7660499,6.5562596,CIV,"",FALSE,0,3330.13071312614,26.749789223801,0,0,,,,0,12,127.746990831088,1e-06,1.92553760590056e-05,6.93677999710616,5.12014614984443,129.818565860701,1e-06,1.97029923193482e-05,4.53646005763856,4.72418915594926,1e-06,4.04826253399686,2.6749789223801e-05,4.86059296169769,0,0.054501712355402,0,14.2693788474949,0,0.0321021516505881,0,16.2882591617148,0,0.0265551988624209,0,17.0793405114102
-3.199681,5.466835,CIV,"Aboisso - Côte d’Ivoire",TRUE,115.831,3283.31415970208,30.802133925745,380309562.432452,3567841.97475296,,,,0,12,170.991594232605,115.831,3382.73796197746,3697.9445047556,4.09854069218052,171.301571830117,115.831,3391.50180277654,3761.11089775843,4.0953605436355,115.831,3446.79661031643,3567.84197475297,4.1856919423072,0,10.4276051569393,0,17.8474032728644,0,10.9070549085615,0,17.6479516963828,0,49.3642419151998,0,12.0995177194855
-2.884658,34.416684,MAR,"Taourirt - Morocco",TRUE,321.876,5909.4069394727,41.5215982796711,1902096268.04972,13364805.9678674,,,,0,8,221.591754545546,321.876,13613.1632898142,13620.0535167921,3.66759336471365,225.702595394564,321.876,13975.368821208,14080.6015671252,3.63881445119084,0,134.684672827528,0,11.63551659299,321.876,13256.9168092236,13364.8059678674,3.69406540383893,0,15.0361025854213,0,20.1294262468463,0,21.4430702878943,0,18.4201631832271
-3.3598599,7.0014696,CIV,"",FALSE,0,3315.53558628181,33.597304142047,0,0,,,,0,12,79.8009225199233,1e-06,9.83181654798941e-06,35.9405017186307,6.61514886460471,69.7055808487099,1e-06,8.10436447831572e-06,49.2469715586709,6.29312668258419,1e-06,30.6493951734108,3.3597304142047e-05,7.08526129962941,0,1.61405819638454,0,14.790456786642,0,5.57615438524243,0,10.8486990715689,0,0.400427039105389,0,20.9570721922646
-2.933289,35.166696,MAR,"Nador - Morocco",TRUE,398.424,7606.25038889618,51.3612061101847,3030512704.94557,20463537.1832442,,,,0,8,256.005797077212,398.424,20710.0884908334,20776.670529272,3.44755637627356,259.361270580985,398.424,21098.9571814287,21144.7592465225,3.4283698382595,0,90.0469471551964,0,13.4205744045559,398.424,20402.3582963996,20463.5371832442,3.4591409549318,0,12.3338523871936,0,22.0604145207807,0,23.1877539991515,0,18.8396869867152
-3.483656,6.733739,CIV,"Abengourou - Côte d’Ivoire",TRUE,164.424,3393.50643563291,31.3151713379485,557973902.172505,5148965.73207084,,,,0,12,183.504889974431,164.424,5311.62199982374,5329.39617918754,3.97634200362373,185.265681925673,164.424,5384.58118187598,5421.19309132241,3.96010133937678,164.424,5067.94000234587,5148.96573207084,4.02737576581327,0,25.7188838928184,0,15.0892269841074,0,30.1668531068937,0,14.4993161200767,0,12.9893296214471,0,17.8991883582168
-2.416466,13.583359,BFA,"Ouahigouya - Burkina Faso",TRUE,124.58,1563.41905949248,24.9678181813964,194770746.431573,3110490.78903837,,,,0,13,157.6694085721,124.58,3240.1650337334,3248.6007198993,4.24352412480962,158.269078920018,124.58,3257.78429833539,3266.03664937042,4.23662589149926,124.58,3106.43288138809,3110.49078903836,4.29002561828064,0,14.9833738888374,0,16.2788221679917,0,13.8696818178363,0,16.5962037822754,0,1.17749636153139,0,30.7457797829771
-3.0625598,11.1466293,BFA,"Hohoe - Ghana",FALSE,25.922,1561.522,20.2432159885365,40477773.284,524744.644854843,,,,0,13,141.307786754501,25.922,576.519447519383,576.986354729553,4.44752795448978,143.144315900872,25.922,587.253223082194,587.613998579866,4.4229827588475,25.922,522.173956830604,524.744644854843,4.55548348748876,0,14.9592744601705,0,11.072881482803,0,2.74483842779759,0,16.918392751613,0,0.27064370692006,0,30.1917934959646
-2.7472,11.7775002,BFA,"Sébékoro - Mali",FALSE,40.627,1561.522,21.1605772475616,63439954.294,859690.771836685,,,,0,13,144.386634723559,40.627,931.821922907274,934.517066894757,4.40663286682195,145.893252372694,40.627,945.743197987806,947.82055553083,4.38707212986634,40.627,849.500559586535,859.690771836685,4.50884584922755,0,19.6190195809453,0,11.566101090263,0,5.46846826692131,0,15.9180509957506,0,0.474979141275538,0,29.321605011007
-3.03983,6.1229501,GHA,"",FALSE,0,3802.82235998441,26.9757504642009,0,0,,,,0,14,107.477181996844,1e-06,1.50438846070364e-05,13.2185191041039,5.61075104606413,83.510872604725,1e-06,1.04912389891666e-05,16.7207248588401,5.7824865128129,1e-06,12.978442265205,2.69757504642009e-05,6.16059605740935,0,0.21248881539284,0,17.2224370946721,0,0.487467566625522,0,13.9940065602574,0,0.433892614197988,0,14.4073117267168
-2.75492,6.4242897,GHA,"",FALSE,0,3953.2102,29.0369393929079,0,0,,,,0,14,102.640796831493,1e-06,1.40862020514411e-05,10.286346986183,5.75197284203836,64.1813712350535,1e-06,7.2026523235211e-06,35.9006194872289,6.54409844125078,1e-06,15.9325066659975,2.90369393929079e-05,8.01778254517782,0,1.32017484805249,0,14.9440213057308,0,7.8194636472499,0,9.57924022746736,0,0.723067345578853,0,17.3712344666204
-2.366508,12.250045,BFA,"Koudougou - Burkina Faso",TRUE,252.816,1560.77676867213,26.6972220059627,394589339.548613,6749484.87865947,,,,0,13,164.957602398577,252.816,7013.88962881729,7154.58974064676,4.16213348579015,166.193881919301,252.816,7089.10405393846,7262.10105314888,4.14883608744063,0,179.452820870628,0,10.4641577226579,252.816,6504.74419367068,6749.48487865947,4.26465882769042,0,27.6586579112749,0,16.7006769462969,0,1.38932900775678,0,35.2769145068308
-2.883702,7.283584,GHA,"Domaa-Ahenkro - Ghana",TRUE,1000,3838.14915389001,37.1443756204362,3838149153.89001,37144375.6204362,,,,0,14,205.176660383332,1000,37889.558480764,38009.8128331815,3.79058685477204,206.149185076601,1000,38146.3819318632,38324.0400574572,3.78291261859535,0,176.780542469495,0,14.5156175060506,0,44.3848555101228,0,20.5062113621741,1000,36902.0801486302,37144.3756204362,3.81883961451966,0,24.1787906203111,0,23.8690695011761
-2.800007,8.033291,CIV,"Bondoukou - Côte d’Ivoire",TRUE,141.568,3415.9826182662,35.1347520530404,483593827.30271,4973956.57864482,,,,0,12,200.977819793389,141.568,5207.82423655641,5218.47631995212,3.82432638564817,201.647410453367,141.568,5232.62866834844,5242.79588365266,3.81887875092858,141.568,4948.58175022449,4973.95657864482,3.87441751891493,0,24.3245776076345,0,14.632390501335,0,29.6142099816386,0,13.9300145963797,0,3.33952811924288,0,24.0383881131486
-3.0037599,9.2666302,CIV,"Birkat as Sab‘ - Egypt",FALSE,94.883,3281.84616266209,23.3886063445532,311391409.451867,2219181.13579024,,,,0,12,152.804484138038,94.883,2359.73069315775,2362.2288191076,4.30090754956349,153.682010944202,94.883,2379.11374809508,2381.55760506796,4.29036534728403,94.883,2214.03032544364,2219.18113579024,4.36931803456988,0,16.4272831498961,0,14.8873746127624,0,16.880973523755,0,14.7863227028141,0,1.96710749642007,0,25.3076922370063
-2.500115,10.066876,GHA,"Wa - Ghana",TRUE,107.214,3936.48868750266,37.1891567694194,422046698.141911,3987198.25387653,,,,0,14,204.860488643429,107.214,4053.3513884192,4152.58091706064,3.7930929918261,204.428334517747,107.214,4041.14182223184,4174.08617875247,3.79652739385677,107.214,3906.03252042398,3987.19825387653,3.86004997002559,0,20.0610834136987,0,14.4191047835325,0,34.0766962932786,0,12.6302667172699,0,1.92602760844522,0,25.9036690396062
-2.7890699,11.0427799,BFA,"",FALSE,0,2197.95807905528,23.1288106598402,0,0,,,,0,13,133.592383962215,1e-06,2.05262969006922e-05,6.4751774218165,5.00237168278051,120.480928173886,1e-06,1.77100603744851e-05,7.25732575897684,4.88673339571677,1e-06,6.21312026177269,2.31288106598402e-05,5.08025231742546,0,0.228755881893364,0,11.5976496801753,0,0.0687247342110113,0,15.6651773403787,0,0.00590152719020607,0,28.938579230538
-2.75752,5.2915597,GHA,"Kolda - Senegal",FALSE,27.938,3680.15963132643,31.4353166300399,102816299.779998,878239.876010055,,,,0,14,185.132661304266,27.938,913.979408239726,921.239034562619,3.96132059048945,182.853204598332,27.938,897.945602838246,927.696753118382,3.98240938034849,27.938,841.267829935776,878.239876010055,4.08097411537063,0,4.4205566882451,0,15.1575211740261,0,4.66109045842358,0,14.9580693094846,0,10.1033103769725,0,12.3276840253759
-2.49212,9.0273695,GHA,"Mesra - Algeria",FALSE,10.555,3903.89231157778,29.1246396378985,41205583.3487034,307410.571378019,,,,0,14,145.293236474439,10.555,244.264211809344,307.262702755125,4.39482766515848,149.04039687375,10.555,253.313212027149,310.387988732947,4.34712809845188,10.555,271.021745310308,307.410571378019,4.49704908724829,0,2.32555447111741,0,14.7756658342008,0,8.17108359233681,0,10.7921695392644,0,0.330468765862165,0,24.0655713939904
-1.911082,34.686468,MAR,"Oujda-Angad - Morocco",TRUE,619.82,7265.94785567517,64.1855171619656,4503579799.90458,39783467.2473295,,,,0,8,298.82149451238,619.82,40183.5046440569,40183.9783674172,3.22647012251252,301.59457723441,619.82,40717.284301859,40985.5346620875,3.21372232595423,0,150.36891769723,0,13.0579945524818,619.82,39583.2228032032,39783.4672473295,3.24181489491813,0,17.5362503831349,0,22.3450751232203,0,64.380756685018,0,16.1427299957899
-2.63341,7.4203897,GHA,"Béchar - Algeria",FALSE,96.471,3953.2102,36.4293790503192,381370141.2042,3514378.62636334,,,,0,14,202.417861526375,96.471,3585.23457516212,3767.4661248697,3.8126424423126,203.689369133106,96.471,3617.45068975458,3824.47134943183,3.80242418789408,96.471,3330.45089496643,3514.37862636334,3.93620454078572,0,56.9425697115453,0,10.8853939885116,0,74.3543876237276,0,10.1830240056841,0,2.30465103411123,0,24.2690144408458
-2.42713,6.64852,GHA,"",FALSE,0,3953.2102,30.0019266172557,0,0,,,,0,14,79.0818011852283,1e-06,9.70549160901371e-06,76.818652643746,6.64938691950105,72.8665802767934,1e-06,8.63444537909733e-06,90.3064992257411,6.16304548741811,1e-06,25.5473976495208,3.00019266172557e-05,8.45061770912704,0,4.16273071500554,0,13.3008855321525,0,32.8451544083873,0,7.9361029807375,0,1.41443560045246,0,17.4212519721986
-1.9408599,7.58079,GHA,"Nnewi - Nigeria",FALSE,104.212,3953.2102,38.4258396252504,411971941.3624,4004433.5990266,,,,0,14,205.878422168837,104.212,3967.85385402638,4215.68796569916,3.78504402814068,207.415101351548,104.212,4010.23015949557,4275.84232606066,3.77300034862485,104.212,3820.58556481703,4004.43359902659,3.88069743022331,0,46.1935436306201,0,11.7029930605632,0,61.7349678296601,0,10.884524480472,0,4.46148565558093,0,20.9928982391444
-2.3793299,11.9639797,BFA,"Gīnīr - Ethiopia",FALSE,8.983,1555.86958355345,20.7091832742223,13976376.4690606,186030.593352339,,,,0,13,123.596354989121,8.983,164.998700903335,195.571300008026,4.71025696146354,118.849001004774,8.983,156.020024857504,196.519859135679,4.78999034333943,8.983,140.008562795335,186.030593352339,5.21371871376215,0,18.5603480529548,0,8.64051685684812,0,3.63060175730821,0,12.9924666820369,0,0.127270708698098,0,30.026477045242
-2.3323998,7.3266597,GHA,"Matola - Mozambique",FALSE,225.038,3934.99061586051,37.6600902235125,885522418.212017,8474951.38371881,,,,0,14,208.510693958346,225.038,8725.21108937723,8962.98485917348,3.76449124155056,209.477737432486,225.038,8783.07750561527,9072.43004041318,3.75703342511935,0,192.813817747145,0,9.83991683287296,225.038,8163.50633292157,8474.95138371881,3.85750752794174,0,38.753599218993,0,14.695959841059,0,5.28687535961504,0,24.1811084750164
-1.527486,12.368619,BFA,"Ouagadougou - Burkina Faso",TRUE,2497.171,1561.522,38.4954008979503,3899387454.262,96129598.7557355,,,,0,13,210.027771233268,2497.171,97828.6512707676,98126.1792462406,3.75281348490973,210.448488292413,2497.171,98108.7220067555,98441.3325249803,3.74959632390196,0,344.361399135736,0,15.4179016118792,0,84.7736583971148,0,21.8883817641708,2497.171,95771.0827501149,96129.5987557354,3.77546358967151,0,9.88038702947189,0,37.4615203585568
-0.85435,10.77911,GHA,"Calabar - Nigeria",FALSE,93.991,3844.83852701892,32.5092252880077,361380217.993035,3055574.59404513,,,,0,14,186.175421955965,93.991,3099.64592237622,3209.17831787461,3.9517964987749,186.732722256971,93.991,3112.90945793126,3232.42057634286,3.94673757301371,93.991,2969.21641987014,3055.57459404513,4.03143583832403,0,13.3422924245666,0,15.5708602342399,0,47.132952838233,0,11.357665009077,0,1.69660211930579,0,26.0750551672651
-2.02933,8.1420498,GHA,"",FALSE,0,3909.39329504001,30.4736731110018,0,0,,,,0,14,179.19262018331,1e-06,3.12254243541582e-05,1.29445412950545,4.31010349891119,139.73812968526,1e-06,2.1888460415367e-05,3.41281476559125,4.56972877328095,1e-06,2.86674781127066,3.04736731110018e-05,4.77332555091063,0,0.052327573738732,0,12.9863504657939,0,0.0991587305778162,0,11.0684419493443,0,0.00604412143949932,0,22.2762552526623
-0.852935,9.408997,GHA,"Tamale - Ghana",TRUE,1146.388,3953.2102,39.9885546755501,4531912734.7576,45842399.2173945,,,,0,14,216.193709688378,1146.388,46805.9769701261,47012.5739773503,3.70656320827225,217.086198803898,1146.388,47082.2553244283,47336.8280572401,3.7000247354693,0,288.848211683392,0,13.2384456026631,0,31.3191625735198,0,23.0702277437391,1146.388,45549.6364032388,45842.3992173945,3.73579629551832,0,16.0107255231566,0,27.2835994394114
-2.0349898,7.0902801,GHA,"El Wak - Kenya",FALSE,45.153,3953.2102,34.7409805927437,178499300.1606,1568659.49670415,,,,0,14,184.658850470388,45.153,1471.76282166615,1693.14068729555,3.96567348173306,183.978280498046,45.153,1464.02000318528,1723.79267544674,3.9719538712306,45.153,1349.83366679003,1568.65949670416,4.22236127222899,0,53.8421779838634,0,9.44810694219581,0,63.1631156956677,0,9.07840532446844,0,3.48022883298511,0,18.7380122199549
-1.89963,5.9580197,GHA,"",FALSE,0,3910.51913372888,33.3768235924992,0,0,,,,0,14,74.2214621379724,1e-06,8.8647116696867e-06,35.3617636111316,6.89625045618361,71.1330609106546,1e-06,8.34249645922717e-06,143.860408570139,6.23326871542514,1e-06,50.117949055036,3.33768235924992e-05,8.11339924888015,0,18.2779781296527,0,10.4404479946179,0,19.7440343975401,0,10.240996029101,0,7.42131315251218,0,13.0791941994905
-1.625058,6.70004,GHA,"Kumasi - Ghana",TRUE,6898.949,3953.2102,55.7015155157662,27272995556.0798,384281914.76598,,,,0,14,270.733686426665,6898.949,388439.123128479,388896.695558541,3.36589300312507,271.107680809937,6898.949,389205.912728072,389712.104927213,3.36390224705685,0,461.165858290289,0,18.1369833431486,0,178.718370771931,0,22.9872512123829,6898.949,383786.837736459,384281.91476598,3.37681152862337,0,92.417042163238,0,27.1076160136893
-2.26566,12.9614601,BFA,"Zomba - Malawi",FALSE,78.833,1627.34871682273,19.3775853082574,128288781.393286,1527593.18260586,,,,0,13,130.938505024828,78.833,1572.42387475167,1671.02032112519,4.59519393964593,131.869498907301,78.833,1588.41987256946,1714.19424021973,4.58126209648905,78.833,1419.30699016122,1527.59318260586,4.80265135861983,0,46.7543772995866,0,11.273131645012,0,41.8398464032915,0,11.5905121802831,0,0.790921861266793,0,31.2584032829809
-1.083295,13.083043,BFA,"Kaya - Burkina Faso",TRUE,141.824,1561.522,20.6131088024861,221461296.128,2923433.54280379,,,,0,13,139.086839406714,141.824,3083.66033325708,3095.0600674211,4.47782663821467,139.601940288994,141.824,3099.98780815411,3109.75413265411,4.47073820102607,141.824,2903.33771872472,2923.43354280379,4.5481665854756,0,12.0662869839948,0,17.9129595019287,0,29.9807162938707,0,14.2675779263874,0,1.90511262034922,0,28.4171556724792
-2.0190399,12.1964092,BFA,"Sakouéba - Mali",FALSE,41.911,1578.17761345313,20.6985723020877,66143001.9574339,867497.863752799,,,,0,13,132.305567338755,41.911,848.464184788633,971.116507598804,4.57478483275331,134.193535554447,41.911,865.813183585164,999.707289906318,4.5470891094241,41.911,818.794733288608,867.497863752798,4.77978012651491,0,26.6781962206602,0,11.2502601888097,0,29.017755196305,0,11.0162993574183,0,0.376710659089643,0,32.6362145773393
-1.9836799,4.92097,GHA,"Bocaranga - Central African Republic",FALSE,27.719,3953.2102,37.6841551729159,109579033.5338,1044567.09723805,,,,0,14,188.265396026734,27.719,928.815193595665,1070.37737424856,3.93293523240124,197.193158409481,27.719,992.371044007957,1114.90591625265,3.85561231730721,27.719,934.290461412846,1044.56709723806,4.02979018399804,0,6.9577533436827,0,13.7178378810587,0,7.37755282015506,0,13.5183859336,0,37.6265144148663,0,8.99558514914591
-0.78598,32.4087105,DZA,"",FALSE,0,13888.5151898265,38.4111599953153,0,0,,,,0,10,112.645863938157,1e-06,1.60879753633759e-05,11.8295204205924,5.4714310904452,90.320143902174,1e-06,1.17343121342986e-05,10.1191254244544,5.57611851205806,1e-06,5.56569152725795,3.84111599953153e-05,6.47497231347687,0,2.17747559042618,0,8.18708693889673,0,0.0301059595317855,0,23.8756876124946,0,0.105556981897407,0,17.448032110248
-0.29448,27.9394188,DZA,"Cuango - Angola",FALSE,77.757,13747.3943974488,41.9438900722357,1068956146.16242,3261431.06034683,,,,0,10,223.487263203167,77.757,3328.85209221,3332.5757668857,3.65422947477944,225.125761937863,77.757,3363.77180001383,3364.31011309436,3.64280737492861,77.757,3261.43103479123,3261.43106034683,3.67120099423372,0,12.1861064203633,0,14.848889513041,0,2.73120555732595,0,21.5810033176589,0,1.75333138834611,0,24.1098347031119
-1.735029,8.052471,GHA,"Kintampo - Ghana",TRUE,111,3953.2102,31.8375771190788,438806332.2,3533971.06021775,,,,0,14,188.033947883989,111,3712.88531240613,3787.66340279587,3.93500918172332,189.593928518425,111,3756.96785283039,3834.72488225056,3.9211004282528,111,3463.01668572388,3533.97106021775,4.02233161387318,0,24.6065659825847,0,13.8541143796486,0,60.9156551947868,0,11.04483646298,0,4.36829505140153,0,21.3433967474733
-1.704435,4.940486,GHA,"Sekondi - Ghana",TRUE,345.041,3953.2102,55.5145875968161,1364019600.6182,19154808.818993,GHTKD,Takoradi,AI,343.8114,14,273.590646250799,345.041,19720.7541006456,19865.6920894338,3.35078429695563,274.730148707097,345.041,19838.1969625031,20093.5101126481,3.34482089294515,0,96.7295051251961,0,12.6983437371012,0,91.6308904195938,0,12.8714165043064,0,35.6411543472522,0,16.2985466914548,345.041,18911.0848953261,19154.808818993,3.39592201683499
-1.66741,7.6862698,GHA,"",FALSE,0,3953.2102,34.7148244506919,0,0,,,,0,14,192.181609252435,1e-06,3.45084197304517e-05,2.94751204198525,4.16342399829387,165.351105702273,1e-06,2.78376526392125e-05,4.12118594264384,4.23718492914541,1e-06,3.61576437611512,3.47148244506919e-05,4.37807081387085,0,0.0436398361543847,0,13.2088083060269,0,0.0786379794203176,0,11.4005481948135,0,0.00784938187637281,0,20.2828935408309
-1.2003399,5.16293,GHA,"Lubango - Angola",FALSE,242.548,3953.2102,47.126908309488,958843227.5896,11430537.3566497,,,,0,14,237.666197084026,242.548,11337.4783730223,12009.8768542098,3.5591532132662,238.360648267368,242.548,11384.8332188864,12187.8777541652,3.55470547467104,0,39.2244254716299,0,14.9243869018538,242.548,10999.8339800472,11430.5373566497,3.64702812733174,0,79.5653132891555,0,12.5056048568931,0,153.299248318607,0,10.6145268417005
-0.983493,7.750098,GHA,"Atebubu - Ghana",TRUE,105.938,3953.2102,32.7029046576606,418795182.1676,3464480.31362325,,,,0,14,186.603763233241,105.938,3505.12389241803,3652.65385468401,3.94790629289805,184.933329606737,105.938,3460.38565688752,3723.82163568345,3.96314986838631,105.938,3307.10657237619,3464.48031362325,4.08249503872927,0,17.542356351269,0,15.1274502921991,0,81.1727222888784,0,10.3141914045124,0,8.50716676493194,0,18.1276489711237
-0.47613,6.2894998,GHA,"Benguela - Angola",FALSE,186.596,3915.11583355947,41.0997756355816,730544954.078863,7669053.73449698,,,,0,14,216.247841228261,186.596,7621.26981444561,8011.41573175249,3.70616554170051,216.586586390682,186.596,7638.3304941908,8100.82878266715,3.70368020915063,186.596,7453.02831273933,7669.05373449698,3.78166149257399,0,27.7918237248401,0,15.3033525942153,0,49.7014354937196,0,13.2334661977223,0,57.6381555913854,0,12.7522942902783
-1.26867,12.4855795,BFA,"Kuvango - Angola",FALSE,33.296,1548.55313505811,24.8504324087384,51560625.1848949,827419.997481354,,,,0,13,136.010763571813,33.296,701.186419635281,832.059708944795,4.52095194605249,135.382039212722,33.296,696.560568239926,835.37151729298,4.52993812421809,33.296,721.966651582317,827.419997481354,4.69821514675997,0,3.96191364121002,0,17.2617947185106,0,29.3898073395766,0,10.459550066754,0,0.591829289230893,0,27.7659878670914
-0.433167,12.249994,BFA,"Pouytenga - Burkina Faso",TRUE,181.256,1596.38093961074,25.259614458178,289353623.590084,4578456.67823152,,,,0,13,160.51390230359,181.256,4836.20119263342,4837.11083131744,4.21113075055764,160.932238150348,181.256,4854.21730586924,4855.47979373514,4.20643583816739,181.256,4578.23268467258,4578.45667823151,4.26872169340933,0,18.9372196128295,0,16.8322919642021,0,33.404179482358,0,14.6056909301946,0,2.72218968796075,0,27.3364882863695
-0.199998,5.549954,GHA,"Accra - Ghana",TRUE,3048.022,3953.2102,68.5172293751128,12049471660.2244,208842022.51439,GHTEM,Tema,QQ,7407.89336449,14,313.003197570236,3048.022,211138.475434035,211382.91652285,3.16298789805449,313.441717238878,3048.022,211561.18295214,211844.616043661,3.16109063854603,0,229.342832220172,0,17.4268949701976,0,132.363229404918,0,19.9939898869614,0,40.5258573635184,0,26.8786996490373,3048.022,208589.38280923,208842.02251439,3.17335206049238
1.65764,13.7969694,NER,"",FALSE,0,908.340884736449,18.21835659222,0,0,,,,0,15,73.6318117554454,1e-06,8.76427540281725e-06,27.081388301338,6.92817363173344,60.9489617075963,1e-06,6.69008260615485e-06,27.7692027915785,6.70727007263715,1e-06,11.9371087529497,1.821835659222e-05,8.28346131431079,0,0.325226056411634,0,20.3887423423775,0,8.85463666752726,0,8.92573424545481,0,0.0533791126267908,0,32.0327592464275
0.05265,8.85392,GHA,"Chinde - Mozambique",FALSE,8.6,3953.2102,29.5972745903776,33997607.72,254536.561477247,,,,0,14,174.321256381825,8.6,258.170802897616,271.57133753016,4.06480514169507,174.149570714265,8.6,257.807640314447,275.665666198524,4.06652194203134,8.6,254.536558781203,254.536561477247,4.14840591721717,0,1.63322475202442,0,14.6574134362509,0,2.10589565930374,0,13.7549687164983,0,0.662967591841886,0,18.3630911617451
-0.233454,11.049927,GHA,"Bawku - Ghana",TRUE,100.737,3443.348943435,35.8736219329596,346872642.514812,3613801.05266056,,,,0,14,203.834101270731,100.737,3781.25127191055,3786.56422729429,3.80126685937047,204.759692714101,100.737,3805.80412736867,3811.69533535597,3.79389310200434,100.737,3612.43489145885,3613.80105266055,3.84516187655837,0,16.152768815878,0,14.8697235512156,0,20.0297434051889,0,14.0911290329732,0,1.90505875525591,0,25.3739196915965
-0.82513,9.98067,GHA,"Aioun - Mauritania",FALSE,12.666,3608.44598300667,29.1684758976839,45704576.8207625,369447.915720064,,,,0,14,145.549859142882,12.666,293.856926783353,368.081376939699,4.39150512242226,145.807540061683,12.666,294.600413194126,372.465431363073,4.38817721559249,12.666,300.798788281689,369.447915720064,4.62899411728262,0,2.06714239710212,0,16.0772986420926,0,22.3686166049269,0,8.86432911471847,0,0.446602415517354,0,23.5817197012185
-0.01374,9.4424696,GHA,"Luuq - Somalia",FALSE,52.008,3953.2102,30.0437969546538,205598556.0816,1562517.79201763,,,,0,14,172.631528506263,52.008,1539.69833227682,1647.46802256691,4.08180893970027,173.932963722934,52.008,1556.30720104197,1666.87565475262,4.06869152201701,52.008,1513.76918851846,1562.51779201763,4.16788424874446,0,11.8919076984212,0,13.9996664234954,0,21.136616117447,0,12.1247195817682,0,2.39367004052059,0,20.9008771436559
-0.22433,9.9239798,GHA,"Diallassagou - Mali",FALSE,10,3953.2102,25.3205514237845,39532102,253205.514237845,,,,0,14,162.876578347242,10,272.444258341756,277.653206688282,4.18484169979152,164.059497172479,10,275.27532670165,281.968059597361,4.17188312803813,10,254.571664286169,253.205514237845,4.279860312505,0,1.55690014382309,0,15.3044229664231,0,4.83956197829389,0,11.5260530024105,0,0.315584683827534,0,22.8088433761757
-0.23763,32.7311096,DZA,"",FALSE,0,13822.566,39.9593271920494,0,0,,,,0,10,98.89950930248,1e-06,1.33584769322181e-05,13.7974696059078,5.86933204586607,99.1771826178131,1e-06,1.34120886820573e-05,14.4756186671699,5.34083876212573,1e-06,4.49513019234132,3.99593271920494e-05,7.15456381950711,0,6.64577686033714,0,6.48832034965161,0,0.0231608845996758,0,26.7043164429131,0,0.0696773828177514,0,20.2766601520082
0.062,34.1462479,DZA,"Magu - Tanzania",FALSE,18.568,13822.566,39.034247987274,256657405.488,724787.916627704,,,,0,10,217.570616572685,18.568,765.021519687113,773.278563613688,3.69649195243305,203.453159984534,18.568,695.10606242641,783.398704814312,3.80431555008244,18.568,654.370784882877,724.787916627704,3.97938783931307,0,39.635204053436,0,8.02143321273297,0,0.356420848215363,0,26.0484311647095,0,3.28276591458158,0,14.9524474281736
-0.633443,35.696881,DZA,"Oran - Algeria",TRUE,725.418,13680.5691624158,63.5150657543658,9924131120.66136,46074971.9694005,DZORN,Oran,AI,255.6159,10,297.0685245324,725.418,46635.8907118137,46742.2750015669,3.23461600473825,298.39105078041,725.418,46932.7725694289,47249.1933946632,3.22846401793834,0,120.158177657983,0,14.3766009234623,0,99.9148443459093,0,15.0552179399412,0,3.77037202291998,0,34.1584776047074,725.418,45866.4526556462,46074.9719694005,3.252525888105
-0.34739,35.5365906,DZA,"Kouribga - Morocco",FALSE,90.859,13775.9879587745,55.3395627750259,1251672489.94629,5028097.33417608,,,,0,10,264.776276832178,90.859,4955.68136605847,5259.5621115122,3.39814330557002,267.797654480047,90.859,5036.66357818144,5338.80809954717,3.38165905026901,90.859,4850.17747315947,5028.09733417608,3.46378947676801,0,76.4857894032055,0,9.77452606166138,0,1.16866298702258,0,27.8015239819398,0,41.6517845707494,0,11.3784339963206
0.05872,6.15661,GHA,"Zagora - Morocco",FALSE,34.381,3953.2102,38.8969776080709,135915319.8862,1337316.98714309,,,,0,14,218.487842457453,34.381,1425.07288475676,1430.10102503076,3.68983331274898,220.343843328186,34.381,1442.3980941956,1451.45509845311,3.67648099822144,34.381,1330.02471149549,1337.31698714309,3.75766707028742,0,4.38357668680491,0,15.6828897024041,0,3.63179642437111,0,16.4381473139995,0,19.4301123132097,0,10.8084745200951
0.36174,12.0579901,BFA,"Mazabuka - Zambia",FALSE,73.2,1564.24563399205,22.6391773750371,114502780.408218,1657187.78385272,,,,0,13,145.888062932434,73.2,1703.9132674332,1772.48726149101,4.3871390237019,146.557899689338,73.2,1715.1005697279,1791.16242036276,4.37853436892217,73.2,1598.58342141734,1657.18778385272,4.50483282327509,0,16.1019231569126,0,14.2197863588933,0,31.8207443786795,0,11.9931957879405,0,1.10582158224276,0,27.7773793883742
0.3068,35.7280197,DZA,"Kassala - Sudan",FALSE,468.678,13822.566,55.9459393267844,6478332587.748,26220630.9517987,,,,0,10,273.296159299838,468.678,26746.0230903851,26864.4708114971,3.35233121887855,274.280369735128,468.678,26883.7283086372,26989.0291993526,3.34717051020862,0,143.479979460753,0,12.3958646746407,468.678,26096.0037922785,26220.6309517987,3.37544589157727,0,1.86056459343009,0,36.7335987977869,0,19.9074381985241,0,20.3105091544619
0.17407,26.7181301,DZA,"Asamankese - Ghana",FALSE,20.402,13754.6295522982,35.5508752420232,280621952.125989,725308.956687758,,,,0,10,198.064330624437,20.402,735.028476456327,742.54105054751,3.8483352237387,200.235142754373,20.402,746.564038704199,750.096197839336,3.83039904209374,20.402,725.308943118311,725.308956687757,3.86271354105834,0,2.85100885935658,0,15.426721523309,0,0.789785468772647,0,21.2640523199647,0,0.43468353509595,0,24.6876670460151
1.0877,26.958849,DZA,"Kherrata - Algeria",FALSE,18.598,13747.3415581596,37.6662944731761,255673058.298652,700517.744612129,,,,0,10,207.949502194271,18.598,718.313877899008,720.561818108249,3.76884189187388,209.028769676217,18.598,723.645626719579,725.858860582956,3.76048973617074,18.598,700.517748649632,700.517744612129,3.79404664977247,0,3.3118332342393,0,14.469061311494,0,0.64062340716868,0,21.8175921923652,0,0.404039354473696,0,24.4822670980871
2.101906,34.108919,DZA,"Aflou - Algeria",TRUE,114.592,13822.566,42.5694418617965,1583955483.072,4878117.48182698,,,,0,10,227.015055315079,114.592,5016.79410221191,5072.90314868181,3.62978350848555,227.895914173569,114.592,5044.62585695015,5107.65107936486,3.62376409015998,114.592,4797.08572977742,4878.11748182698,3.68104267443985,0,69.3312647864399,0,10.6165385911523,0,0.974594732208271,0,30.8325354276731,0,3.87063629709694,0,21.8408553365004
3.666624,32.483817,DZA,"Ghardaïa - Algeria",TRUE,210.733,13822.566,54.3332823474776,2912870800.878,11449815.588931,,,,0,10,267.794013475214,210.733,11681.5132289891,11750.4880501662,3.38167875676772,269.190997135359,210.733,11768.6650069831,11832.3883074244,3.37414638505778,0,96.1468922088919,0,11.2382376501654,210.733,11344.3959374313,11449.815588931,3.40986103084545,0,1.80424555270368,0,30.3639403916325,0,4.35507099481664,0,24.3603331176976
0.20933,10.8734493,TGO,"Al Manāqil - Sudan",FALSE,58.071,1468.95664149522,31.2532292472104,85303781.1282692,1814906.27561475,,,,0,16,183.035723358378,58.071,1869.1019772093,1907.33881745667,3.98070698072457,183.476009245078,58.071,1875.52822638669,1929.00994281894,3.97661023643164,58.071,1755.18595892242,1814.90627561476,4.07160705584722,0,30.9488428962527,0,11.1734050000644,0,9.89285496906007,0,14.8599120192423,0,1.27827885188027,0,24.7850769419782
0.05048,5.7687697,GHA,"Ténès - Algeria",FALSE,37.402,3953.2102,53.4407004820401,147857967.9004,1998789.07942926,,,,0,14,243.56383028864,37.402,1810.59485792028,2048.17631721116,3.52195969159128,240.575888757967,37.402,1778.94755593561,2060.59059017595,3.54064039870541,37.402,1825.90114223676,1998.78907942926,3.64930727551958,0,4.91542411727052,0,16.0209959661326,0,4.08826236044043,0,16.7762570646911,0,55.5207091337747,0,8.73908570934775
0.77777,18.9019699,MLI,"",FALSE,0,2285.3071,12.4608224567388,0,0,,,,0,9,69.4833939460256,1e-06,8.06748583738833e-06,7.48314494403935,7.16655001946183,86.6238142987289,1e-06,1.10543419984681e-05,4.16655472510293,5.68505231794547,1e-06,3.77036376508941,1.24608224567388e-05,5.8288490265369,0,0.0414733444819925,0,17.9985532103919,0,0.0416518738091254,0,17.9792354969733,0,0.00788244118793051,0,27.2594980828322
1.4786099,14.2064199,NER,"Namakgale - South Africa",FALSE,19.262,902.661251353596,18.3109624941318,17387061.023573,352705.759561966,,,,0,15,114.55104348229,19.262,317.400932886276,343.523300964611,4.86620366331329,115.865419541198,19.262,322.616420772746,346.127137877191,4.84246835462763,19.262,308.614121087398,352.705759561967,4.98335417124733,0,1.32398405673863,0,19.4717529229929,0,8.54304137861508,0,12.217225319072,0,0.279253053209495,0,28.732693410914
0.46922,10.3394394,TGO,"Hamma Bouziane - Algeria",FALSE,34.791,1791.52743346508,23.7423490738048,62329030.9376835,826020.066626741,,,,0,16,151.494502843198,34.791,854.67144832516,883.864859218832,4.31680703187348,151.46646894404,34.791,854.445520060656,895.325134315043,4.31714938955969,34.791,778.569919384562,826.020066626743,4.47062111976547,0,26.3468355652234,0,10.4234181040667,0,5.7368343871039,0,15.2589342986831,0,0.931936157134621,0,24.0350911044408
1.14132,9.47579,TGO,"Cacongo - Angola",FALSE,33.327,1373.44357100469,23.4389778775196,45772753.8908734,781150.815724097,,,,0,16,146.882804081638,33.327,783.336964455597,827.741801645335,4.37438094595354,147.780413282345,33.327,790.184504863177,839.496028557039,4.36297405569158,33.327,740.449066601975,781.150815724096,4.50208296214588,0,22.3801833512174,0,10.7974545548822,0,3.21719423787348,0,17.5354932843526,0,1.45248699364172,0,21.3923875969549
0.59562,6.0068398,GHA,"",FALSE,0,3953.2102,37.1738924725988,0,0,,,,0,14,115.711499592849,1e-06,1.67170773600407e-05,25.8045391231102,5.39384493319697,110.70242353959,1e-06,1.56929313948903e-05,28.8552693963655,5.07868262540709,1e-06,18.1292646878664,3.71738924725988e-05,5.70443049574108,0,0.334460240622477,0,15.4782334238577,0,0.168029088258883,0,18.3849106606989,0,4.25356123365176,0,8.19632529484387
0.50771,7.5739598,GHA,"Kayanza - Burundi",FALSE,11.503,3218.33666164992,33.5632575458883,37020526.618959,386078.151550353,,,,0,14,188.178223387446,11.503,385.190468512647,405.396174112596,3.93371601845266,193.794693410625,11.503,401.718640799258,417.15477186758,3.88444573647715,11.503,386.078156947774,386.078151550353,3.96035897796179,0,3.13437355129668,0,13.1936723686325,0,1.43072743739326,0,16.0514465106921,0,1.78304066790607,0,15.1919346581471
0.470198,6.611847,GHA,"Ho - Ghana",TRUE,183.715,3893.07070546691,38.4335396256206,715215484.654853,7060817.73232089,,,,0,14,212.083204431,183.715,7298.01276887159,7370.9883028197,3.73718257827889,214.797892663878,183.715,7431.82843734187,7504.71099973878,3.71686680326539,183.715,6978.26770955681,7060.81773232089,3.78506711444799,0,27.894915314999,0,15.053213856697,0,13.9175837926859,0,17.9109876231148,0,67.1612155134049,0,12.0845603636276
0.14396,34.7495003,DZA,"Meknès - Morocco",FALSE,128.413,13832.7356266939,48.9472390691589,1776303080.03064,6285461.8105879,,,,0,10,250.196787281381,128.413,6459.59595604038,6574.64525770047,3.48163634829784,249.844609066126,128.413,6446.61050549762,6695.50176221561,3.48373878648817,128.413,6061.61196606489,6285.4618105879,3.57144801442221,0,160.917609918805,0,8.84790545157625,0,1.62546178784672,0,27.9091876605877,0,12.3413743344368,0,16.8132042574628
1.316772,35.366641,DZA,"Tiaret - Algeria",TRUE,273.948,13822.566,52.0993930151733,3786664310.568,14272524.5177207,,,,0,10,260.474023465699,273.948,14596.1987093325,14736.7462628136,3.42208526238748,261.800511221997,273.948,14702.5037284618,14867.1664707594,3.41464348192707,0,167.697904795052,0,10.4778097549895,273.948,14085.7881744044,14272.5245177207,3.46104406846999,0,1.37567797530285,0,34.8155484717593,0,9.84343017870842,0,21.2870659483919
0.83412,11.1550198,BFA,"Missour - Morocco",FALSE,13.579,1539.16365357952,21.9358482617815,20900303.2519562,297866.88354673,,,,0,13,134.462653921217,13.579,281.324098570165,318.330812699817,4.54318670890808,136.634562096252,13.579,287.838052814463,325.991215703636,4.51209456287967,13.579,273.063827187343,297.866883546731,4.71643248718356,0,12.6124490322574,0,10.1737208245712,0,3.25711222910933,0,14.2715618659045,0,0.323102869773134,0,25.4298956161401
1.064238,10.697912,BEN,"Matéri - Benin",TRUE,260.509,1341.27023884108,22.6149908758556,349412968.65025,5891408.65807827,,,,0,17,147.819300613551,260.509,6179.00088050934,6321.98361662937,4.36248210574147,149.179552467105,260.509,6260.38926775619,6431.83286510904,4.34538973069091,0,227.304767911403,0,10.0221358475917,260.509,5624.23779980784,5891.40865807827,4.49362164162253,0,15.6113911460496,0,19.5772651568824,0,3.14561847551397,0,29.2203840628704
1.331625,36.164677,DZA,"Chlef - Algeria",TRUE,575.939,13822.566,54.0496792570843,7960954839.474,31129318.2216458,,,,0,10,267.044368402145,575.939,31798.2956325493,31837.4409014034,3.38574393520581,267.683512397453,575.939,31907.0742840876,31952.0411355876,3.38227695720858,0,128.467570346647,0,13.4318378828474,575.939,31070.3798153987,31129.3182216459,3.40601987553829,0,2.05478828298679,0,37.7695717569597,0,20.8455216600215,0,21.1631655231705
