lon,lat,iso3c,city_country,city_port,population,gdp_cap,IWI,gdp,wealth,port_locode,port_name,port_status,outflows,ctry,uj_orig,Lj_orig,Cj_orig,Dj_orig,PCj_orig,uj,Lj,Cj,Dj,PCj,Lj_1,Dj_1,Yj_1,Pj_1,Lj_2,Dj_2,Yj_2,Pj_2,Lj_3,Dj_3,Yj_3,Pj_3,Lj_4,Dj_4,Yj_4,Pj_4
-17.446713,14.692814,SEN,"Dakar - Senegal",TRUE,3223.755,2287.6685,70.2606002240275,7374882765.2175,226502961.27521,SNDKR,Dakar,AI,2417.263262,1,436.92650664908,3223.755,359628.104956806,361537.592996568,2.74166783334365,439.039376431584,3223.755,362115.067865763,364007.742740927,2.73600536791351,0,212.236225298208,0,113.308502384021,0,386.523479657327,0,83.9622978356679,0,53.6576857486393,0,225.349338277237,3223.755,315593.253092207,315941.70196921,2.93838298721084
-17.044529,14.7029696,SEN,"Yaoundé - Cameroon",FALSE,505.227,2302.16270413245,52.2935947198641,1163114756.52073,26420135.9795328,,,,0,1,293.467504267616,505.227,31919.1927494493,39879.7151153195,3.25156703040665,298.642613528515,505.227,32726.3272746328,41049.4569486324,3.22729823348451,0,382.522087429001,0,33.4321687175699,505.227,25609.2293624009,26420.1359795328,4.08596416470119,0,20.2032295938357,0,145.473004640378,0,343.169860418815,0,35.2970361181339
-16.6384888,15.1122198,SEN,"Dzolokpuita - Ghana",FALSE,74.508,2361.8791047779,42.0766985704881,175978888.338792,3135050.65708993,,,,0,1,263.174290041333,74.508,4028.77644826686,4946.87548186221,3.40699297079578,268.697010167083,74.508,4150.09453451379,5171.01288102786,3.37680351033015,74.508,2887.88447825602,3135.05065708993,4.51859785705007,0,131.201122001109,0,21.1994613398549,0,4.3400260611767,0,116.559434927454,0,21.4659476000187,0,52.4105320601471
-16.4633198,14.7565098,SEN,"Gusau - Nigeria",FALSE,113.325,2297.65604456748,38.0772661124075,260381871.25061,4315106.18218858,,,,0,1,248.210523506915,113.325,5636.07852167961,7215.60635248773,3.49354968440423,261.013148389624,113.325,6055.92057027935,7530.4928133122,3.4190541797035,113.325,3857.94773760236,4315.10618218858,4.7768269886813,0,260.857192200936,0,18.3703010885294,0,6.40522263505037,0,117.23318613186,0,35.8095015781415,0,49.5813724627398
-16.4205399,14.3423595,SEN,"Chipinge - Zimbabwe",FALSE,18.416,2269.64499576379,37.4244716433748,41797782.2419859,689209.069784391,,,,0,1,120.348440991205,18.416,325.636235384403,1327.34164113717,4.76432187797296,143.886920156535,18.416,420.303017752256,1348.07081853884,4.41318522958329,18.416,479.657895115458,689.20906978439,7.39848352090722,0,96.6887045232223,0,16.4786124164158,0,1.84044306316905,0,119.439319452869,0,13.142942800156,0,44.6953355283534
-17.033333,20.933297,MRT,"Nouadhibou - Mauritania",TRUE,118,5196.45446473013,38.9206658183864,613181626.838156,4592638.5665696,MRNDB,Nouadhibou,AI,197.0295,2,452.920525191602,118,13857.3044886954,14064.3068392727,2.69974838578435,458.801021906385,118,14115.0412531761,14310.5375802121,2.68486387960249,0,24.9009509143774,0,64.3638895411934,0,16.0903274591532,0,80.0696270712653,0,4.56136822043629,0,150.384363318771,118,11769.9852496162,11882.7300665696,2.96048106084213
-16.8981705,21.2914486,MRT,"",FALSE,0,5538.53368337853,18.6296720206833,0,0,,,,0,2,46.9146585436043,1e-06,4.60323623692532e-06,222.225059763912,9.11860818624542,37.1381530188857,1e-06,3.29670462177824e-06,216.611004518033,8.56042345964808,1e-06,5.5990970125008,1.86296720206833e-05,53.2447155980648,0,3.33884891664502,0,68.9504531748671,0,0.818438169030772,0,139.265189756185,0,92.5355881747179,0,13.0972799521232
-15.978542,18.085588,MRT,"Nouakchott - Mauritania",TRUE,1440.712,3726.39485774327,41.8651880562521,5368661788.28902,60315678.8148991,MRNKC,Nouakchott,AI,334.524,2,289.240264590282,1440.712,89153.9744922773,90653.6856676299,3.27184902024183,294.834182617753,1440.712,91627.3473358741,93549.1255059685,3.24509887162262,0,342.230102259512,0,53.6523434439579,0,121.306389196111,0,90.1168414812138,0,58.416176133406,0,129.861745800413,1440.712,72200.5431310667,72693.0668148991,3.69383563904446
-15.67383,23.8871498,ESH,"",FALSE,0,7041.16211331411,31.3978211479454,0,0,,,,0,3,53.2246846024619,1e-06,5.51258702800123e-06,339.289197562144,8.41701768568372,48.8759203643398,1e-06,4.88059072359499e-06,337.093031884945,7.4669175420442,1e-06,92.137700240661,3.13978211479454e-05,14.2822804991393,0,20.8995511611485,0,29.9880180352205,0,1.19721171885383,0,125.294142459439,0,9.58200003125966,0,44.2882132655685
-16.2439098,15.6356897,SEN,"Banikoara - Benin",FALSE,93.802,2287.6183979327,43.5760615586268,214583180.962884,4087521.72632231,,,,0,1,269.289570423775,93.802,5241.23817493372,6104.05397791234,3.37361700599351,280.939994760281,93.802,5568.15210688622,6390.36233224449,3.31293273375071,93.802,3901.9081131104,4087.52172632231,4.23971672714911,0,95.7040726527854,0,27.0713647295604,0,5.43853621325383,0,113.562344141471,0,28.725031950049,0,49.4134412303633
-16.577537,13.453171,GMB,"Banjul - Gambia, The",TRUE,976.753,1827.81084253539,39.6195599018914,1785319723.87897,38698523.9928521,GMBJL,Banjul,AI,184.275,4,285.132074980025,976.753,59220.6320577214,60802.7468624392,3.29196970733987,294.947126489598,976.753,62154.1764894181,64252.2357436747,3.24456625198972,0,511.06048307165,0,36.3801611205715,0,171.174274111822,0,62.8610341256212,0,34.1011223912262,0,140.836891893917,976.753,44923.0674658851,45516.6989928521,3.88030681899987
-16.2409897,12.7924099,SEN,"Quelimane - Mozambique",FALSE,91.883,2295.74090262069,36.7829540931087,210939561.355497,3379728.1709371,,,,0,1,219.134316201916,91.883,3824.60653719222,5551.8394040566,3.68516414951018,229.463216402009,91.883,4084.71749724478,5890.43123384844,3.61313557590976,91.883,2951.21700551457,3379.72817093711,5.10454727842447,0,29.0135769196225,0,51.4822082029038,0,5.34082649140224,0,119.992353004392,0,216.872512756709,0,18.830226650858
-16.076402,14.138908,SEN,"Kaolack - Senegal",TRUE,187.932,2278.7640345833,45.3761239685572,428252682.54731,8527625.72965889,,,,0,1,285.126840255123,187.932,11394.0371128892,12477.0123511055,3.29199561225979,290.68316790362,187.932,11712.5539889796,13833.1827204924,3.26487872947936,187.932,8311.10507426299,8527.62572965889,4.2121004988187,0,156.523047158956,0,30.6929734933949,0,11.892442147189,0,111.350606831489,0,110.0365313272,0,36.6066229111557
-15.6096001,13.5730095,GMB,"Bria - Central African Republic",FALSE,70.315,1877.21348753621,26.69126049904,131996266.376109,1876795.98199,,,,0,4,182.243978462505,70.315,2249.2210609542,3045.35597363536,3.98810945418163,185.950549825743,70.315,2314.85593998995,3351.28564360457,3.95384390343827,70.315,1693.82811716918,1876.79598199,5.56148248055509,0,30.4078310665335,0,41.5080681470317,0,4.32833944971746,0,110.018213304602,0,83.5277333460091,0,25.0443574989125
-16.50258,16.034409,SEN,"Saint-Louis - Senegal",TRUE,154.555,2616.38725725041,41.8228350121846,404375732.544337,6463928.26530819,,,,0,1,283.821373100938,154.555,9309.20950512784,9326.5431824253,3.29847648735401,290.61879526357,154.555,9629.33997920979,9636.76504436501,3.26518864322315,154.555,6463.92822030912,6463.92826530819,3.98681101892116,0,70.7592712094004,0,38.105023795478,0,8.00915417961151,0,113.261050759424,0,42.5961128395803,0,49.1121479239967
-15.804984,16.512799,MRT,"Rosso - Mauritania",TRUE,159.231,3119.63824766881,37.3432812371366,496743117.814552,5946208.0146705,,,,0,2,236.357169699174,159.231,7384.4775260796,8886.41227417261,3.56758780667636,231.845815862016,159.231,7183.95028893615,9394.43382955693,3.59717533432858,159.231,5679.40863386503,5946.2080146705,4.62642316612067,0,71.9949558420018,0,41.0909212413001,0,12.0494697035306,0,100.441443674914,0,92.2909425094607,0,36.2925406783831
-15.883334,14.866839,SEN,"Touba - Senegal",TRUE,597.23,2294.61226912889,41.7294708957356,1370411285.49184,24922091.9030602,,,,0,1,275.437603402728,597.23,34464.2390743528,36041.1968240978,3.3411362923005,286.087736575479,597.23,36383.6154346654,39106.3265158381,3.28725234755009,0,655.998084034147,0,25.3807978315944,597.23,23970.1023020145,24922.0919030602,4.19876541633712,0,36.8003523065769,0,107.1594725345,0,126.598449817082,0,57.7753202429818
-15.575626,11.856113,GNB,"Bissau - Guinea-Bissau",TRUE,503.968,1367.43735056953,29.1359647460553,689144666.691825,14683593.88114,GWOXB,Bissau,AI,114.309,5,248.623790983123,503.968,25123.8621862284,25673.5957206624,3.49105976138463,255.369695123605,503.968,26103.3313599726,26684.1233992692,3.45123413277086,0,248.352221815468,0,35.7739477532407,0,47.0944406792294,0,82.1516085913027,0,17.9423173111868,0,133.094965199074,503.968,18630.9359420026,18913.02688114,4.13031863535562
-15.65446,14.4204092,SEN,"",FALSE,0,2255.07749469541,31.0289501068166,0,0,,,,0,1,68.309486931155,1e-06,7.87348098179273e-06,247.338096949115,7.23614619202382,81.2369926054281,1e-06,1.00855450658526e-05,211.90817169331,5.85909969059438,1e-06,55.9020223327388,3.10289501068166e-05,11.4075131603791,0,19.0061395542921,0,19.5640057729319,0,0.598299005570798,0,110.267012994371,0,3.79158587737761,0,43.8020355962288
-15.5441999,14.1010094,SEN,"Debre Zeyit - Ethiopia",FALSE,69.357,2287.6685,33.2273419593215,158665824.1545,2304548.75627266,,,,0,1,239.0347236667,69.357,3268.6718735301,3448.86006102844,3.55040592109509,251.049124953349,69.357,3505.87669593205,3734.0553878108,3.47656548667934,69.357,2221.04653025588,2304.54875627266,4.50777222774143,0,48.6919724576404,0,30.4447287297941,0,4.22391770649262,0,103.367275588122,0,24.4605103711971,0,42.9544374438048
-13.9632597,17.0292988,MRT,"Fritissa - Morocco",FALSE,15.521,3680.26830758623,24.3321127914395,57121444.4020459,377658.722635932,,,,0,2,54.7255596346195,15.521,89.0283201632915,861.666168432681,6.67851307893708,57.5555145204505,15.521,95.6773682063054,974.065127830477,6.53575044225729,15.521,317.923872556082,377.658722635932,11.4400491023596,0,18.1311536896998,0,47.9045472124734,0,5.41602319057629,0,87.6494514639363,0,46.1624073346315,0,30.0223880741382
-15.945537,23.708077,ESH,"Ad Dakhla - Morocco",TRUE,106.277,6999.25678566019,41.685948396546,743860013.409608,4430257.53773972,,,,0,3,264.255678021406,106.277,5780.34349486052,5969.95088866427,3.40101077843307,272.112028347934,106.277,6027.39911095038,6199.34446306106,3.35857550883479,106.277,4307.61983832587,4430.25753773972,4.02911178327857,0,41.0647432983591,0,41.2661017896918,0,3.7491363116144,0,136.572225698848,0,22.6481687098941,0,55.5662969779603
-14.2343597,16.6268101,MRT,"Had Zraqtane - Morocco",FALSE,10.415,3292.61139046978,26.1754116436426,34292547.6317428,272616.912268538,,,,0,2,172.208601711095,10.415,307.257815487994,382.82415289778,4.08610224295597,172.829123978034,10.415,308.840675127498,407.639804663663,4.0798082584248,10.415,230.290791793138,272.616912268538,5.42799897725756,0,3.86619364507617,0,41.892497006254,0,0.746537795527833,0,95.3349528028777,0,4.77190348751703,0,37.707889204181
-13.9593992,16.1129189,SEN,"",FALSE,0,2493.74395561908,28.4022929330901,0,0,,,,0,1,68.7563369264098,1e-06,7.94716224659217e-06,59.3851160418658,7.20846120534404,55.1922426595461,1e-06,5.80599701872773e-06,257.383405200152,7.03843854068764,1e-06,67.6749444472049,2.84022929330901e-05,13.7262732088506,0,16.5335726853757,0,27.7704705986194,0,1.67991593287041,0,87.1209943570891,0,6.02422460251805,0,46.0061633898664
-13.203346,27.153675,ESH,"Laâyoune - Morocco",TRUE,217.732,7166.58209753815,43.2531834575172,1560394253.26118,9417602.14057214,,,,0,3,279.191002042304,217.732,12809.929819835,14082.1924945511,3.32181138535039,287.294636641752,217.732,13344.3776243587,14549.9793245343,3.28132688690618,0,222.517120663688,0,26.5337705627435,217.732,9037.80352004941,9417.60214057213,4.16341054009533,0,15.8336555413207,0,99.4695353782337,0,44.3525586954286,0,59.4321369130838
-14.2115793,13.3027792,GMB,"Tarkwa - Ghana",FALSE,61.291,1770.86443929862,23.1067512092836,108538052.349052,1416235.8883682,,,,0,4,184.432002139321,61.291,1994.27610826324,2132.22379496292,3.96776319005094,190.09405794935,61.291,2082.31131486778,2241.86720881581,3.91667585235766,61.291,1364.19250786882,1416.2358883682,5.02093665726631,0,12.3566737981306,0,52.7559906732535,0,3.19810782798375,0,103.699347554814,0,26.1105863067487,0,36.2922807126451
-15.3329,12.0479898,GNB,"",FALSE,0,1367.45133840083,18.1778592380354,0,0,,,,0,5,57.2263260127944,1e-06,6.11407612556918e-06,202.127499725658,8.04782493535594,49.2345460808983,1e-06,4.93182990609825e-06,248.458876724131,7.44025645528718,1e-06,49.8091777928295,1.81778592380354e-05,16.6173006236761,0,3.46592134577872,0,62.9949615072196,0,1.05947504166057,0,113.938318149366,0,33.8027130774529,0,20.1715552394796
-13.6763992,13.7135201,SEN,"Khénifra - Morocco",FALSE,78.8,2287.6685,28.5775553827832,180268277.8,2251911.36416331,,,,0,1,211.900345586063,78.8,3126.44691994758,3300.93600550962,3.7385643847926,219.477330170849,78.8,3287.36712498451,3493.58847964578,3.68269471648063,78.8,2230.58083500428,2251.91136416332,4.60885037078019,0,28.9849319881406,0,40.4310899977368,0,5.67484102712006,0,91.3744432291028,0,16.9052737351806,0,52.9407987144511
-14.8474998,12.0527,GNB,"Misséni - Mali",FALSE,54.756,1394.43121299449,18.6469722659379,76353475.4987265,1021033.6133937,,,,0,5,159.382186210173,54.756,1446.28493915108,1572.02754582104,4.22391989902855,160.5427731797,54.756,1461.35343614901,1657.26411608286,4.2108061740202,54.756,968.188099174883,1021.0336133937,5.50910746446787,0,10.9146291888601,0,51.8867683817279,0,2.77895494977262,0,102.830125061781,0,21.3724845341256,0,37.0794778128927
-14.299376,10.940929,GIN,"Boké - Guinea",TRUE,116.27,1146.57562365401,27.5929884020649,133312347.762251,3208236.76150809,,,,0,6,209.150169458072,116.27,4527.80374569968,4644.62911695621,3.759554111073,216.792747329683,116.27,4766.00027814339,4870.24511304761,3.70217035103906,116.27,3143.98441525146,3208.23676150809,4.60777872942488,0,33.3610869836694,0,44.731319794495,0,6.59311362993564,0,100.620513391632,0,28.8614538557131,0,48.0919853748825
-13.3009596,12.4839897,GIN,"Kalfou - Cameroon",FALSE,13.99,1189.02775135884,23.7319650851646,16634498.2415102,332010.191541452,,,,0,6,176.916290880106,13.99,428.937696109128,502.410752388856,4.03914436155394,178.129382094788,13.99,433.145530410207,535.518686273345,4.02733244458543,13.99,322.367751168357,332.010191541453,5.19073669774222,0,4.77122415612324,0,42.6667819316441,0,0.991205792617605,0,93.6101385812816,0,4.02711694183523,0,46.441653974209
-13.6282301,10.0732899,GIN,"",FALSE,0,1176.62521698137,26.8793431772143,0,0,,,,0,6,51.0344369980386,1e-06,5.19139842399634e-06,107.016771320943,8.64196307461743,49.4612046248731,1e-06,4.96429674828972e-06,124.421934112904,7.42356585364452,1e-06,36.8105788590168,2.68793431772143e-05,13.6481791292015,0,5.1126476667192,0,36.6216668961024,0,0.570188411736658,0,109.660912895741,0,4.28929421167188,0,39.9823321467414
-13.1784992,11.1257696,GIN,"",FALSE,0,1125.84335585272,17.2149499541175,0,0,,,,0,6,97.6343806155895,1e-06,1.31150299224589e-05,41.7970088219012,5.91071223419195,82.2043507726855,1e-06,1.02575492748434e-05,53.8492716543862,5.82683741642326,1e-06,22.6196009297574,1.72149499541175e-05,8.99042744714916,0,1.66340003507905,0,33.1531248357662,0,0.228129266816344,0,89.5225301827243,0,0.66396749707843,0,52.4746344434813
-13.0830994,11.79953,GIN,"Bethlehem - South Africa",FALSE,7.461,1135.4866,20.8461390559678,8471865.5226,155533.043496575,,,,0,6,151.20034181334,7.461,182.777808160282,230.372891437951,4.32040449038083,151.068696128141,7.461,182.550508789733,246.915434545422,4.32201746741787,7.461,139.97419418629,155.533043496576,5.7403271814013,0,3.22762094225911,0,37.8024004729038,0,0.525436268801592,0,93.6915941808565,0,1.85244647939756,0,49.8985365718472
-13.8246593,13.3325996,SEN,"",FALSE,0,2141.07888826552,23.0399064754911,0,0,,,,0,1,84.2803742188787,1e-06,1.06296116942794e-05,42.2447176627786,6.41271842375342,62.1027725295604,1e-06,6.87174023821718e-06,51.6681254379325,6.65075203000566,1e-06,20.6537239689576,2.30399064754911e-05,10.5192049703198,0,1.064204549487,0,46.3414438290846,0,0.241476188328252,0,97.2847978676816,0,1.25532383588383,0,42.6681906754779
-13.7090893,13.0267,SEN,"",FALSE,0,2287.6685,21.3110377398114,0,0,,,,0,1,90.7180114138651,1e-06,1.18082254810486e-05,17.2081379651402,6.15456098321778,72.9622475496242,1e-06,8.65064457837784e-06,21.9900774502152,6.16163801987249,1e-06,9.49501920554729,2.13110377398114e-05,9.37695042430612,0,0.380315865647824,0,46.8529956258334,0,0.0872919046045636,0,97.7963523806013,0,0.484150730684,0,41.5259219545497
-11.400062,16.629969,MRT,"Kiffa - Mauritania",TRUE,110.714,3692.66927840016,24.5103198098448,408830186.488796,2713635.54742716,,,,0,2,187.949319092866,110.714,3700.93792356903,3913.23162911907,3.93576844137625,185.059023396932,110.714,3619.9020057074,4164.98827136029,3.96199601213144,110.714,2713.63554742967,2713.63554742716,4.9084589745214,0,25.9752107091256,0,50.1696863980055,0,13.0294960837505,0,70.8365035299793,0,13.9720889645975,0,68.405379255355
-12.2216101,14.4544096,SEN,"Sidi Redouane - Morocco",FALSE,20.065,2223.952360451,30.4239054818422,44623604.1124494,610455.663493164,,,,0,1,178.932340288726,20.065,625.238464736679,896.504931243521,4.01957710806094,181.55107055158,20.065,638.351574171406,909.66634196641,3.99462564626642,20.065,570.235268788081,610.455663493164,5.045336197082,0,7.75981774173052,0,43.2505256598325,0,2.35916597895672,0,78.440057709251,0,3.83953592452958,0,61.4862185029862
-13.712215,9.509116,GIN,"Conakry - Guinea",TRUE,1667.864,2150.37966857964,47.7173443768735,3586540835.55592,79586040.8617897,GNCKY,Conakry,AI,676.60790476,6,319.724040218981,1667.864,119094.213014062,119926.119958023,3.13431981470614,323.376891517867,1667.864,121042.75141741,121929.34613528,3.11909691942581,0,128.447856850153,0,96.0991532473672,0,83.6646525828364,0,119.072640999785,0,32.1408611849387,0,192.111886969238,1667.864,104351.104211097,104620.53333791,3.37158775334341
-13.5013895,9.7055101,GIN,"",FALSE,0,1177.39094451741,47.8186094627483,0,0,,,,0,6,32.9476342653757,1e-06,2.77843310107131e-06,689.27584762001,11.5819677381308,26.373410367649,1e-06,2.02170212284221e-06,818.54754848507,10.2255795061095,1e-06,90.0789181502139,4.78186094627483e-05,30.8246607076805,0,29.5723007123039,0,53.798148468954,0,5.32016558439325,0,126.837394479124,0,129.383530641123,0,25.7199657944807
-12.1095896,12.6156893,SEN,"Ādēt - Ethiopia",FALSE,11.216,2258.58745277728,29.7127985122773,25332316.87035,333258.748113702,,,,0,1,188.994103295777,11.216,377.908396838316,506.874731954121,3.92642913570222,191.680340231335,11.216,385.605046886049,532.589570340383,3.90275155278887,11.216,322.473155381314,333.258748113702,5.01557176785737,0,5.91341949948841,0,37.0380310830846,0,1.14126608013196,0,84.3089706432677,0,2.62541011941146,0,55.5864144303764
-12.9784594,10.6564093,GIN,"Bawku - Ghana",FALSE,30.311,1134.95099453162,19.5251633744116,34401499.5952479,591827.22704179,,,,0,6,169.078242782744,30.311,871.08861220255,942.124008344302,4.11835423434216,146.190907942081,30.311,707.657717511713,1096.40635949497,4.3832417258926,30.311,479.864998788252,591.82722704179,6.62554575152403,0,43.9986863332188,0,21.8807064566423,0,2.33801542401011,0,94.9199524695264,0,9.26592809657602,0,47.6800533941042
-12.854191,10.049703,GIN,"Kindia - Guinea",TRUE,181.126,1272.4382327917,31.7736110513414,230471647.35263,5755027.07528526,,,,0,6,221.141819282248,181.126,7638.18597932316,8749.64233970631,3.67078954712618,224.208093127529,181.126,7789.93200877567,9358.8752926277,3.64918981708007,181.126,5308.51297743269,5755.02707528526,4.84531306288665,0,161.042222075682,0,27.8188009729651,0,12.2516747700502,0,100.858047235952,0,59.1554331229809,0,45.8998182065869
-12.7595196,8.4948397,SLE,"",FALSE,0,1525.79033972791,18.3068914371631,0,0,,,,0,7,35.6639531726052,1e-06,3.11136021106835e-06,639.680873714989,10.9549756796729,33.1544641309154,1e-06,2.80338330132698e-06,908.36396351553,9.07083873464083,1e-06,75.8718180464013,1.83068914371631e-05,31.386085160348,0,94.1529214370274,0,28.1747774370835,0,5.48547679392119,0,116.726699055606,0,88.0459748375173,0,29.1355111034635
-13.234314,8.484392,SLE,"Freetown - Sierra Leone",TRUE,1035.246,1636.18751938735,51.9455928614036,1693856584.69567,53776467.2273966,SLFNA,Freetown,AI,292.305,7,321.763916432957,1035.246,74596.657266225,75332.2651612363,3.12578839034579,326.518182857855,1035.246,76176.2188457056,77133.2831282898,3.10620103631573,0,88.8702293930899,0,91.5107929095693,0,95.4519038032296,0,88.2994851879538,0,23.7949009188259,0,176.851406739432,1035.246,64340.2211626841,64591.7522273966,3.40102006503311
-11.6982899,26.7553997,ESH,"Malakal - South Sudan",FALSE,57.035,6390.125709182,25.1492270818786,364460819.823195,1434386.16661495,,,,0,3,189.839881431625,57.035,1934.01693387707,2380.8097036583,3.91892245201076,207.53260936809,57.035,2196.56674717832,2626.08380330076,3.77208463273306,57.035,1334.92183114355,1434.38616661495,5.29063500199597,0,83.450334694266,0,21.1602930301439,0,6.10611182038767,0,78.2263998982678,0,9.62598534089174,0,62.3035971908472
-11.1610899,28.4597492,MAR,"Kukawa - Nigeria",FALSE,73.209,6295.70213058728,39.2491173607986,460902057.278165,2873388.6328667,,,,0,8,256.753782003431,73.209,3821.29889768225,4372.62210352622,3.4432484167367,264.499297590501,73.209,3987.03954031679,4582.45012931287,3.39966790559118,73.209,2750.33584779634,2873.3886328667,4.38826154489144,0,70.1864123290059,0,27.4700118949514,0,7.411159019142,0,84.5361187039366,0,17.2231209537326,0,55.4535615016607
-12.283231,11.316916,GIN,"Labé - Guinea",TRUE,127.747,1146.98337636056,35.8287216279254,146523685.379933,4577011.70180259,,,,0,6,243.020267326361,127.747,6164.40299265447,6826.37587285658,3.52533361795863,255.18824745766,127.747,6610.01890040503,7262.85746855853,3.45228561176434,127.747,4424.34707705658,4577.01170180259,4.42319294700523,0,102.458359866849,0,29.066101067149,0,11.9933375061689,0,84.9552949404827,0,26.2279480557801,0,57.4484508370217
-12.08277,10.383497,GIN,"Mamou - Guinea",TRUE,376.269,1135.61305456118,26.8662514052221,427295988.426679,10108937.5499915,,,,0,6,209.518248850061,376.269,14689.5762548028,16471.3370298136,3.75672207741583,218.848661719206,376.269,15632.9433159718,17488.2849457118,3.6872248438445,0,456.351793396704,0,22.8256603705254,376.269,9413.38693340071,10108.9375499915,5.02574300004113,0,38.7514608773775,0,78.3301922153341,0,58.2658918755703,0,63.8801655021106
-11.74007,7.956451,SLE,"Bo - Sierra Leone",TRUE,249.807,1496.9442,25.5146367561591,373947139.7694,6373734.86414584,,,,0,7,200.075715980783,249.807,9130.71427703705,10387.4964824291,3.83170681355689,207.457269469612,249.807,9615.73071268618,10817.9891567518,3.77267165372853,0,196.873377018102,0,27.9658989769301,249.807,5912.72019538068,6373.73486414584,5.10303581065806,0,14.8950904718677,0,101.67184571793,0,85.0964795505061,0,42.536963366355
-10.971644,8.643743,SLE,"Koidu - Sierra Leone",TRUE,300.387,1517.04766003136,22.0121301485176,455701395.453841,6612157.73892276,,,,0,7,186.112113141736,300.387,9901.38483247035,10455.931143567,3.95237254548796,194.317338391343,300.387,10530.8386561816,11208.6573432005,3.87996464223016,0,205.525915569345,0,28.653077110813,300.387,6362.24547504009,6612.15773892276,5.14990660956936,0,19.2182128815331,0,93.7018282827717,0,54.571139999496,0,55.6061787329645
-10.8695793,12.6057196,MLI,"Kawambwa - Zambia",FALSE,10.832,2285.3071,24.4574447781555,24754446.5072,264923.041836981,,,,0,9,71.0955388459376,10.832,90.2978333017191,508.32761446414,5.96996416834692,78.5444567761958,10.832,104.110893272028,561.493871207477,5.7203955709377,10.832,264.923863452072,264.92304183698,8.32794850659654,0,8.32899400865645,0,46.9680249642984,0,7.47724371519575,0,49.5710142598579,0,3.23613263733689,0,75.3503749496022
-11.432892,14.449705,MLI,"Kayes - Mali",TRUE,174.373,2363.01954108217,36.6490483544719,412046806.437122,6390604.50871433,,,,0,9,239.225665397056,174.373,8227.26833154135,8602.18081645555,3.54919114500718,250.899654514479,174.373,8806.75833813913,8986.13266548412,3.47745295761691,174.373,6357.62253524018,6390.60450871433,4.13428400133037,0,34.1214447449781,0,56.4331082551873,0,23.0820938955579,0,68.6135793087886,0,19.4902314029109,0,74.6688013019142
-11.8790693,12.8341799,SEN,"",FALSE,0,2287.6685,30.2988245952444,0,0,,,,0,1,54.3753048765694,1e-06,5.68361824096221e-06,113.121486434684,8.30566863382421,49.7124438128224,1e-06,5.00035912856792e-06,117.570760138248,7.40520757235199,1e-06,43.7675940879424,3.02988245952444e-05,12.1369778703761,0,3.30618188245636,0,44.1594373074423,0,1.2736216850606,0,71.1486531231237,0,1.63957162305525,0,62.7078206809829
-11.5879192,10.1457901,GIN,"",FALSE,0,1178.37874359219,21.1600028678453,0,0,,,,0,6,98.4760591094737,1e-06,1.3276843485516e-05,90.2000226110514,5.88308104348694,79.181565123793,1e-06,9.72298741241943e-06,156.768305739152,5.92965890814474,1e-06,23.7569273406783,2.11600028678453e-05,15.2322377042473,0,30.1821659345378,0,13.5139915058478,0,0.984425860238544,0,74.8285528393325,0,1.34698083769846,0,63.9702639316783
-9.299825,10.383689,GIN,"Kankan - Guinea",TRUE,198.013,1153.17201735961,31.112356240142,228343050.673428,6160650.99617924,,,,0,6,231.964466357199,198.013,8940.19162642711,9629.92539701747,3.59638666592208,237.458132351115,198.013,9244.19488276594,9890.50918503533,3.560489414192,198.013,6091.71151990859,6160.65099617924,4.53679713277328,0,125.238548943426,0,31.6409861608403,0,34.7806309081203,0,60.0413290015963,0,18.6029037678564,0,82.0972585238244
-11.3188601,7.3100801,SLE,"",FALSE,0,1344.94827331861,15.4784810906556,0,0,,,,0,7,53.5866485890863,1e-06,5.56622116538962e-06,531.284007439467,8.38150635982362,45.9494126441646,1e-06,4.46853608992509e-06,642.073459599009,7.69684670286216,1e-06,97.2948485978811,1.54784810906556e-05,19.7724402831519,0,47.0814996476529,0,28.4236634501877,0,2.89223579588911,0,114.680175716801,0,47.7909504283219,0,28.2119017233232
-11.1890097,7.8601699,SLE,"Khartoum North - Sudan",FALSE,188.463,1485.97140072144,26.5325861186727,280050628.094164,5000410.77768342,,,,0,7,208.527947681214,188.463,7307.98284768087,8621.39740104006,3.76435774900001,215.323923642122,188.463,7650.58571232737,9107.25844251197,3.71297256344265,188.463,4445.80836294633,5000.41077768341,5.31422821982813,0,312.49697303356,0,20.044381645882,0,12.499860240986,0,100.221983253551,0,56.8812180935439,0,46.9819595653675
-2.216954,31.616774,DZA,"Béchar - Algeria",TRUE,179.119,13194.7313701357,47.9612505819522,2363427088.28733,8590771.24298869,,,,0,10,287.460385930027,179.119,10986.9096807738,11209.909910445,3.2805158955852,289.581824272704,179.119,11102.9249680769,13036.2796271658,3.27019455322557,179.119,8230.18423560456,8590.7712429887,4.11571833875501,0,164.455734401671,0,29.1156113761064,0,33.6307647371376,0,64.3846076434885,0,23.3572330063638,0,77.2573359618032
-10.0955496,9.1883497,GIN,"Mongu - Zambia",FALSE,66.815,1121.84293071791,25.8338628216588,74955935.4159169,1726089.54442914,,,,0,6,197.020487433396,66.815,2389.05964484846,3006.73021315717,3.85706014717364,204.949925150925,66.815,2527.59523470031,3068.71321389303,3.79238350815481,66.815,1509.40280737218,1726.08954442913,5.40739162540125,0,111.845366984012,0,19.8646721454895,0,8.89084576626135,0,70.4561428654106,0,8.92506552991608,0,70.3209445295528
-10.3059597,14.7111797,MLI,"Ikot Abasi - Nigeria",FALSE,18.328,2285.3071,26.3038363987401,41885108.5288,482096.713516109,,,,0,9,145.724579396093,18.328,425.94727144182,727.154406210471,4.38924772978381,168.903876129864,18.328,525.940956136683,774.329573940319,4.12017575699782,18.328,482.095892363825,482.096713516109,5.22170039020039,0,5.35310419246997,0,49.553669475159,0,4.60843036173517,0,53.4074882576394,0,1.98723348025143,0,81.3306461274253
-9.6050797,16.6627998,MRT,"Abū Ḩamad - Sudan",FALSE,24.199,3760.08548182476,19.5791653774687,90990308.5746773,473796.222969366,,,,0,2,122.356853377398,24.199,438.130178667081,790.070219050698,4.73064759417237,155.664066665198,24.199,617.980399010175,802.505184174266,4.26686726204965,24.199,473.796280841862,473.796222969365,5.55312221309434,0,9.0816650689297,0,40.1097834088028,0,3.95542642200367,0,60.776600374303,0,2.4312760456069,0,77.520385572133
-10.801398,6.313299,LBR,"Monrovia - Liberia",TRUE,1110.25,967.725459213548,41.2600904571139,1074417191.09184,45809015.4300107,LRMLW,Monrovia,AI,467.27200002,11,311.325009192496,1110.25,76319.3543765656,77772.2077764519,3.17028381640262,313.241338660756,1110.25,76991.3471613972,78895.9829247559,3.16195710763593,0,169.677300285789,0,68.1822843037584,0,133.618170462324,0,76.8335075161013,0,35.3834596589707,0,149.308067009408,1110.25,62675.388420589,63098.0794307507,3.54760209673534
-10.132382,8.567176,GIN,"Guéckédou - Guinea",TRUE,221.715,1099.39487496181,19.6079430369351,243752334.702158,4347375.09043406,,,,0,6,184.750872292433,221.715,7231.94964252963,7763.07387858964,3.96482680537415,191.27341376239,221.715,7599.43433852757,8129.29175435769,3.90630777768849,0,289.893200960707,0,20.6858703642229,221.715,4016.9991602772,4347.37509043407,5.55701978397147,0,16.8761414979469,0,85.7346215226673,0,31.9052784232992,0,62.3536016913172
-10.066664,28.983267,MAR,"Guelmim - Morocco",TRUE,118.318,6238.3237,43.0273185293868,738105983.5366,5090906.27375998,,,,0,8,288.400882763801,118.318,7291.40568786125,7392.23134305765,3.27592675813497,293.659243866528,118.318,7482.06354709003,7601.76525012546,3.25065698097645,118.318,5090.90627285745,5090.90627375999,3.97219737487165,0,47.9283159776118,0,40.9385339724544,0,8.36302631634995,0,98.0046405508726,0,36.271685904953,0,47.0591956996987
-10.4223099,8.6459198,GIN,"",FALSE,0,1227.60079775481,18.0701264188066,0,0,,,,0,6,101.727345724159,1e-06,1.39074583494382e-05,86.0235499702378,5.7800589870318,94.9618075620407,1e-06,1.26051949695799e-05,76.1725612602258,5.44975036690485,1e-06,7.31879043741555,1.80701264188066e-05,17.5815123863766,0,21.7398786698608,0,10.2011075408799,0,0.331339757921302,0,82.6302635946321,0,0.614871714313357,0,60.6573799147382
-9.4627399,13.0295696,MLI,"Ghardaïa - Algeria",FALSE,57.187,2269.38964058337,35.3665191502151,129779585.376041,2022505.13064335,,,,0,9,116.697519554984,57.187,967.658463541447,3320.68024872258,4.82764005193927,114.841565065167,57.187,945.748450877533,3684.17418249035,4.86092386087338,57.187,1545.43463288602,2022.50513064335,7.50522256446998,0,29.0877241005488,0,54.7058821069309,0,161.468827661224,0,23.2190555180135,0,10.7914874417554,0,89.8148692258252
-9.4801102,7.0074396,LBR,"Zuwārah - Libya",FALSE,34.046,786.9167,15.4325262289124,26791365.9682,525415.787989552,,,,0,11,59.377051284099,34.046,219.425247119023,1186.32819496767,6.44905632328351,55.3481043505757,34.046,198.468911848188,1312.60236395333,6.64621518619089,34.046,374.161016319968,525.415787989552,12.4483480063347,0,46.8839667215059,0,35.1664731539294,0,6.62171337420093,0,93.574130759781,0,55.743495560599,0,32.25105234089
-9.544252,15.181505,MLI,"Nioro - Mali",TRUE,116.376,2301.37386339613,31.0032048103123,267824684.726588,3608028.96300491,,,,0,9,220.119998397445,116.376,4875.2788652586,5082.2324300661,3.67808283232452,227.808808172816,116.376,5120.36483811303,5505.29717750827,3.62435785312916,116.376,3608.02896021602,3608.0289630049,4.47699333212507,0,32.2621676895166,0,47.3450613232479,0,27.5881125619404,0,51.1988800277717,0,10.2297678467429,0,84.0791992608081
-9.5260296,14.5371294,MLI,"Rundu - Namibia",FALSE,52.399,2258.05105134941,26.6645356098404,118319617.039658,1397195.00142003,,,,0,9,135.336012043205,52.399,1095.66769079158,2127.70218682495,4.53059833379022,136.127367720182,52.399,1104.83163401066,2450.43319667837,4.51929181882415,52.399,1315.84651841278,1397.19500142003,6.16721659114179,0,20.7577984909989,0,49.1022252032938,0,37.5711536821438,0,36.497620738467,0,6.45997277845988,0,88.0190093743046
-9.4735699,8.5450697,GIN,"Manzini - Eswatini",FALSE,43.102,1096.84397846855,22.3680314344588,47276169.1599514,964106.890888042,,,,0,6,179.48991717548,43.102,1349.06928200539,1691.6723514061,4.0142209131301,185.40384951212,43.102,1413.01466044753,1802.77036671024,3.95883628848482,43.102,840.857965098784,964.106890888043,5.79664129434887,0,76.5198378735434,0,19.2154574284774,0,5.25984717964044,0,73.2910910077149,0,5.85879550322518,0,69.4438163470717
-9.716798,29.717562,MAR,"Tiznit - Morocco",TRUE,108.998,6238.3237,44.8746618567915,679964806.6526,4891248.39306656,,,,0,8,248.640838545375,108.998,5434.31125853041,7447.28345476173,3.49095718235934,248.01456528718,108.998,5414.76771575845,7784.64436024649,3.49473238966196,108.998,4540.98356501831,4891.24839306656,4.57570848751881,0,42.4628775860001,0,47.3182422060836,0,8.84926054639326,0,103.652510013918,0,128.883478008942,0,27.1603079611937
-9.599649,30.433289,MAR,"Agadir - Morocco",TRUE,1070.86,6374.8461531175,58.0517269919173,6826567751.5274,62165272.3665645,MAAGA,Agadir,AI,593.66057139,8,399.564879311323,1070.86,105139.425623342,107190.376200235,2.848737577964,406.23255060955,1070.86,107654.783317553,109879.729329599,2.82860383032559,0,350.264828168951,0,50.0994145319807,0,139.467757985709,0,79.3951559133288,0,138.283551849918,0,79.7343857014605,1070.86,83634.7322424804,84130.7135079945,3.24218341727621
-5.986109,14.249942,MLI,"Niono - Mali",TRUE,128.619,2285.3071,33.8806562465947,293933913.8949,4357696.12578076,,,,0,9,239.590427424821,128.619,6081.72563893328,6601.52392673447,3.54687438275702,246.121290597248,128.619,6319.92814493804,6919.32281398858,3.50622847185558,128.619,4198.89392056842,4357.69612578076,4.50095381724469,0,105.649392470059,0,28.3751722478208,0,24.3337729531807,0,59.1244730523951,0,10.0620769300267,0,91.9450159607621
-8.8621101,31.2670689,MAR,"Dayr Mawās - Egypt",FALSE,41.579,6727.27118707371,36.8417125347524,279713208.687338,1531841.56548247,,,,0,8,156.814631382602,41.579,1073.05057505305,3599.34893731447,4.25342198846562,167.084522293771,41.579,1174.83484753791,3824.7847957874,4.13934363764648,41.579,1401.65186046748,1531.84156548247,6.83777655813305,0,70.7972803742175,0,30.4247274753577,0,69.244545619349,0,30.7639572627,0,58.8405670265405,0,33.373100759973
-9.551909,13.355745,MLI,"Balandougou - Mali",TRUE,1631.251,2258.59960670909,27.9096560141396,3684342867.04381,45527654.2827213,,,,0,9,194.959071303641,1631.251,57457.6923283977,58195.4055992323,3.87448602677456,203.054497138774,1631.251,60896.1510425555,62142.035029622,3.80751479524767,0,372.419614396626,0,49.1833450188775,0,106.163770800734,0,92.1183536371513,1631.251,45129.8259782818,45527.6542827212,4.46789034644517,0,52.4678334705069,0,131.03513778765
-9.1929197,14.5529394,MLI,"Cahama - Angola",FALSE,43.276,2285.3071,27.938885275401,98898950.0596,1209083.19917825,,,,0,9,109.240527167573,43.276,666.35177300253,1925.62750017782,4.9662134825868,114.47860048282,43.276,712.461579438319,2323.63783955789,4.8675230285379,43.276,973.990671772828,1209.08319917825,7.51821664168721,0,46.8767323117732,0,34.2699578362981,0,56.8002884883404,0,31.1327127366566,0,6.82279517055885,0,89.8278633087938
-8.816789,7.750291,GIN,"N’Zérékoré - Guinea",TRUE,195.027,1164.86349690503,28.8972795876179,227179833.210898,5635749.74613435,,,,0,6,222.10807297842,195.027,8275.78356648658,8580.66747923625,3.66393702834197,229.515725327791,195.027,8672.88437221235,8963.90501193993,3.61278128705244,195.027,5534.2039929648,5635.74974613436,4.59793377652568,0,116.811546224317,0,31.6480828941434,0,15.921302940601,0,85.7237164812058,0,30.1135439520409,0,62.331755651666
-8.1639996,7.2641697,CIV,"",FALSE,0,3149.8581711304,28.2093242708592,0,0,,,,0,12,67.2843508176526,1e-06,7.70522661140995e-06,181.848180050734,7.30091379725975,58.888748613712,1e-06,6.36938080307056e-06,194.521037528062,6.82212248859003,1e-06,30.7849282271709,2.82093242708592e-05,17.1487996957738,0,29.7416210310285,0,17.4469888141432,0,0.937396274086421,0,98.2745801602147,0,3.90806633756885,0,48.130662541955
-7.5722198,9.5049696,CIV,"Bariadi - Tanzania",FALSE,86.279,3289.988,39.2309187365728,283856874.652,3384804.43767277,,,,0,12,275.524407810151,86.279,4981.12771884856,5159.44486418685,3.34068513199089,282.980614563522,86.279,5174.80822790565,5329.77626905208,3.30267294329685,86.279,3384.8044354581,3384.80443767276,4.14431986069246,0,67.8393864168194,0,29.2738000816745,0,12.7199815061063,0,67.6046889408799,0,9.14015787801183,0,79.7522988377602
-8.002662,12.639193,MLI,"Bamako - Mali",TRUE,4552.105,2286.20141850059,45.3510168389582,10407028908.1636,206442590.507706,,,,0,9,272.565977601304,4552.105,258783.799457963,263438.627318559,3.35617711183489,275.540398002791,4552.105,262827.528383024,267666.185672707,3.34060203587038,0,904.608744676671,0,57.4633718059336,0,474.371729956632,0,79.3527709796203,4552.105,205338.350865509,206442.590507706,3.81405069854586,0,152.89606386046,0,139.773018446387
-9.166742,11.416769,GIN,"Siguiri - Guinea",TRUE,183.875,1135.4866,32.4018248026735,208787598.575,5957885.53559159,,,,0,6,203.932859100548,183.875,6906.68632182525,9250.44710449902,3.80047781812167,204.731689489845,183.875,6945.36781032676,9469.17505899986,3.79411548982649,183.875,5640.03458780943,5957.88553559159,4.91615690390755,0,72.9721399833395,0,43.2203299477901,0,94.4090805695273,0,37.9979122236703,0,15.6081562828759,0,93.4524770244032
-7.4854398,11.42488,MLI,"Souk Ahras - Algeria",FALSE,95.222,2285.3071,32.0476990885096,217611512.6762,3051646.00260606,,,,0,9,176.803842299942,95.222,2916.88517000652,5320.09579132049,4.04024504635864,181.689788601729,95.222,3032.71733368866,5498.89634086571,3.99331827183838,95.222,2822.4274811499,3051.64600260606,5.57391440993496,0,116.261925448934,0,27.4633136149533,0,47.2800489357286,0,43.0658212403913,0,11.3534562823978,0,87.8835611062266
-9.233368,32.283274,MAR,"Safi - Morocco",TRUE,395.857,6780.39513730578,50.0776184680819,2684066877.86845,19823575.8139195,,,,0,8,323.272345078302,395.857,28715.4660611818,30150.2385415962,3.11952918838586,333.456015931329,395.857,30016.408785839,31743.5138527638,3.07833723008009,0,345.238749244449,0,29.5177960207404,395.857,19301.2594255829,19823.5758139195,3.94776116467502,0,105.314909582597,0,53.4439765803005,0,108.0605161571,0,52.7606546748402
-8.500158,33.233179,MAR,"El Jadid - Morocco",TRUE,467.017,7268.41013196153,54.5650407804857,3394471094.59828,25482801.6501801,,,,0,8,309.065522233212,467.017,31770.7437764988,38336.0365429159,3.18019615297146,315.892962442732,467.017,32778.0908294964,39705.3879734163,3.15055471334983,0,269.813138662644,0,38.2190775826415,467.017,24750.0193849767,25482.8016501801,3.99046932177316,0,95.2634215934557,0,64.3203886846048,0,248.202125288306,0,39.8482267660725
-8.3035603,32.2542381,MAR,"Funtua - Nigeria",FALSE,139.815,6725.98050128035,37.1479411148004,940392963.786512,5193839.38696582,,,,0,8,275.173951951565,139.815,8057.24722168021,9797.18384348647,3.34250787671197,284.657591123384,139.815,8456.85256193605,10470.7555448832,3.29432026595071,139.815,4693.1039539411,5193.83938696582,4.92067567202007,0,271.883464429983,0,20.4438850626588,0,88.4611469922952,0,35.8408701760414,0,62.8247912269841,0,42.5294044676301
-8.2107401,31.9539585,MAR,"Ouled Fayet - Algeria",FALSE,38.613,6720.5864,38.3004049757337,259502002.6632,1478893.53732801,,,,0,8,220.017607016944,38.613,1616.51939066008,3078.61778458547,3.67881632864736,218.942631744147,38.613,1605.24823207938,3433.95782902768,3.68654652626143,38.613,1194.69195766413,1478.89353732801,6.25013255055475,0,125.572479119291,0,19.2783545843022,0,53.466822472942,0,29.5443888685226,0,30.4444774648906,0,39.1528099513564
-8.008349,31.630015,MAR,"Marrakech - Morocco",TRUE,1132.514,6720.5864,58.6646890573813,7611158186.2096,66438581.6631311,,,,0,8,346.787864382566,1132.514,90820.9180694037,94627.076914118,3.02705019826425,355.133118573249,1132.514,93959.1653795843,98115.1733602065,2.99635760838007,0,586.964465155544,0,38.7396619846531,0,361.236071040959,0,49.3817159419744,1132.514,65403.2377184089,66438.5816631311,3.6699665666838,0,203.327311794384,0,65.8209085271151
-7.6750998,8.2902699,CIV,"Krugersdorp - South Africa",FALSE,55.013,3186.43542100719,24.1835686231057,175295371.815869,1330410.66066291,,,,0,12,175.563636348808,55.013,1668.32259542221,2297.99461947646,4.05245225502134,179.271409119033,55.013,1718.88336992839,2410.14929171087,4.01631707528808,55.013,1166.31814020347,1330.41066066291,5.77353029000531,0,90.8882806044588,0,20.682166038391,0,6.95643785904204,0,74.7577996839959,0,7.67750199720204,0,71.1606647393675
-7.583329,33.53329,MAR,"Casablanca - Morocco",TRUE,4219.891,9656.635,70.9405986874118,40749947126.785,299361593.935621,MACAS,Casablanca,AI,2434.0279715,8,441.105403690616,4219.891,477197.898829265,485946.721756796,2.73050595856866,443.307323680062,4219.891,480604.517360902,490347.706908117,2.7246851881333,0,813.778036959847,0,66.8829504176844,0,578.795451488669,0,79.3059643486482,0,613.653494824572,0,77.0205825745238,4219.891,387993.60199536,389420.628881121,3.06306436685443
-7.9837198,32.2262306,MAR,"Qillīn - Egypt",FALSE,132.168,6742.80992422409,43.2105007592418,891183702.06485,5711045.46434747,,,,0,8,248.643374337426,132.168,6589.59352310503,11804.0489349258,3.49094192199438,255.903006646467,132.168,6866.15530708286,12393.2798809908,3.44814979498959,132.168,4831.26860815637,5711.04546434747,5.52266450267624,0,259.21394401437,0,23.8424056713377,0,203.967756276805,0,26.8780955731415,0,130.780510321323,0,33.5666298367918
-7.59407,7.3604698,CIV,"Pikine - Senegal",FALSE,241.969,3331.50044575431,31.6783867627629,806119831.358724,7665187.56659899,,,,0,12,225.68664180699,241.969,10504.8669612367,11077.3253302405,3.63892469137868,232.754668467924,241.969,10977.9883507015,11601.8722304841,3.59114883462401,0,139.222523252693,0,32.7825470929627,241.969,7403.83713689306,7665.18756659898,4.49540697822062,0,14.4471609677933,0,101.766816419699,0,36.7991848272686,0,63.7644099250501
-7.408295,32.048099,MAR,"El Kelaa des Srarhna - Morocco",TRUE,223.364,6725.77294838356,38.3125407240053,1502295548.84275,8557642.34627671,,,,0,8,255.522473439754,223.364,11579.1643291536,14047.6148056757,3.45034962221021,266.618279439727,223.364,12304.0989636823,15205.492264,3.3880618068864,0,185.692002747974,0,30.6587868887669,223.364,8015.52866454998,8557.64234627672,4.66643779412674,0,169.969763062873,0,32.0454026061034,0,50.6507881818994,0,58.7027521923714
-6.26652,13.449454,MLI,"Ségou - Mali",TRUE,240.936,2285.3071,34.5068161376911,550612751.4456,8313934.25295074,,,,0,9,214.231507611202,240.936,9709.89762801676,14433.8248707384,3.72107504936718,213.840076466367,240.936,9684.56276775931,15115.356654463,3.72399268181614,0,388.379899361629,0,23.232162991735,240.936,7430.88602000731,8313.93425295074,5.31126191557381,0,161.202226228528,0,36.0605628287029,0,18.8185850083192,0,105.541809579452
-7.350092,6.733084,CIV,"Duekoué - Côte d’Ivoire",TRUE,284.596,3302.72447034709,26.4823462879371,939942173.3629,7536769.82416175,,,,0,12,202.805641010113,284.596,10605.6432307866,10617.1027555816,3.80951641609787,208.183481012371,284.596,11009.6748392261,11012.5703735237,3.76702589219381,0,76.8511235064369,0,45.0939047688715,284.596,7521.05122679158,7536.76982416175,4.55830814232281,0,12.0082794726928,0,114.078173948122,0,35.8205407422563,0,66.0506179540926
-6.841593,34.020894,MAR,"Rabat - Morocco",TRUE,1891.455,7891.94605770258,67.9275739994679,14927260830.5718,128481949.479164,,,,0,8,360.00694737352,1891.455,160010.435856453,169141.399582535,2.97890481912762,377.023873228366,1891.455,170923.803900195,182622.54017769,2.92052114280573,0,384.699237542464,0,63.6321916275112,0,859.630081457735,0,42.5678525914907,1891.455,126870.681308789,128481.949479164,3.50394199547218,0,493.785134562218,0,56.1653589297019
-6.5227799,32.8590393,MAR,"Randburg - South Africa",FALSE,178.623,9675.0688844993,45.6605596927238,1728189829.35592,8156026.1539934,,,,0,8,244.888168023304,178.623,8714.21221218782,14778.6933863619,3.51378423548854,242.291508466587,178.623,8582.51172406428,17092.6573841571,3.52987403480256,178.623,6967.08770941682,8156.0261539934,5.52889525593885,0,373.884281670935,0,23.8668661585117,0,233.456717430187,0,30.203746326802,0,160.134591499588,0,36.4687958183119
-6.4903197,9.5225697,CIV,"Kikuyu - Kenya",FALSE,92.792,3289.988,40.8585933304043,305284566.496,3791350.59231487,,,,0,12,266.326290694768,92.792,5103.49087453146,5980.41649566674,3.38965325527736,276.545590674616,92.792,5385.52863746286,6261.70927258888,3.33539270392784,92.792,3515.7028820842,3791.35059231488,4.45130488550335,0,173.879744717742,0,20.0156144759882,0,12.8068687130037,0,73.7516848785806,0,9.44077511975211,0,85.8992948743798
-5.666994,11.316457,MLI,"Sikasso - Mali",TRUE,315.73,2285.3071,34.5993127669643,721540010.683,10924041.0199136,,,,0,9,248.74625404237,315.73,15750.8796172882,16885.2888529711,3.49032306322123,256.560181194506,315.73,16462.447004552,17876.7637993962,3.44436171604844,0,398.449639614074,0,23.0710035107488,315.73,10375.8989496584,10924.0410199136,4.52106069652341,0,56.7586964930365,0,61.1275512049909,0,18.8948345516149,0,105.945290974303
-6.36073,32.339077,MAR,"Béni Mellal - Morocco",TRUE,559.315,9578.10692231839,51.2521768542167,5357178873.25651,28666111.2972162,,,,0,8,323.716577992067,559.315,40652.3811319726,41323.7874603651,3.1176937976786,330.121816251608,559.315,41806.3363237981,42430.9241245308,3.09162366126864,0,231.599959481325,0,41.8464507032681,559.315,28440.6590952848,28666.1112972162,3.77622653270823,0,178.925190130747,0,47.6093359618942,0,76.5518759741369,0,72.7863512470577
-6.9510198,6.7373199,CIV,"",FALSE,0,3289.988,26.0983083598812,0,0,,,,0,12,117.622099491051,1e-06,1.71127943333461e-05,35.3194084735082,5.34787535455763,134.67309433945,1e-06,2.07639214063044e-05,25.4715712471645,4.64646043934767,1e-06,0.349281615971071,2.60983083598812e-05,39.6791429770843,0,14.948358046738,0,6.06531477952036,0,0.0411620147893622,0,115.585129089474,0,0.149568915619385,0,60.6358555692088
-6.59448,6.48704,CIV,"",FALSE,0,3289.988,30.2351215412896,0,0,,,,0,12,81.0191472850362,1e-06,1.00469309607499e-05,106.294165283668,6.55720490686993,82.7835365089593,1e-06,1.0360949848538e-05,108.990931350166,5.80780256804555,1e-06,2.0824682062057,3.02351215412896e-05,42.0163034719411,0,52.0714215955816,0,8.40247647731655,0,0.328820664465608,0,105.737124505396,0,1.45760787432926,0,50.2211531097796
-6.450154,6.883246,CIV,"Daloa - Côte d’Ivoire",TRUE,466.205,3289.988,31.5809428623859,1533808855.54,14723193.4671586,,,,0,12,230.720508655885,466.205,20887.8607124241,21061.3467315564,3.60468405055818,236.545309826528,466.205,21645.2564407925,21816.2986226345,3.56637143748992,0,192.390252210303,0,37.9774303447494,466.205,14572.8324430638,14723.1934671586,4.36360189818653,0,20.9161881288526,0,115.179672253746,0,72.9576304986763,0,61.6711074968956
-5.51861,33.8304405,MAR,"Ibadan - Nigeria",FALSE,713.763,5725.32862494757,52.8535171786926,4086527735.32846,37724884.9820151,,,,0,8,318.887908844045,713.763,50776.1101218959,54989.829036306,3.13783929082358,331.043248215347,713.763,53563.5031659226,56830.0665486036,3.08793274555194,0,141.339549341899,0,61.9191611636069,713.763,37105.5013603189,37724.8849820152,3.8215343112151,0,511.088106943734,0,32.5618467333868,0,126.940862498019,0,65.3365491676109
-6.633194,4.750108,CIV,"San-Pédro - Côte d’Ivoire",TRUE,390.654,3573.43717303907,31.4114659961222,1395977525.39641,12271014.8372491,CISPY,San-Pdro,AI,2312.50202864,12,795.676960102797,390.654,102608.082453841,107890.045787563,2.12053539889013,799.708733131163,390.654,103351.638440033,109445.09528022,2.11594701459807,0,38.3802302885305,0,112.992378908947,0,73.373683663077,0,81.7208318644207,0,15.1276348294154,0,179.977172367139,390.654,97452.8703651413,97833.5898969291,2.24236147043514
-6.600167,5.783308,CIV,"Soubré - Côte d’Ivoire",TRUE,310.768,3216.67761193904,26.8544558285881,999640468.107073,8345505.52893867,,,,0,12,173.83331245579,310.768,9291.92953662241,12933.3202829044,4.06969095894638,175.563624044629,310.768,9424.34014552791,13597.7032220295,4.0524523563585,0,99.5833296469886,0,47.3540769255199,310.768,7898.57656224003,8345.50552893867,5.31711778124888,0,18.0996238509299,0,111.074897836845,0,182.297084887517,0,34.9994189909369
-4.034,5.317569,CIV,"Abidjan - Côte d’Ivoire",TRUE,9022.419,3473.84868051719,53.7001420652593,31342518338.2232,484505182.072294,CIABJ,Abidjan,AI,3248.84543344,12,333.136495767811,9022.419,683201.194652483,685579.380871215,3.07960224713448,336.813706018963,9022.419,693999.87565508,696488.765135543,3.0651476190409,0,495.983997616401,0,114.861536237102,0,427.537117433569,0,123.714766700114,0,205.182257263687,0,178.58235723953,9022.419,604175.346389404,604712.463109575,3.29099295793241
-5.93669,6.13259,CIV,"Gagnoa - Côte d’Ivoire",TRUE,277.044,3292.32142843847,37.4502145097444,912117897.820308,10375357.2286376,,,,0,12,249.530361414588,277.044,13883.2245879797,14965.2651610957,3.48561836976068,255.941009529733,277.044,14395.5473435346,15649.4199550804,3.4479303604218,0,131.896191599586,0,37.5570506918487,277.044,10023.0592354064,10375.3572286376,4.30831510500764,0,18.137861583676,0,101.277871837035,0,85.3581663079879,0,46.6858284491367
-5.900032,35.008948,MAR,"Ksar El Kebir - Morocco",TRUE,481.749,7708.3994,48.126429375983,3713513702.5506,23184859.2254504,,,,0,8,275.03818302202,481.749,27742.62537239,36567.598782161,3.34321490965495,295.359007882189,481.749,30716.5313763623,39568.3727300246,3.24262637175655,0,181.129335886255,0,47.9265986423009,481.749,22393.2039928152,23184.8592254504,4.31035348353885,0,356.678712944283,0,34.1532793271981,0,286.626446872661,0,38.0989384837752
-5.667584,32.939324,MAR,"Khénifra - Morocco",TRUE,381.704,5810.59514758978,38.7930319415803,2217927410.21561,14807455.4642289,,,,0,8,262.717502539748,381.704,20588.2382195143,22227.9399430597,3.40953045159467,264.010648992105,381.704,20733.1611994303,24935.3295661441,3.40236319317621,0,230.36470046705,0,35.3981252946555,381.704,14151.7814995262,14807.455464229,4.51629883364717,0,245.590296587753,0,34.2833005559991,0,65.5920749547062,0,66.3380258373981
-5.759602,10.555472,MLI,"Kadiolo - Mali",TRUE,317.492,2328.09481993824,27.1998768923998,739151480.571833,8635743.31432181,,,,0,9,216.227860688928,317.492,12965.8342893176,13263.2730204937,3.70631230768915,227.498792024731,317.492,13942.0098746364,14397.665063649,3.62647372932933,0,320.634616088438,0,24.3010682495212,317.492,8360.47406980423,8635.7433143218,4.75899355535983,0,42.6868718099245,0,66.6014070185023,0,16.9319946476479,0,105.749058148898
-5.6370897,9.4510393,CIV,"Nneyi-Umuleri - Nigeria",FALSE,286.071,3289.988,35.5292803371237,941170157.148,10163896.7553213,,,,0,12,253.71262406017,286.071,14680.0601982576,15339.8763891571,3.46087660480392,261.342521046264,286.071,15314.7775289358,16053.3759740611,3.41720676957171,0,338.917917328006,0,23.5183680278775,286.071,9796.26124713029,10163.8967553213,4.37445816320262,0,26.949770190099,0,83.4020861508404,0,17.0140867086476,0,104.966357357139
-5.30024,6.8373399,CIV,"Arzew - Algeria",FALSE,37.253,3289.988,41.8178867554655,122561922.964,1557841.73530136,,,,0,12,185.767295628877,37.253,1224.68814618801,2708.75345155998,3.95551503082124,193.855927891711,37.253,1301.57178135182,2863.54530914798,3.8839198080378,37.253,1196.59782187693,1557.84173530136,6.00825255483643,0,172.079066016093,0,15.8437603204116,0,6.23861757656879,0,83.2104945547552,0,10.9204848928989,0,62.8928570244027
-5.7609501,12.9448795,MLI,"Béni Mellal - Morocco",FALSE,89.799,2275.85166218126,32.5280080868355,204369203.412215,2920982.59818974,,,,0,9,227.316196589636,89.799,3938.81820732035,4468.61240659762,3.62772189146526,238.416781814176,89.799,4216.44622851365,4658.46654035193,3.55434676811298,89.799,2754.95753637202,2920.98259818974,4.62193497880694,0,87.1917385705377,0,25.9802674594239,0,18.2870484573226,0,56.7295683465947,0,4.62801866857991,0,112.767443979416
-5.0414901,6.5430398,CIV,"Chipata - Zambia",FALSE,39.005,3289.988,39.0763581540411,128325981.94,1524173.34979837,,,,0,12,166.048591039818,39.005,1092.35663983131,2476.74722908515,4.15039151611581,183.269059995371,39.005,1257.7212309546,2583.16768531002,3.97853408424484,39.005,1155.78886748416,1524.17334979837,5.94785166296303,0,104.213428850205,0,19.8078591883116,0,7.69412244495512,0,72.8987089880587,0,14.7890373031001,0,52.5810714152205
-4.6909499,5.9060397,CIV,"",FALSE,0,3289.988,32.1998889870533,0,0,,,,0,12,37.7876323410705,1e-06,3.37937427654027e-06,1117.16533183852,10.5269022666877,33.6502796353187,1e-06,2.86346581729781e-06,1483.47145803288,9.00189547338434,1e-06,197.310915568078,3.21998889870533e-05,24.6830036383674,0,106.88543784001,0,33.5362341255213,0,15.3817241375337,0,88.403824654101,0,104.216002629328,0,33.9630244421292
-5.803895,35.77671,MAR,"Tangier - Morocco",TRUE,1007.037,7897.3692983517,60.3686019577755,7952943086.1042,60793415.8097524,MAPTM,Tanger Med,AI,29213.26830742,8,2335.65535283886,1007.037,1231792.47580957,1241692.75720929,1.3366406955439,2350.79163605099,1007.037,1243212.10313867,1254379.12300577,1.3329454447469,0,347.899544877287,0,80.0386681293288,0,374.823399401569,0,77.110485222893,0,194.833793693961,0,106.953411058626,1007.037,1140666.65721939,1141684.34318429,1.39780764052692
-5.003295,34.043295,MAR,"Fès - Morocco",TRUE,1380.105,4852.60936283408,54.7499901257426,6697110444.69412,75560735.122488,,,,0,8,320.180063947791,1380.105,98747.5732621824,103670.393569233,3.1324058387155,333.101124939121,1380.105,104489.313967491,111111.004844547,3.07974239102933,0,306.806207464807,0,58.6085338782905,0,821.967499648255,0,35.8068078344554,1380.105,74199.9188456495,75560.735122488,3.76869692544712,0,217.582957212403,0,69.5953929078475
-4.31988,35.1186104,MAR,"Niangoloko - Burkina Faso",FALSE,87.889,5072.45692357448,40.7110698682004,445813166.556038,3578055.21964627,,,,0,8,174.256968642525,87.889,2637.02562975889,6971.73891532388,4.06544760265453,176.721145432624,87.889,2690.45850254273,9153.89677546038,4.04105520303729,87.889,2695.93694806887,3578.05521964626,7.44634104389761,0,296.923106152523,0,22.4375684617775,0,126.608208741218,0,34.361084021692,0,233.17589248146,0,25.3195489506738
-5.466706,12.38318,MLI,"Koutiala - Mali",TRUE,173.39,2285.3071,34.2337289247921,396249398.069,5935786.2582697,,,,0,9,248.833089481655,173.39,8654.25236888374,9116.06068904898,3.48980100480323,258.888500150218,173.39,9158.14668357217,9549.22255589088,3.43105161169812,173.39,5774.62787573969,5935.7862582697,4.4121397216298,0,174.600593610863,0,25.3739687546836,0,31.4534104942985,0,59.782956326349,0,8.45161098976137,0,115.329792287623
-4.88414,13.22997,MLI,"Techiman - Ghana",FALSE,62.939,2285.3071,27.7750123769379,143834943.5669,1748131.5039921,,,,0,9,216.227817674616,62.939,2570.32118107912,2692.07624342453,3.70631263727422,223.146717065801,62.939,2688.61571849141,2825.01354596541,3.65661845995457,62.939,1748.13149529591,1748.13150399209,4.64839329190129,0,39.0012835215348,0,31.120779410638,0,11.3309521560226,0,57.7373321728325,0,2.98925185829994,0,112.410961658779
-5.1606898,9.9698601,CIV,"",FALSE,0,3219.81194498956,23.6325528252283,0,0,,,,0,12,91.2407286984652,1e-06,1.19055439458571e-05,148.807257067912,6.1350157149795,95.3074821927018,1e-06,1.26707956673675e-05,108.930859301641,5.44062248219567,1e-06,27.596276228421,2.36325528252283e-05,10.8093308974961,0,15.0895094828533,0,14.6179507180088,0,0.645200585430029,0,70.693045904191,0,0.246029266590266,0,114.480283738392
-5.31213,8.7883997,CIV,"",FALSE,0,3289.988,26.5663110545579,0,0,,,,0,12,87.1027390635348,1e-06,1.11417555025489e-05,153.140399459234,6.2954113789104,77.5386481326802,1e-06,9.43607439864094e-06,159.604904244286,5.98812659216957,1e-06,18.699155627357,2.65663110545579e-05,17.4945626466968,0,43.1249778558753,0,11.5199248085048,0,0.955850658648443,0,77.3782806967393,0,0.584604276885159,0,98.9425517954894
-5.199932,9.583411,CIV,"Ferkessédougou - Côte d’Ivoire",TRUE,160.267,3267.52578171889,28.1654532445121,523676554.458741,4513992.69513822,,,,0,12,217.930539862516,160.267,6618.78288286655,7303.63516643975,3.69387426009493,226.383226696336,160.267,6988.54751503396,7675.1784053956,3.6341217356936,160.267,4188.964540941,4513.99269513822,4.91915343109109,0,226.22943885355,0,21.1674796888349,0,24.1378686132731,0,64.8028716925345,0,8.59620778412494,0,108.590106579681
-4.93154,12.8220196,MLI,"Siliana - Tunisia",FALSE,24.889,2270.88540033439,28.0674148072147,56520066.7289225,698569.887136766,,,,0,9,225.696476851556,24.889,1080.60086541355,1091.0704681559,3.63885676899142,233.840337575043,24.889,1136.73090485063,1155.11255742316,3.58399380751345,24.889,698.569746972425,698.569887136767,4.60865836739217,0,19.8547186012133,0,27.3367912169121,0,4.14782593447991,0,59.8093585494788,0,1.13207944165518,0,114.482988416958
-4.805582,12.183353,MLI,"Kouri - Mali",TRUE,137.964,2215.83852651061,27.169998873553,305705946.47151,3748481.72459086,,,,0,9,214.199498271921,137.964,5558.8637021992,5925.50151025516,3.7213133576935,216.846363699444,137.964,5657.25284415574,6463.52678374995,3.70177801689252,137.964,3452.8408169637,3748.48172459087,5.06473666724005,0,197.689230746618,0,21.1667237964437,0,24.9356416897032,0,59.5984375788491,0,6.66374700361668,0,115.288476283391
-4.8452396,10.9798899,BFA,"Tiko - Cameroon",FALSE,33.422,1561.522,23.9344297130372,52189188.284,799936.50986913,,,,0,13,151.709679120181,33.422,822.707227336644,1461.82793727155,4.31418193310062,167.929739831616,33.422,951.186717983272,1516.64664974501,4.13040191628609,33.422,537.106518295942,799.936509869129,6.94071651819424,0,144.48942775491,0,13.3818600283323,0,5.50893547698479,0,68.5331474324805,0,1.96308541913198,0,114.806089252402
-5.016623,7.683365,CIV,"Bouaké - Côte d’Ivoire",TRUE,659.233,3289.988,40.2539059826232,2168868659.204,26536703.2026426,,,,0,12,266.528807609523,659.233,36296.7166011528,37032.0657345607,3.38854919558319,271.741960767207,659.233,37315.1564512999,38252.2518514394,3.36053495555302,0,360.859914185675,0,34.5993228911915,659.233,26190.4902148482,26536.7032026426,4.06130033327041,0,57.2493051911073,0,86.8663974105168,0,51.6159875238055,0,91.4839273300578
-3.2846298,9.6600199,CIV,"",FALSE,0,3217.02361233922,19.5825015048918,0,0,,,,0,12,61.838063107264,1e-06,6.82993507485532e-06,130.182761282391,7.67764843041135,54.1008537362151,1e-06,5.64268088730064e-06,163.749180084162,7.10674922914438,1e-06,46.2982871519451,1.95825015048918e-05,13.3652810084642,0,9.43058146823936,0,29.6136079589345,0,4.15023455727403,0,44.6400054335937,0,0.781508609710164,0,102.871170871697
-4.758877,10.630955,BFA,"Banfora - Burkina Faso",TRUE,126.236,1561.522,24.6889188876878,197120291.192,3116630.36470615,,,,0,13,205.213263199337,126.236,4784.24531607405,5285.13875291307,3.79029708741888,206.441495829747,126.236,4825.20405835808,5661.42853507231,3.78061608504267,126.236,2727.02080897143,3116.63036470616,5.44730091007889,0,267.40186032009,0,17.39575892154,0,18.0047314959437,0,67.0397318563578,0,5.88525849425534,0,117.258091762661
-4.1257401,6.7047696,CIV,"Cidade de Nacala - Mozambique",FALSE,74.281,3289.988,36.3507584903294,244383598.628,2700170.69142016,,,,0,12,254.839104978064,74.281,3836.01509102272,3975.73437301042,3.45431188859357,251.730116893912,74.281,3769.33506558552,4316.55558035428,3.4725316669669,74.281,2624.59735136431,2700.17069142016,4.45331627891749,0,50.3711616523127,0,32.1457749962832,0,11.1992894039919,0,68.1741372686231,0,16.2076819140511,0,56.6701590963971
-3.98735,7.06142,CIV,"Ilesa - Nigeria",FALSE,101.136,3289.988,30.9159129234854,332736226.368,3126711.76942962,,,,0,12,216.99186900535,101.136,4151.08619817688,4900.73842290096,3.70071399890601,214.702978755152,101.136,4088.6752948041,5254.7446426819,3.71757090849399,101.136,2942.75577490784,3126.71176942962,4.96772971385083,0,84.219424863334,0,29.3649275407784,0,22.1691854004773,0,57.2348042527101,0,18.9826985720584,0,61.852334200531
-4.016502,34.216732,MAR,"Taza - Morocco",TRUE,215.147,4756.2676,43.2527353559962,1023296705.3372,9305696.25363651,,,,0,8,260.546482140853,215.147,11467.7836844605,13542.1940331458,3.42167736278003,291.138990237106,215.147,13438.7318686444,16271.5717894961,3.26268703552509,0,232.303916447579,0,27.306240112516,215.147,8781.85558086231,9305.69625363651,4.4411661920812,0,88.267825902284,0,44.2984933823931,0,84.8591153655954,0,45.179448030021
-4.1851397,14.0335598,MLI,"Rubengera - Rwanda",FALSE,35.513,2285.3071,26.5762081399309,81158111.0423,943800.879673367,,,,0,9,203.935582075906,35.513,1333.95964626236,1389.45844541316,3.80045609813067,207.820391964251,35.513,1370.40852947454,1440.66106760877,3.76984512643855,35.513,943.800880412694,943.800879673366,4.65762189038493,0,11.1926671222234,0,42.7698400571019,0,6.69737587127318,0,55.2906994541003,0,1.69318801641522,0,109.964329380596
-3.4726,12.4589195,BFA,"Al Marj - Libya",FALSE,63.617,1561.522,23.9784948796488,99339345.074,1525439.90875862,,,,0,13,180.230663116679,63.617,2002.92732983936,2458.08442165543,4.00714183978916,189.32097138185,63.617,2148.7892672359,2617.86340500624,3.92352228436207,63.617,1369.39008613879,1525.43990875862,5.42482864677672,0,74.905859122856,0,23.1948581094263,0,14.0295721969475,0,53.5953857910567,0,3.09536582154194,0,114.102096852009
-4.283237,11.183756,BFA,"Bobo-Dioulasso - Burkina Faso",TRUE,903.887,1563.71297280047,35.5323045529694,1413419827.8457,32117188.1654698,,,,0,13,250.212845133553,903.887,45472.6558384393,46998.4197503335,3.48154058052776,257.099642997544,903.887,47271.1156160861,48766.0441720589,3.44126250025347,0,785.680380123324,0,27.1115040751625,903.887,31333.9632974604,32117.1881654699,4.29307920058185,0,101.8990530294,0,75.282059548557,0,32.3969822230992,0,133.513225260062
-3.4547899,10.1577702,BFA,"",FALSE,0,1561.522,18.5995770061625,0,0,,,,0,13,95.7411009949859,1e-06,1.27532303161075e-05,30.548094263559,5.97441428156898,82.8863103878525,1e-06,1.03793302840322e-05,114.378592774143,5.80444514859216,1e-06,35.9233445169883,1.85995770061625e-05,10.3572557722006,0,9.66505065671821,0,19.9678367758735,0,1.12497177375461,0,58.5278110252114,0,0.282673865777904,0,116.75897648908
-3.932213,35.247186,MAR,"Al Hoceïma - Morocco",TRUE,157.146,5081.60594467335,48.3370623895879,798554047.781638,7595976.00627419,,,,0,8,274.283310957123,157.146,9014.15276021504,12291.7118142473,3.34715513109436,325.140690857382,157.146,11493.6047369225,13874.7215514782,3.11183411393891,157.146,7008.60625830609,7595.97600627418,4.37837287363073,0,358.109496107928,0,19.3696002071772,0,47.2421638351271,0,53.3290300943248,0,68.5006856649768,0,44.2874950174362
-3.8383498,11.7186594,BFA,"",FALSE,0,1561.522,21.1535394343159,0,0,,,,0,13,87.3867948639756,1e-06,1.11936989336197e-05,130.425989074718,6.28397494063597,81.7818026968408,1e-06,1.01823094460503e-05,113.88853735078,5.84085732746712,1e-06,25.9733923943159,2.11535394343159e-05,12.2307267822279,0,16.2242227349231,0,15.4751423951654,0,1.06497867491579,0,60.4012823119485,0,0.265780599200553,0,120.907987040417
-3.516123,11.495237,BFA,"Houndé - Burkina Faso",TRUE,102.324,1561.522,23.1279888600729,159781177.128,2366548.3321181,,,,0,13,193.676292999719,102.324,3570.33697073986,4103.88307744943,3.88546326513724,200.335603200189,102.324,3746.99425311369,4249.3711344653,3.82957571416884,102.324,2190.13995036127,2366.5483321181,5.33429535253825,0,136.237311594208,0,21.3877431369808,0,21.7690596194528,0,53.504850909809,0,4.20439901985791,0,121.747774310898
-3.2551699,10.9504795,BFA,"Abū Za‘bal - Egypt",FALSE,25.688,1559.68196236009,20.0266158993534,40065110.249106,514443.709222591,,,,0,13,148.510559122641,25.688,613.366955367101,933.413018004993,4.35376813098108,148.515305758429,25.688,613.394961547737,967.205887547689,4.35370845369636,25.688,411.525118033618,514.44370922259,6.67452915211616,0,51.708614811287,0,18.8294379618005,0,6.09483846011679,0,54.845084640617,0,1.33219864801001,0,117.309806818614
-4.031478,6.172398,CIV,"Adzopé - Côte d’Ivoire",TRUE,156.488,3289.988,28.5378806552521,514843642.144,4465835.86797909,,,,0,12,200.747313227194,156.488,5747.25249195052,6208.83559159418,3.82620773313602,212.833790969827,156.488,6247.88323813752,6753.20659794938,3.7315284422154,156.488,4289.71317790821,4465.83586797909,4.68195943562569,0,37.5204053974506,0,50.0619789809298,0,20.0972222876513,0,68.4027806677273,0,36.8887538059175,0,50.488769076686
-4.183454,14.484661,MLI,"Mopti - Mali",TRUE,175.604,2287.68401478936,27.9093141499409,401726463.733071,4900987.20198623,,,,0,9,212.825673769684,175.604,7010.71974544113,7017.13287203655,3.73158944110325,216.970005086132,175.604,7206.55767598365,7210.62358007767,3.70087380839151,175.604,4899.17512155283,4900.98720198622,4.48982286359862,0,41.1269643596973,0,49.0035295699618,0,33.6831783341209,0,54.1482165571239,0,7.31448819707924,0,116.19801746433
-3.5236499,14.0762997,MLI,"Kamsar - Guinea",FALSE,105,2285.3071,24.7752788915821,239957245.5,2601404.28361612,,,,0,9,198.945149443458,105,3806.91954286128,3816.83349242058,3.8410237895968,202.479705654757,105,3903.90841869853,3910.90957700509,3.81214331383851,105,2603.21635134855,2601.40428361612,4.67253942717911,0,24.2897476329682,0,48.3722853182259,0,20.4683197869108,0,52.6947089884746,0,4.25549645041434,0,115.566774433972
-0.04122,16.2347698,MLI,"Catabola - Angola",FALSE,49.483,2285.3071,23.3834754351307,113083851.2293,1157084.51495657,,,,0,9,182.994270454966,49.483,1592.16909042534,1704.2034167976,3.98109341559672,190.87537683732,49.483,1691.02404026796,1765.03896364472,3.90979681035667,49.483,1128.52388939658,1157.08451495657,4.88962955452064,0,10.4992477407493,0,50.693496388854,0,13.2866531707,0,45.0633566812095,0,2.35167354066759,0,107.113157893333
-3.7660499,6.5562596,CIV,"",FALSE,0,3330.13071312614,26.749789223801,0,0,,,,0,12,58.6522274521006,1e-06,6.3328665328376e-06,114.28557166968,7.92762815349526,66.7129763672993,1e-06,7.61192227359367e-06,87.9548509372318,6.42791867095505,1e-06,32.1831199675368,2.6749789223801e-05,10.6264008844225,0,2.47500111615737,0,38.3188595717432,0,1.13201611697731,0,56.6596613543405,0,1.14111926231728,0,56.4332109140721
-3.199681,5.466835,CIV,"Aboisso - Côte d’Ivoire",TRUE,115.831,3283.31415970208,30.802133925745,380309562.432452,3567841.97475296,,,,0,12,94.1377339823398,115.831,1442.00543769421,5926.52330751301,5.29321687961381,103.210349759627,115.831,1644.56828958202,6664.81827203375,5.08855161158103,115.831,3211.41834700285,3567.84197475297,7.33060633225567,0,49.6032496751026,0,58.9838715730082,0,34.1846443975107,0,71.0514273432943,0,145.908031889786,0,34.3913116906073
-2.884658,34.416684,MAR,"Taourirt - Morocco",TRUE,321.876,5909.4069394727,41.5215982796711,1902096268.04972,13364805.9678674,,,,0,8,263.831706084345,321.876,17466.5347969041,17606.8503946765,3.40335199250882,293.313744629014,321.876,20320.2381828389,21673.8729006423,3.25229742957621,0,330.473845967875,0,26.3384352230918,321.876,13064.5657697029,13364.8059678674,4.18900643211562,0,41.069148572875,0,74.7137728407827,0,69.4338580713119,0,57.4609588214251
-3.3598599,7.0014696,CIV,"",FALSE,0,3315.53558628181,33.597304142047,0,0,,,,0,12,54.0112837865777,1e-06,5.62933979129745e-06,381.369231305996,8.34041607031807,48.6270507812446,1e-06,4.84512762843716e-06,512.412181724115,7.48560337604235,1e-06,114.806295569785,3.3597304142047e-05,15.8144350834198,0,17.7570024453406,0,40.2116328241109,0,28.9124736429623,0,31.5133019217945,0,5.43270004854658,0,72.6990394920049
-2.933289,35.166696,MAR,"Nador - Morocco",TRUE,398.424,7606.25038889618,51.3612061101847,3030512704.94557,20463537.1832442,,,,0,8,298.976971252736,398.424,25849.3982653995,26623.4300464136,3.22575093402759,327.475582512466,398.424,29440.0026959051,29864.4381136895,3.10230583177677,0,227.426458771772,0,35.5501378284611,398.424,20311.2971869809,20463.5371832442,3.76177618718889,0,40.2533451618275,0,84.5007950010553,0,78.6836133643905,0,60.4393292045296
-3.483656,6.733739,CIV,"Abengourou - Côte d’Ivoire",TRUE,164.424,3393.50643563291,31.3151713379485,557973902.172505,5148965.73207084,,,,0,12,220.261349514219,164.424,6894.44837516834,7224.26469425574,3.67707105145989,235.718946523454,164.424,7595.90988144215,8165.56977933481,3.57172437242789,164.424,4915.7775566591,5148.96573207084,4.60336141541479,0,71.7494189180201,0,38.10324740582,0,42.6589111007277,0,49.4158536404947,0,27.5525702136843,0,61.4879658671296
-2.416466,13.583359,BFA,"Ouahigouya - Burkina Faso",TRUE,124.58,1563.41905949248,24.9678181813964,194770746.431573,3110490.78903837,,,,0,13,203.777815986018,124.58,4674.37455528586,4797.76201681141,3.80171679760159,208.46166687997,124.58,4828.61426671351,4948.45807782084,3.76487064988539,124.58,3098.61716787192,3110.49078903836,4.75774373291279,0,40.6342492282025,0,41.5469251646405,0,36.2477772849687,0,43.9890231015478,0,5.22095498999887,0,115.907098456665
-3.0625598,11.1466293,BFA,"Hohoe - Ghana",FALSE,25.922,1561.522,20.2432159885365,40477773.284,524744.644854843,,,,0,13,193.337929515359,25.922,902.226016434721,918.700004868165,3.88837613533079,199.958895530695,25.922,946.686747364499,963.147364845707,3.83266604664302,25.922,506.703755726349,524.744644854843,5.28409099000533,0,27.9420625401035,0,22.5018445440397,0,5.08658323647144,0,52.7392894527382,0,0.966610853051479,0,120.982212647668
-2.7472,11.7775002,BFA,"Sébékoro - Mali",FALSE,40.627,1561.522,21.1605772475616,63439954.294,859690.771836685,,,,0,13,192.974206489697,40.627,1410.24090947856,1479.46420833997,3.89151539125644,194.343592116824,40.627,1424.55885729906,1508.649550006,3.87974000768657,40.627,800.989453378847,859.690771836685,5.32455610723324,0,35.3356745538843,0,25.3507092471342,0,10.801287833206,0,45.8520796994694,0,1.71261205578054,0,115.150893631337
-3.03983,6.1229501,GHA,"",FALSE,0,3802.82235998441,26.9757504642009,0,0,,,,0,14,48.2635899186362,1e-06,4.79347531767986e-06,185.164011622065,8.95404747672168,42.9540468189071,1e-06,4.05828541059034e-06,226.415411809016,7.95797492733402,1e-06,57.2922178627775,2.69757504642009e-05,15.8200459580737,0,5.89476077687842,0,49.319931845576,0,5.72198460596793,0,50.0590055484827,0,7.06477406785312,0,45.0512059907481
-2.75492,6.4242897,GHA,"",FALSE,0,3953.2102,29.0369393929079,0,0,,,,0,14,57.2440480954558,1e-06,6.11678120805477e-06,135.027079796795,8.0462975847751,45.228875611479,1e-06,4.36877127920465e-06,382.835518788067,7.75710764141488,1e-06,70.1598253569484,2.90369393929079e-05,18.1201454661485,0,10.0485109806994,0,47.8801028844438,0,31.2229002116028,0,27.1624731045492,0,5.91633941472545,0,62.3992530067792
-2.366508,12.250045,BFA,"Koudougou - Burkina Faso",TRUE,252.816,1560.77676867213,26.6972220059627,394589339.548613,6749484.87865947,,,,0,13,207.465932587792,252.816,9732.13560597963,11278.0513196123,3.77260414112724,217.270456407509,252.816,10395.7674879245,12053.7517346729,3.69867962602746,0,359.512718646908,0,21.4166089349602,252.816,6067.81254612418,6749.48487865947,5.2130484143716,0,96.2593001495111,0,41.3891479899914,0,9.74320770545653,0,130.093876941036
-2.883702,7.283584,GHA,"Domaa-Ahenkro - Ghana",TRUE,1000,3838.14915389001,37.1443756204362,3838149153.89001,37144375.6204362,,,,0,14,247.445543580651,1000,49514.9369524883,50958.0105347401,3.49817431280986,256.450617228931,1000,52109.0953048888,54307.691214369,3.4449922997441,0,397.158043532844,0,40.2844319674699,0,165.890538066458,0,62.3315774196556,1000,36380.8801444602,37144.3756204362,4.20903294168029,0,90.1304510817424,0,84.5635396454814
-2.800007,8.033291,CIV,"Bondoukou - Côte d’Ivoire",TRUE,141.568,3415.9826182662,35.1347520530404,483593827.30271,4973956.57864482,,,,0,12,263.573887454425,141.568,7671.43619883765,7825.15543435843,3.40477832790291,269.473950433389,141.568,7917.92793473833,8078.63396392358,3.37262753318143,141.568,4884.29206528582,4973.95657864482,4.33747049744592,0,59.0718755992637,0,39.4409136444444,0,78.5600563349846,0,34.2008148799322,0,11.8630432967812,0,88.011473027701
-3.0037599,9.2666302,CIV,"Birkat as Sab‘ - Egypt",FALSE,94.883,3281.84616266209,23.3886063445532,311391409.451867,2219181.13579024,,,,0,12,202.363703842389,94.883,3524.87065486628,3604.97456927592,3.81307970664465,208.393672201547,94.883,3675.870446504,3771.90584068669,3.76539705949521,94.883,2167.18223676064,2219.18113579024,4.96756414943754,0,36.4115873440017,0,38.3240497084667,0,40.7146932387234,0,36.2422888503486,0,5.99187598575968,0,94.4734540205666
-2.500115,10.066876,GHA,"Wa - Ghana",TRUE,107.214,3936.48868750266,37.1891567694194,422046698.141911,3987198.25387653,,,,0,14,237.473908741277,107.214,5005.73790491976,6195.81183814775,3.56038804526952,236.641285242099,107.214,4980.68395563733,6471.65915570295,3.56575146973203,107.214,3761.50222660543,3987.19825387653,4.67711691496211,0,56.8830415571016,0,38.0336042448465,0,76.3103494901602,0,32.8372793030745,0,8.05351668805189,0,101.080203482632
-2.7890699,11.0427799,BFA,"",FALSE,0,2197.95807905528,23.1288106598402,0,0,,,,0,13,99.7138888244019,1e-06,1.35158955379194e-05,88.7006959858992,5.84317357741115,90.2416841108483,1e-06,1.17197528086263e-05,99.6473525941115,5.57969762869397,1e-06,37.9690331001332,2.31288106598402e-05,9.03917457818706,0,4.49986280168015,0,26.2569279192307,0,1.46775386656828,0,45.9744918277433,0,0.237805825547909,0,114.21741574885
-2.75752,5.2915597,GHA,"Kolda - Senegal",FALSE,27.938,3680.15963132643,31.4353166300399,102816299.779998,878239.876010055,,,,0,14,198.631166003525,27.938,1010.64763782797,1231.55473951204,3.84362477537666,173.154000237947,27.938,830.683674819584,1359.25460897244,4.07652591595465,27.938,738.104054130885,878.239876010055,5.53199551021793,0,7.32291571980106,0,55.539069391699,0,7.13184196385249,0,56.2781432934588,0,18.6914444309036,0,34.763154898684
-2.49212,9.0273695,GHA,"Mesra - Algeria",FALSE,10.555,3903.89231157778,29.1246396378985,41205583.3487034,307410.571378019,,,,0,14,102.372491265388,10.555,148.124955504001,599.983105947957,5.10635879822936,116.760959982024,10.555,178.739365255051,606.176320450922,4.82651572725673,10.555,234.326146572558,307.410571378019,7.76287929111986,0,8.35167579220956,0,41.1193648046217,0,26.2492284605461,0,23.1939618301882,0,1.68897652587778,0,91.4368817856208
-1.911082,34.686468,MAR,"Oujda-Angad - Morocco",TRUE,619.82,7265.94785567517,64.1855171619656,4503579799.90458,39783467.2473295,,,,0,8,345.355037611219,619.82,49412.76831062,49413.5543716724,3.03242616743131,371.191515268712,619.82,54777.1630193909,57781.9170627304,2.94010019183148,0,412.712888734701,0,34.7883705922056,619.82,39353.046941894,39783.4672473295,3.56261524417786,0,57.4857393399516,0,93.213334293842,0,198.962298998396,0,50.1040357442808
-2.63341,7.4203897,GHA,"Béchar - Algeria",FALSE,96.471,3953.2102,36.4293790503192,381370141.2042,3514378.62636334,,,,0,14,235.992448717754,96.471,4464.06824137879,6380.14680450409,3.56994974914812,245.563183579672,96.471,4724.92939035875,6783.24247196349,3.50964146893802,96.471,3068.60993834265,3514.37862636334,5.21807815977331,0,112.394411915793,0,27.2652236335623,0,172.236855041529,0,22.0251249226195,0,10.4968226770255,0,89.2180022026815
-2.42713,6.64852,GHA,"",FALSE,0,3953.2102,30.0019266172557,0,0,,,,0,14,53.1139189816319,1e-06,5.49620545826327e-06,755.826985421084,8.4279748094152,53.9136494796762,1e-06,5.61480833788862e-06,866.36570776301,7.11868824121772,1e-06,92.5336586268026,3.00019266172557e-05,21.7821494550866,0,28.0661510476921,0,39.5511551052443,0,123.776434099475,0,18.8335251769215,0,11.5016875494805,0,61.7831175067349
-1.9408599,7.58079,GHA,"Nnewi - Nigeria",FALSE,104.212,3953.2102,38.4258396252504,411971941.3624,4004433.5990266,,,,0,14,198.66429902063,104.212,3770.73198438801,7017.9207224454,3.84335000183527,213.577123637033,104.212,4181.50548368469,7551.81956432225,3.7259569582055,104.212,3447.25412268683,4004.43359902659,5.51476468933307,0,116.122323943776,0,30.047322397598,0,176.139127476014,0,24.3969600938336,0,17.140723668618,0,78.2076182238539
-2.3793299,11.9639797,BFA,"Gīnīr - Ethiopia",FALSE,8.983,1555.86958355345,20.7091832742223,13976376.4690606,186030.593352339,,,,0,13,106.676329466156,8.983,133.702983276129,378.795204265826,5.01702679176683,111.665901081778,8.983,142.725583549527,428.055644047273,4.91969512464192,8.983,117.8437988031,186.030593352339,9.37637430768029,0,37.9076676926133,0,16.5319761995482,0,7.96993018283349,0,36.0546303281348,0,0.729128979490675,0,119.202711132037
-2.3323998,7.3266597,GHA,"Matola - Mozambique",FALSE,225.038,3934.99061586051,37.6600902235125,885522418.212017,8474951.38371881,,,,0,14,252.292030842036,225.038,11455.8212069146,14122.6085671732,3.46921492102503,256.757235852407,225.038,11746.5610363674,15093.4820812087,3.44322855620739,0,380.668979879651,0,21.6813754032139,225.038,7518.3260604177,8474.95138371881,4.87865373429171,0,129.070401558167,0,37.2346471561225,0,27.8319168745905,0,80.1842394453878
-1.527486,12.368619,BFA,"Ouagadougou - Burkina Faso",TRUE,2497.171,1561.522,38.4954008979503,3899387454.262,96129598.7557355,,,,0,13,251.691468877854,2497.171,126689.325943466,129421.190936574,3.47276017675603,256.731294811605,2497.171,130328.824050826,133342.581596656,3.44337765823959,0,813.107668324696,0,44.0955799036001,0,370.078387002804,0,65.3615323867332,2497.171,95147.0223469203,96129.5987557354,4.07635018916409,0,80.0928540373861,0,140.498666433311
-0.85435,10.77911,GHA,"Calabar - Nigeria",FALSE,93.991,3844.83852701892,32.5092252880077,361380217.993035,3055574.59404513,,,,0,14,211.081748371838,93.991,3708.59756859341,4962.69025310127,3.74477117213334,216.254925705927,93.991,3839.1192554171,5180.39426115802,3.70611350387995,93.991,2809.03191474982,3055.57459404513,5.032940381253,0,40.1790566506369,0,42.082376260663,0,100.125025243236,0,26.6580761094438,0,6.91537581460944,0,101.436026959004
-2.02933,8.1420498,GHA,"",FALSE,0,3909.39329504001,30.4736731110018,0,0,,,,0,14,149.56027236535,1e-06,2.41190367878601e-05,19.6974377135968,4.72150058960648,101.550120491061,1e-06,1.38728584085908e-05,45.2269227827302,5.28403437214302,1e-06,14.5972897957434,3.04736731110018e-05,9.30096542855895,0,1.0745197697192,0,34.2812743884295,0,2.06446807982798,0,24.7320474040658,0,0.185795797832643,0,82.4415702184726
-0.852935,9.408997,GHA,"Tamale - Ghana",TRUE,1146.388,3953.2102,39.9885546755501,4531912734.7576,45842399.2173945,,,,0,14,262.93981214595,1146.388,61908.2999849202,63753.5294491735,3.40829471731902,272.230674659859,1146.388,65056.8080781322,67380.7890800121,3.35794809980532,0,630.705110145012,0,34.7079410284059,0,170.091242889518,0,66.8345531115116,1146.388,45043.3877246385,45842.3992173945,4.10701701856161,0,84.4207464460497,0,94.8674947459586
-2.0349898,7.0902801,GHA,"El Wak - Kenya",FALSE,45.153,3953.2102,34.7409805927437,178499300.1606,1568659.49670415,,,,0,14,138.036418840044,45.153,971.180716819514,3235.31527235405,4.49239862193085,142.222105359749,45.153,1013.52276398304,3542.49636564383,4.43525145226188,45.153,1166.39225241417,1568.65949670416,7.72948645010041,0,107.180778292651,0,25.4984922166629,0,128.551471289312,0,23.2827581930037,0,13.509444394132,0,71.8214568308416
-1.89963,5.9580197,GHA,"",FALSE,0,3910.51913372888,33.3768235924992,0,0,,,,0,14,41.1648880537393,1e-06,3.81897364970549e-06,377.312099452204,9.93537510188105,48.0231976521265,1e-06,4.75940398617126e-06,1647.72620543197,7.53158814405368,1e-06,169.105804417249,3.33768235924992e-05,23.5098484793576,0,96.6512766019394,0,31.0974866578124,0,92.2159672982307,0,31.836551876378,0,66.4888983273614,0,37.4933735714023
-1.625058,6.70004,GHA,"Kumasi - Ghana",TRUE,6898.949,3953.2102,55.7015155157662,27272995556.0798,384281914.76598,,,,0,14,311.619531415656,6898.949,474879.58354823,480738.459277569,3.16899932192169,316.614555608118,6898.949,485791.048155237,491878.63865879,3.14747539307202,0,1154.58384633192,0,64.9648718630046,0,711.894914190271,0,82.7338776133133,6898.949,382756.388435844,384281.91476598,3.56804317287781,0,484.307494129922,0,100.306881836489
-2.26566,12.9614601,BFA,"Zomba - Malawi",FALSE,78.833,1627.34871682273,19.3775853082574,128288781.393286,1527593.18260586,,,,0,13,144.320307456783,78.833,1806.92927420263,2856.87225906369,4.40750067206493,148.542232355285,78.833,1882.91381160273,3160.29658255222,4.35337019615562,78.833,1313.92723248649,1527.59318260586,6.7515558305932,0,76.2992066435854,0,28.0175083164521,0,83.8635083588472,0,26.7240950165896,0,4.30868482952341,0,117.900910287835
-1.083295,13.083043,BFA,"Kaya - Burkina Faso",TRUE,141.824,1561.522,20.6131088024861,221461296.128,2923433.54280379,,,,0,13,182.543707027284,141.824,4547.29815273628,4696.30947766302,3.98530171744745,187.451825857341,141.824,4722.96347036022,4848.77426867965,3.94024166275262,141.824,2847.31445254804,2923.43354280379,5.14187039313914,0,33.6508929991994,0,47.2977569729509,0,62.4000278855586,0,34.7333322129752,0,6.61827030811504,0,106.651407801838
-2.0190399,12.1964092,BFA,"Sakouéba - Mali",FALSE,41.911,1578.17761345313,20.6985723020877,66143001.9574339,867497.863752799,,,,0,13,122.069377058067,41.911,756.265666632047,1865.08966278426,4.73541897395071,131.389541101472,41.911,840.084655791889,2064.44502876816,4.58842679602949,41.911,824.493250415792,867.497863752798,7.26059005269478,0,55.8037188645076,0,27.9083331129745,0,58.6051590582898,0,27.2331290842136,0,2.54908207966593,0,130.579067050559
-1.9836799,4.92097,GHA,"Bocaranga - Central African Republic",FALSE,27.719,3953.2102,37.6841551729159,109579033.5338,1044567.09723805,,,,0,14,116.192040442882,27.719,466.132231654888,1906.71176476103,4.83662978695894,178.72497614076,27.719,862.312460616644,2059.29505303063,4.02157511761053,27.719,770.098717344093,1044.56709723806,6.57630993626378,0,19.4921187801452,0,41.3357621293494,0,18.8133555360136,0,42.0748273462083,0,78.7901084851267,0,20.5598349613209
-0.78598,32.4087105,DZA,"",FALSE,0,13888.5151898265,38.4111599953153,0,0,,,,0,10,56.5488795925524,1e-06,6.0109410705581e-06,126.713668666756,8.10689495494726,44.2411643024059,1e-06,4.23311814022821e-06,170.622802506428,7.84227346015772,1e-06,25.531762597144,3.84111599953153e-05,20.2730979107109,0,26.4230120783726,0,19.9282588172338,0,1.48714676229321,0,84.0008357994108,0,2.72102091733018,0,62.1004261066255
-0.29448,27.9394188,DZA,"Cuango - Angola",FALSE,77.757,13747.3943974488,41.9438900722357,1068956146.16242,3261431.06034683,,,,0,10,262.160816413205,77.757,4181.34432929419,4302.50296128127,3.41263142703984,278.767699386103,77.757,4564.80893405578,4595.58893165355,3.32397220355992,77.757,3259.81895225966,3261.43106034683,3.94667377988997,0,27.2626631720971,0,43.1562631262364,0,9.03880264872247,0,74.9501523182432,0,6.09163020711618,0,91.2979879194718
-1.735029,8.052471,GHA,"Kintampo - Ghana",TRUE,111,3953.2102,31.8375771190788,438806332.2,3533971.06021775,,,,0,14,238.694328012813,111,5220.59339846197,6081.66903597753,3.55257494906369,251.036548781981,111,5610.45697533085,6487.10169454534,3.47664012671979,111,3308.26747901788,3533.97106021775,4.86838351875875,0,57.2907118095809,0,36.9949958272881,0,140.81118276365,0,23.5975284517396,0,12.8848954250094,0,78.0089878723419
-1.704435,4.940486,GHA,"Sekondi - Ghana",TRUE,345.041,3953.2102,55.5145875968161,1364019600.6182,19154808.818993,GHTKD,Takoradi,AI,343.8114,14,467.242793952653,345.041,42362.6006301805,44194.9217951843,2.66396639890211,481.128577360566,345.041,44172.4978060565,47710.7595265112,2.63074006690047,0,260.836918406307,0,35.5796420181798,0,253.282882772493,0,36.1063164563966,0,101.786195091118,0,56.9562863108721,345.041,31072.4184058906,31875.830618993,3.25985720245534
-1.66741,7.6862698,GHA,"",FALSE,0,3953.2102,34.7148244506919,0,0,,,,0,14,158.153760396642,1e-06,2.61229236780336e-05,35.8234828472453,4.58959998113679,145.862336157558,1e-06,2.32716397401703e-05,43.2288345055465,4.48216362150154,1e-06,17.637261562955,3.47148244506919e-05,7.01711962636557,0,0.697734393106889,0,35.2800687442627,0,1.31014858335611,0,25.7462630578069,0,0.156236526942058,0,74.5561102384829
-1.2003399,5.16293,GHA,"Lubango - Angola",FALSE,242.548,3953.2102,47.126908309488,958843227.5896,11430537.3566497,,,,0,14,220.087971553101,242.548,10158.8245152198,20091.7390020243,3.6783122001927,232.338439065754,242.548,10976.1556663291,21876.0022108421,3.5939046245715,0,109.10259935133,0,50.8900617839709,242.548,10037.5405621284,11430.5373566497,5.30562890036816,0,236.855140518289,0,34.5389491155965,0,478.845464857232,0,24.291416340748
-0.983493,7.750098,GHA,"Atebubu - Ghana",TRUE,105.938,3953.2102,32.7029046576606,418795182.1676,3464480.31362325,,,,0,14,187.644921716603,105.938,3533.0956763073,5784.31595312309,3.93850342808343,173.921210307912,105.938,3169.82303863598,6505.08786919121,4.06880935414822,105.938,3023.82258774872,3464.48031362325,5.96782076706752,0,60.2065000673555,0,42.2933644129743,0,167.518826160004,0,25.3549123996777,0,24.6277814490985,0,66.1273744868363
-0.47613,6.2894998,GHA,"Benguela - Angola",FALSE,186.596,3915.11583355947,41.0997756355816,730544954.078863,7669053.73449698,,,,0,14,188.985376842313,186.596,6286.69257294719,12140.7037583863,3.92650674503605,192.332377666622,186.596,6446.35082238664,13232.2496415863,3.89707562289041,186.596,7255.76558519487,7669.05373449698,5.26276593027785,0,77.8466761734436,0,50.8084140966397,0,99.7484906625119,0,44.8851323321958,0,121.886923966103,0,40.6047758934808
-1.26867,12.4855795,BFA,"Kuvango - Angola",FALSE,33.296,1548.55313505811,24.8504324087384,51560625.1848949,827419.997481354,,,,0,13,101.33081108503,33.296,460.486281380653,1471.34055665101,5.12879014221775,104.473881011593,33.296,481.025859241499,1531.23930241015,5.06208470384581,33.296,586.996825049201,827.419997481354,8.17585283044397,0,17.751320636972,0,47.0149098930828,0,77.9257328466163,0,22.4393614506042,0,3.46796996143151,0,106.368560091748
-0.433167,12.249994,BFA,"Pouytenga - Burkina Faso",TRUE,181.256,1596.38093961074,25.259614458178,289353623.590084,4578456.67823152,,,,0,13,213.809709571694,181.256,7284.2124408727,7306.03930492953,3.72421935354156,218.832918253043,181.256,7529.9149758249,7554.8185821661,3.687338529593,181.256,4559.82765256884,4578.45667823151,4.74625226377991,0,54.071672107621,0,43.5853092367007,0,79.6582147788777,0,35.9095321481903,0,9.69372092085949,0,102.938959928402
-0.199998,5.549954,GHA,"Accra - Ghana",TRUE,3048.022,3953.2102,68.5172293751128,12049471660.2244,208842022.51439,GHTEM,Tema,QQ,7407.89336449,14,619.612098061651,3048.022,560067.539193182,564548.583837246,2.36045444868429,626.489372975363,3048.022,568969.145863674,573895.36035047,2.34931434131478,0,634.234136857871,0,70.6696076007454,0,482.076744414222,0,81.0586555102913,0,260.391710116654,0,110.291974006752,3048.022,482027.366910665,482934.07700052,2.56343103991621
1.65764,13.7969694,NER,"",FALSE,0,908.340884736449,18.21835659222,0,0,,,,0,15,59.5906175727184,1e-06,6.47810548569705e-06,203.119652328683,7.85143666205075,51.4844735336231,1e-06,5.25692074569741e-06,205.151827212392,7.27981331103572,1e-06,38.0683858375932,1.821835659222e-05,16.8995719526052,0,3.11742377709343,0,59.0554546798422,0,30.3265297540467,0,18.9341833093268,0,0.775435500250336,0,118.409106660202
0.05265,8.85392,GHA,"Chinde - Mozambique",FALSE,8.6,3953.2102,29.5972745903776,33997607.72,254536.561477247,,,,0,14,124.962742245438,8.6,160.464452711562,478.497257926912,4.68811451309664,126.35504346532,8.6,163.024611594294,555.456718238083,4.66590509764203,8.6,254.536561644745,254.536561477247,6.89264523093814,0,9.16445716147847,0,36.3251688552104,0,7.61050133513659,0,39.8615683091809,0,3.34132124731591,0,60.1591789156186
-0.233454,11.049927,GHA,"Bawku - Ghana",TRUE,100.737,3443.348943435,35.8736219329596,346872642.514812,3613801.05266056,,,,0,14,266.691706620917,100.737,5551.32293258735,5643.62581977823,3.38766200197773,274.913255093961,100.737,5797.40815400676,5882.20739689933,3.34386593117545,100.737,3613.80104675208,3613.80105266055,4.26615767980714,0,47.1858677433289,0,37.3347330417397,0,49.829755941188,0,36.330773415549,0,7.03541058011488,0,96.6883837077916
-0.82513,9.98067,GHA,"Aioun - Mauritania",FALSE,12.666,3608.44598300667,29.1684758976839,45704576.8207625,369447.915720064,,,,0,14,105.179199725087,12.666,184.752499130953,695.128412836333,5.04750866016001,113.353497749054,12.666,205.601428101836,726.992392454943,4.88817026002229,12.666,226.699940540142,369.447915720064,8.75357695033204,0,9.32822530638133,0,43.1530747161165,0,55.1680653397558,0,17.7446476601337,0,2.02920946529687,0,92.5225985574456
-0.01374,9.4424696,GHA,"Luuq - Somalia",FALSE,52.008,3953.2102,30.0437969546538,205598556.0816,1562517.79201763,,,,0,14,171.084877450673,52.008,1520.02971556992,2734.75218070558,4.09758281692745,184.057911867198,52.008,1687.32612947354,2919.32098598191,3.97121730429232,52.008,1511.8698263346,1562.51779201763,5.51832630063895,0,32.4874761735067,0,37.64493835511,0,44.7283011734964,0,32.082882107535,0,7.61909143293933,0,77.7343525063288
-0.22433,9.9239798,GHA,"Diallassagou - Mali",FALSE,10,3953.2102,25.3205514237845,39532102,253205.514237845,,,,0,14,199.864274839519,10,364.95905063736,453.735246487431,3.83344366922934,206.00621628924,10,381.085942396401,483.401977817085,3.7840375684736,10,253.205517561618,253.205514237845,5.22845129923589,0,4.63712626957499,0,38.6353804455,0,8.85181923179242,0,27.9636195282129,0,0.893728429054899,0,88.0049041513833
-0.23763,32.7311096,DZA,"",FALSE,0,13822.566,39.9593271920494,0,0,,,,0,10,77.5209529394311,1e-06,9.43299823693187e-06,102.969795437299,6.72413320402922,71.3540963494887,1e-06,8.37955406157316e-06,169.986617025088,6.22667221262945,1e-06,29.7882085644308,3.99593271920494e-05,14.8744588677071,0,32.0268686778676,0,14.3451841755966,0,0.611584182849578,0,103.809059892671,0,1.29679021535648,0,71.2899833769812
0.062,34.1462479,DZA,"Magu - Tanzania",FALSE,18.568,13822.566,39.034247987274,256657405.488,724787.916627704,,,,0,10,269.213754405071,18.568,1037.0799220354,1179.56155473365,3.37402418165125,190.204766992454,18.568,631.357438264398,1415.9694765382,3.91569867631688,18.568,543.127979010026,724.787916627704,6.32244589787859,0,96.6248818180493,0,14.989657929146,0,2.05728332808994,0,102.728077461238,0,9.36448537808397,0,48.1497740539491
-0.633443,35.696881,DZA,"Oran - Algeria",TRUE,725.418,13680.5691624158,63.5150657543658,9924131120.66136,46074971.9694005,DZORN,Oran,AI,255.6159,10,385.545419188497,725.418,67680.1906535367,69404.5728391771,2.89267965969011,401.476456576568,725.418,71710.4318085048,76141.9937869049,2.84291655501456,0,352.840045979398,0,41.7625780069223,0,295.778764668812,0,45.6134308715289,0,33.6346610386774,0,135.264149865168,725.418,54829.3091687132,55532.7602694005,3.35019316206079
-0.34739,35.5365906,DZA,"Kouribga - Morocco",FALSE,90.859,13775.9879587745,55.3395627750259,1251672489.94629,5028097.33417608,,,,0,10,256.384980116501,90.859,4732.84925732276,7965.84786156758,3.44537025790117,292.288826361829,90.859,5707.37535388166,8748.87798882619,3.25718008519247,90.859,4610.79567874266,5028.09733417608,4.48673078909587,0,190.878063078587,0,22.0515916237819,0,7.70034605760582,0,109.790011399265,0,81.7538689587586,0,33.6948706603455
0.05872,6.15661,GHA,"Zagora - Morocco",FALSE,34.381,3953.2102,38.8969776080709,135915319.8862,1337316.98714309,,,,0,14,277.385914437025,34.381,2004.09676953808,2154.70583142205,3.33105852533836,269.650803022273,34.381,1924.73965322942,2302.3231371002,3.37167937460377,34.381,1273.94988924801,1337.31698714309,4.53266095875785,0,11.9078662522574,0,46.882680611454,0,8.47779573358705,0,55.5632877452687,0,35.1370557392236,0,27.292714041931
0.36174,12.0579901,BFA,"Mazabuka - Zambia",FALSE,73.2,1564.24563399205,22.6391773750371,114502780.408218,1657187.78385272,,,,0,13,170.866366087704,73.2,2135.50253881841,2878.42945719295,4.09982778064769,178.628043805976,73.2,2275.42017806532,3020.97971525112,4.02251024260724,73.2,1530.75780193289,1657.18778385272,5.65090260527183,0,38.1255257671711,0,35.8066047926771,0,56.7743573329123,0,29.3423538472367,0,4.53296726178327,0,103.843609090721
0.3068,35.7280197,DZA,"Kassala - Sudan",FALSE,468.678,13822.566,55.9459393267844,6478332587.748,26220630.9517987,,,,0,10,327.759739911639,468.678,34674.0874910942,35832.4426626594,3.10115286053873,337.737962680413,468.678,36191.8801364187,37154.3487018456,3.06154990025375,0,325.893636217886,0,32.6894963049286,468.678,25886.1271123218,26220.6309517987,3.6678589736883,0,18.2885649854225,0,137.992776872631,0,90.8958823108364,0,61.8976361946179
0.17407,26.7181301,DZA,"Asamankese - Ghana",FALSE,20.402,13754.6295522982,35.5508752420232,280621952.125989,725308.956687758,,,,0,10,218.682289852927,20.402,846.72664250894,971.302701960958,3.68842686440294,244.730387194607,20.402,994.405760881558,1037.14630381591,3.51475494205741,20.402,721.446460884495,725.308956687757,4.21417928420307,0,6.75265284255283,0,43.5589951720055,0,2.35452105575294,0,73.7672811984963,0,1.46886870083391,0,93.394989899435
1.0877,26.958849,DZA,"Kherrata - Algeria",FALSE,18.598,13747.3415581596,37.6662944731761,255673058.298652,700517.744612129,,,,0,10,242.248762452261,18.598,893.37501604227,952.797649421067,3.5301410106075,248.693355086738,18.598,927.519933476972,1009.28283919133,3.49064123112817,18.598,700.517743631966,700.517744612129,4.18988485436945,0,7.2841369559829,0,41.0887197251686,0,2.10096011213366,0,76.5072795983598,0,1.3306394217767,0,96.1349870213367
2.101906,34.108919,DZA,"Aflou - Algeria",TRUE,114.592,13822.566,42.5694418617965,1583955483.072,4878117.48182698,,,,0,10,279.587892763753,114.592,6755.54102416237,7235.16254280987,3.31978964049244,285.978169260426,114.592,6977.19530062581,7588.70927726699,3.2877920542064,114.592,4651.76226683172,4878.11748182698,4.19932554038541,0,164.385387588409,0,22.3386382032624,0,5.19678535476796,0,125.637970050998,0,14.5041912492571,0,75.204103960277
3.666624,32.483817,DZA,"Ghardaïa - Algeria",TRUE,210.733,13822.566,54.3332823474776,2912870800.878,11449815.588931,,,,0,10,320.302486286412,210.733,15086.3447363744,15672.7232619785,3.13189268564077,331.11189168608,210.733,15818.8943521152,16357.806127699,3.08765837360551,0,192.891107819838,0,28.4338499691282,210.733,11185.6970458448,11449.815588931,3.73387904046379,0,12.9059105045646,0,109.925246231462,0,21.6613865697104,0,84.8493745056008
0.20933,10.8734493,TGO,"Al Manāqil - Sudan",FALSE,58.071,1468.95664149522,31.2532292472104,85303781.1282692,1814906.27561475,,,,0,16,234.777029974435,58.071,2667.40999773226,2984.11413190507,3.57785862874853,239.283192900398,58.071,2740.8477028878,3193.84264198958,3.54882542565384,58.071,1682.16548195076,1814.90627561476,4.88997945855383,0,66.9796951671113,0,24.5058522297497,0,26.5077915034156,0,38.9542297219133,0,4.6967451437205,0,92.5428558924711
0.05048,5.7687697,GHA,"Ténès - Algeria",FALSE,37.402,3953.2102,53.4407004820401,147857967.9004,1998789.07942926,,,,0,14,146.077955080769,37.402,872.244544631514,3647.58649637934,4.38469396505432,145.940234443753,37.402,871.070007365851,4021.05747135258,4.3864667887919,37.402,1491.25319111029,1998.78907942926,7.20293163148072,0,29.5174603309,0,51.1971153741646,0,21.5794030125914,0,59.877722505943,0,216.581261796799,0,18.9005545152473
0.77777,18.9019699,MLI,"",FALSE,0,2285.3071,12.4608224567388,0,0,,,,0,9,35.7088445216107,1e-06,3.11695653089964e-06,121.30739099193,10.9454105965898,43.3842794507969,1e-06,4.1164787355616e-06,53.2207238359815,7.91868412602771,1e-06,20.5062108625641,1.24608224567388e-05,12.7570627937797,0,1.22936276176669,0,52.1018790753719,0,1.1911599367924,0,52.9307898548325,0,0.321155758036442,0,101.937873785754
1.4786099,14.2064199,NER,"Namakgale - South Africa",FALSE,19.262,902.661251353596,18.3109624941318,17387061.023573,352705.759561966,,,,0,15,99.4509120812968,19.262,259.362868065358,490.388793240191,5.17011731967931,112.381075102345,19.262,308.846493077965,504.600976659071,4.90625287761523,19.262,246.193560126689,352.705759561967,7.02401817980496,0,4.60777145768558,0,51.3426770581324,0,13.0854377829858,0,30.4670106636175,0,1.01771125837921,0,109.247545807198
0.46922,10.3394394,TGO,"Hamma Bouziane - Algeria",FALSE,34.791,1791.52743346508,23.7423490738048,62329030.9376835,826020.066626741,,,,0,16,181.167902884344,34.791,1103.51155683905,1434.89194637515,3.99824430122902,187.044841897246,34.791,1155.00345797268,1559.33391299804,3.94391371131579,34.791,721.719112160949,826.020066626743,5.79712764537964,0,51.0689955612166,0,21.7930647267246,0,13.7042743860812,0,42.0696544496031,0,3.15199525127393,0,87.7211248571607
1.14132,9.47579,TGO,"Cacongo - Angola",FALSE,33.327,1373.44357100469,23.4389778775196,45772753.8908734,781150.815724097,,,,0,16,162.561740023254,33.327,905.468727395336,1392.92534420319,4.18831318494971,172.034131365992,33.327,981.772804880355,1491.25657029937,4.08787759751385,33.327,724.616299259706,781.150815724096,5.86435184202666,0,40.8754813454231,0,24.6912245302585,0,9.65420437986738,0,50.806096102335,0,4.82935004237523,0,71.8339466604399
0.59562,6.0068398,GHA,"",FALSE,0,3953.2102,37.1738924725988,0,0,,,,0,14,98.0006424843581,1e-06,1.31853709813053e-05,349.336251586512,5.89863914281962,101.485931258801,1e-06,1.38603330313096e-05,454.23352299483,5.2855701028857,1e-06,72.1335561362178,3.71738924725988e-05,13.2636409345211,0,6.15263743716956,0,45.4151516219005,0,3.06985848185782,0,64.2942676836919,0,73.7375156462905,0,13.1185905492384
0.50771,7.5739598,GHA,"Kayanza - Burundi",FALSE,11.503,3218.33666164992,33.5632575458883,37020526.618959,386078.151550353,,,,0,14,128.331637328312,11.503,222.944140442737,717.906633620725,4.63496907902417,161.571000315724,11.503,309.810122283055,822.538386290879,4.19930067932548,11.503,386.078151628865,386.078151550353,6.1293926925641,0,12.7887957283018,0,33.6775302881683,0,5.27792450486121,0,52.4231936608489,0,9.97007493238333,0,38.1422097240232
0.470198,6.611847,GHA,"Ho - Ghana",TRUE,183.715,3893.07070546691,38.4335396256206,715215484.654853,7060817.73232089,,,,0,14,257.517466863779,183.715,9630.16621754932,11564.5232676839,3.43886847725437,286.441891063421,183.715,11211.8276361977,12937.252932583,3.28550987549197,183.715,6724.34909116404,7060.81773232089,4.55720626336371,0,81.0014339442373,0,41.5219229336154,0,38.4485555852023,0,60.267586124874,0,273.543397081994,0,22.594914041139
0.14396,34.7495003,DZA,"Meknès - Morocco",FALSE,128.413,13832.7356266939,48.9472390691589,1776303080.03064,6285461.8105879,,,,0,10,305.573765729778,128.413,8595.16874831503,9696.34350970086,3.19571978517135,294.890857016187,128.413,8169.13702910994,10374.2679602342,3.24483157130997,128.413,5821.48756169204,6285.4618105879,4.33165543023316,0,273.506407513824,0,19.984217010263,0,9.08748788986215,0,109.634936110306,0,36.0348307088759,0,55.0566327985717
1.316772,35.366641,DZA,"Tiaret - Algeria",TRUE,273.948,13822.566,52.0993930151733,3786664310.568,14272524.5177207,,,,0,10,317.520813088012,273.948,19369.0367674807,20474.2349101134,3.1436222134274,326.64272167484,273.948,20168.8240485557,21403.795395024,3.10569342472654,0,338.404568851885,0,24.6993696084077,273.948,13855.468384494,14272.5245177207,3.8600539273879,0,12.2152832764197,0,130.002650577149,0,44.8939370517003,0,67.8125587184638
0.83412,11.1550198,BFA,"Missour - Morocco",FALSE,13.579,1539.16365357952,21.9358482617815,20900303.2519562,297866.88354673,,,,0,13,142.795366527436,13.579,306.556420956203,603.726283586821,4.42761179413266,160.789615349218,13.579,363.198906560864,643.059705349472,4.20803452347331,13.579,274.098682072253,297.866883546731,6.44542364963182,0,24.3091246111546,0,21.6431407238236,0,7.49796457853826,0,38.9702554291137,0,1.28601595690275,0,94.0982984681776
1.064238,10.697912,BEN,"Matéri - Benin",TRUE,260.509,1341.27023884108,22.6149908758556,349412968.65025,5891408.65807827,,,,0,17,196.257510043191,260.509,9263.35822664586,10454.9829115412,3.86347937150733,205.277327773161,260.509,9877.49010833203,11208.0904423094,3.78979007470253,0,470.057143898663,0,18.5057051686505,260.509,5208.22262571689,5891.40865807827,5.55950592527663,0,61.8161081176783,0,51.0305369711947,0,17.2817241733463,0,96.5133595437659
1.331625,36.164677,DZA,"Chlef - Algeria",TRUE,575.939,13822.566,54.0496792570843,7960954839.474,31129318.2216458,,,,0,10,323.211580711737,575.939,41767.3959242828,42039.5657814345,3.11978052179922,328.102555917858,575.939,42673.2325511581,43118.5691481704,3.09976377857512,0,310.115309848397,0,36.5509918081191,575.939,30987.7444984982,31129.3182216459,3.65650175544266,0,20.0739759256116,0,143.662715215668,0,90.7496336934981,0,67.5675745175936
