lon,lat,iso3c,city_country,city_port,population,gdp_cap,IWI,gdp,wealth,port_locode,port_name,port_status,outflows,ctry,uj_orig,Lj_orig,Cj_orig,Dj_orig,PCj_orig,uj,Lj,Cj,Dj,PCj,Lj_1,Dj_1,Yj_1,Pj_1,Lj_2,Dj_2,Yj_2,Pj_2,Lj_3,Dj_3,Yj_3,Pj_3,Lj_4,Dj_4,Yj_4,Pj_4
-17.446713,14.692814,SEN,"Dakar - Senegal",TRUE,3223.755,2287.6685,70.2606002240275,7374882765.2175,226502961.27521,SNDKR,Dakar,AI,2417.263262,1,721.715994806156,3223.755,736583.705275781,751126.092487221,2.21107917325514,738.491543999133,3223.755,761163.758956481,775322.656071392,2.18941199655271,0,582.185390281716,0,265.017737169386,0,908.56222822317,0,196.975717639629,0,193.736852612704,0,551.875333415255,3223.755,315063.659787696,315941.70196921,3.99071090410282
-17.044529,14.7029696,SEN,"Yaoundé - Cameroon",FALSE,505.227,2302.16270413245,52.2935947198641,1163114756.52073,26420135.9795328,,,,0,1,510.998132833601,505.227,70491.4762553799,130062.112191009,2.56370002321648,542.104516652642,505.227,76700.6513742644,140513.149196745,2.49958877290507,0,837.829612261514,0,76.0167689523065,505.227,24657.2277547662,26420.1359795328,7.97474942149307,0,80.3314084874121,0,362.874365204074,0,763.630471171944,0,80.8644636619873
-16.6384888,15.1122198,SEN,"Dzolokpuita - Ghana",FALSE,74.508,2361.8791047779,42.0766985704881,175978888.338792,3135050.65708993,,,,0,1,492.018869622996,74.508,9848.51474408422,16930.1485037226,2.60562520107522,514.924243493675,74.508,10509.9722423479,18355.2795770115,2.55530483433177,74.508,2496.14010218918,3135.05065708993,9.66282425381034,0,269.96360238819,0,42.5676729599491,0,14.2832154825443,0,302.041111961385,0,60.4355517311168,0,115.457387152995
-16.4633198,14.7565098,SEN,"Gusau - Nigeria",FALSE,113.325,2297.65604456748,38.0772661124075,260381871.25061,4315106.18218858,,,,0,1,469.0753632026,113.325,13991.5627641386,25045.3269557089,2.65950097450233,527.817150192313,113.325,16560.2722983864,27159.7572368327,2.52836512789761,113.325,3169.56015720516,4315.10618218858,10.5874420992003,0,518.806219965552,0,35.3823709591352,0,20.5951610008904,0,304.051338834571,0,96.9194230517442,0,108.272085186332
-16.4205399,14.3423595,SEN,"Chipinge - Zimbabwe",FALSE,18.416,2269.64499576379,37.4244716433748,41797782.2419859,689209.069784391,,,,0,1,204.477766849059,18.416,694.381119181863,6394.85237894453,3.79613398639988,271.470799106631,18.416,1040.93168679039,6247.72199367646,3.36197313685928,18.416,408.714750171019,689.20906978439,20.707539365976,0,191.523490994788,0,34.3236925928486,0,7.1401510467571,0,307.56513561237,0,36.162759740853,0,104.287996920222
-17.033333,20.933297,MRT,"Nouadhibou - Mauritania",TRUE,118,5196.45446473013,38.9206658183864,613181626.838156,4592638.5665696,MRNDB,Nouadhibou,AI,197.0295,2,794.718245620552,118,30940.2134273598,32264.4933347158,2.12163149561397,838.200054989954,118,33386.6306311591,34748.2637303168,2.07374398798028,0,63.3423031579916,0,138.967948299097,0,43.6937226123272,0,178.004581844718,0,15.2867824497188,0,358.508801925025,118,11607.3934881438,11882.7300665696,4.30745492172541
-16.8981705,21.2914486,MRT,"",FALSE,0,5538.53368337853,18.6296720206833,0,0,,,,0,2,104.437417135531,1e-06,1.44397535752754e-05,1982.05105299909,6.20442185167115,112.56738200856,1e-06,1.60719653047286e-05,2071.88959966654,5.62208636661663,1e-06,22.1991719738149,1.86296720206833e-05,115.677990631155,0,14.352112495957,0,154.714624188936,0,4.50008009207142,0,335.218844342088,0,200.897650845583,0,26.637411150649
-15.978542,18.085588,MRT,"Nouakchott - Mauritania",TRUE,1440.712,3726.39485774327,41.8651880562521,5368661788.28902,60315678.8148991,MRNKC,Nouakchott,AI,334.524,2,538.104337227182,1440.712,216418.621568649,227519.126067126,2.50753611972217,571.416202844344,1440.712,235809.025858811,251002.292984876,2.4438094522057,0,751.654171748856,0,117.627017327911,0,333.442021130753,0,202.226894677292,0,172.149916448076,0,314.230200138664,1440.712,71424.6666046367,72693.0668148991,5.64876687325174
-15.67383,23.8871498,ESH,"",FALSE,0,7041.16211331411,31.3978211479454,0,0,,,,0,3,141.294144154094,1e-06,2.22374791507103e-05,3262.6062041615,5.25242125635938,170.947675559629,1e-06,2.91933663848785e-05,3310.14153202899,4.53923650096572,1e-06,215.530985400982,3.13978211479454e-05,28.0462010656178,0,58.2644526578373,0,67.0828346114653,0,6.21185937296253,0,298.354626159351,0,32.5419650939992,0,98.9125359048321
-16.2439098,15.6356897,SEN,"Banikoara - Benin",FALSE,93.802,2287.6183979327,43.5760615586268,214583180.962884,4087521.72632231,,,,0,1,526.283948528531,93.802,13650.5146494969,19634.4762554685,2.53151916240318,595.48574786584,93.802,16285.2212934024,21861.7929842862,2.40097614808107,93.802,3683.72465075563,4087.52172632231,7.87022092837107,0,207.798332283138,0,53.5077873236182,0,15.7395305718274,0,298.893988568149,0,68.3342408263971,0,112.310264008182
-16.577537,13.453171,GMB,"Banjul - Gambia, The",TRUE,976.753,1827.81084253539,39.6195599018914,1785319723.87897,38698523.9928521,GMBJL,Banjul,AI,184.275,4,556.922031189011,976.753,154108.923451231,164095.175554349,2.47086689881325,607.029223124997,976.753,174292.248733725,188712.461009292,2.3813011385484,0,935.783055043497,0,81.8900721882939,0,433.449864717378,0,136.790348922273,0,99.7523530963665,0,364.249758386062,976.753,44256.3038435346,45516.6989928521,6.26178201777904
-16.2409897,12.7924099,SEN,"Quelimane - Mozambique",FALSE,91.883,2295.74090262069,36.7829540931087,210939561.355497,3379728.1709371,,,,0,1,423.233720148497,91.883,9794.27491281605,19087.3699102161,2.77933678140601,467.402906625351,91.883,11286.509275042,21157.1802217479,2.66357526152355,91.883,2592.4063676872,3379.72817093711,10.7969587776601,0,69.8298941492906,0,120.155200883973,0,15.7661594911526,0,324.0556162526,0,388.2445223834,0,38.2854072868167
-16.076402,14.138908,SEN,"Kaolack - Senegal",TRUE,187.932,2278.7640345833,45.3761239685572,428252682.54731,8527625.72965889,,,,0,1,580.370283039928,187.932,31450.7191654791,38329.3697163764,2.42757903020465,623.372770882998,187.932,34831.9059955792,48351.3766865219,2.35434099188406,187.932,8204.26985067369,8527.62572965889,7.6815460058581,0,352.809750024991,0,62.5818227185579,0,34.9605018564149,0,292.251548867963,0,208.120669294967,0,88.9744101882337
-15.6096001,13.5730095,GMB,"Bria - Central African Republic",FALSE,70.315,1877.21348753621,26.69126049904,131996266.376109,1876795.98199,,,,0,4,325.861647574346,70.315,5159.11354497147,11069.957064415,3.10888165312695,340.528490225584,70.315,5494.01275314088,13417.69939552,3.05077241549375,70.315,1444.01094587558,1876.79598199,13.4838793929452,0,81.0986650118878,0,91.94315014249,0,14.0507524486593,0,295.843565603926,0,186.95960760809,0,52.6861734874614
-16.50258,16.034409,SEN,"Saint-Louis - Senegal",TRUE,154.555,2616.38725725041,41.8228350121846,404375732.544337,6463928.26530819,,,,0,1,605.590988914271,154.555,27485.5652090984,27843.4746941046,2.38372311208861,646.986799748106,154.555,30208.3880641837,30432.6580968405,2.31712235834043,154.555,6443.87924921581,6463.92826530819,6.52244806812157,0,157.452970478101,0,77.459553066472,0,20.6833063130891,0,299.75211076438,0,89.1611484992391,0,113.168386257293
-15.804984,16.512799,MRT,"Rosso - Mauritania",TRUE,159.231,3119.63824766881,37.3432812371366,496743117.814552,5946208.0146705,,,,0,2,438.449261420123,159.231,17851.623503567,29343.6882404284,2.73758254673323,435.61978528839,159.231,17687.2754203904,33909.4957078846,2.74518944682335,159.231,5321.35612160726,5946.2080146705,9.43564642674622,0,169.138272364816,0,94.0355237850632,0,35.8795509778565,0,264.375907362644,0,224.789424631568,0,77.7921827919558
-15.883334,14.866839,SEN,"Touba - Senegal",TRUE,597.23,2294.61226912889,41.7294708957356,1370411285.49184,24922091.9030602,,,,0,1,577.159905648135,597.23,99158.5146562473,110862.337911488,2.43335580505096,630.315192963833,597.23,112457.771235528,132606.943984774,2.34319244457474,0,1413.63825421002,0,48.3756273389341,597.23,22565.6926055169,24922.0919030602,7.63050048288307,0,101.045194686989,0,280.871943507083,0,322.126546227341,0,129.668491522865
-15.575626,11.856113,GNB,"Bissau - Guinea-Bissau",TRUE,503.968,1367.43735056953,29.1359647460553,689144666.691825,14683593.88114,GWOXB,Bissau,AI,114.309,5,498.236431843018,503.968,67820.6309734127,71464.3377296894,2.59163962191153,533.004750536233,503.968,74681.4397370324,78621.5713930959,2.5177893912164,0,481.019717647351,0,75.2671190390303,0,125.208491164373,0,184.625361105575,0,49.0680457637955,0,344.758279494141,503.968,18276.0908954175,18913.02688114,6.65975633367865
-15.65446,14.4204092,SEN,"",FALSE,0,2255.07749469541,31.0289501068166,0,0,,,,0,1,190.366850415976,1e-06,3.40438479169376e-05,1999.15581395124,4.48174773196063,277.796198993532,1e-06,5.84140309855268e-05,1665.03786855838,3.56777567300239,1e-06,109.331959032584,3.10289501068166e-05,21.9204196066061,0,44.4682648806936,0,39.9313041181713,0,2.32245114944918,0,285.791445808534,0,10.7008193385738,0,103.213283799993
-15.5441999,14.1010094,SEN,"Debre Zeyit - Ethiopia",FALSE,69.357,2287.6685,33.2273419593215,158665824.1545,2304548.75627266,,,,0,1,498.958420399317,69.357,9352.92728456621,10944.291880549,2.59003217666239,562.899326477161,69.357,11111.0899122218,13055.7952789726,2.45958823427221,69.357,2105.83149353274,2304.54875627266,8.300715904708,0,114.061627616116,0,57.9835656273001,0,11.2158551186522,0,272.171742835524,0,48.2758483461817,0,102.859565411412
-13.9632597,17.0292988,MRT,"Fritissa - Morocco",FALSE,15.521,3680.26830758623,24.3321127914395,57121444.4020459,377658.722635932,,,,0,2,91.7543629319056,15.521,186.273797535699,5197.29580388121,5.35171149314001,104.942125070663,15.521,225.668283734642,6536.822400179,5.05239234036412,15.521,354.296664020821,377.658722635932,35.2774200611415,0,56.559670739996,0,119.877297448859,0,21.0240149482138,0,231.880602867311,0,126.745816042637,0,70.0033951833597
-15.945537,23.708077,ESH,"Ad Dakhla - Morocco",TRUE,106.277,6999.25678566019,41.685948396546,743860013.409608,4430257.53773972,,,,0,3,534.010373321921,106.277,15791.320758326,17119.4077326705,2.51575616211929,580.938801006018,106.277,17810.5193938393,19025.796809057,2.42656051294979,106.277,4129.18512659794,4430.25753773972,6.71908485848673,0,90.2763260868055,0,85.9350718870711,0,12.7296270635958,0,317.206863319379,0,56.273826033725,0,117.764773168974
-14.2343597,16.6268101,MRT,"Had Zraqtane - Morocco",FALSE,10.415,3292.61139046978,26.1754116436426,34292547.6317428,272616.912268538,,,,0,2,215.950852548138,10.415,424.552720215382,1154.33482009698,3.7083489517411,234.471626957889,10.415,477.509660430663,1462.80179141981,3.57985511485184,10.415,169.176689811763,272.616912268538,15.0809519682275,0,9.95557147858016,0,99.6808293585027,0,2.52888772248361,0,248.52461388159,0,12.284297055483,0,86.6474060765069
-13.9593992,16.1129189,SEN,"",FALSE,0,2493.74395561908,28.4022929330901,0,0,,,,0,1,129.89268786907,1e-06,1.97190653453041e-05,442.820734887479,5.49826384823778,148.505945946237,1e-06,2.38765079801219e-05,3209.81466978689,4.87493577059903,1e-06,139.237042927983,2.84022929330901e-05,39.4868365621715,0,81.6001638457994,0,56.3847313950301,0,9.98277878934222,0,228.799236827757,0,29.1477584854313,0,112.000190553739
-13.203346,27.153675,ESH,"Laâyoune - Morocco",TRUE,217.732,7166.58209753815,43.2531834575172,1560394253.26118,9417602.14057214,,,,0,3,579.304502426985,217.732,36342.2432646133,45299.8055212697,2.42949182865308,624.785905362835,217.732,40485.8830715322,49421.7323042221,2.35205736185897,0,452.221079678383,0,53.7641375345104,217.732,8521.57081707086,9417.60214057213,7.5924180574448,0,48.2906670842515,0,238.864209690999,0,121.653225995922,0,129.016166006213
-14.2115793,13.3027792,GMB,"Tarkwa - Ghana",FALSE,61.291,1770.86443929862,23.1067512092836,108538052.349052,1416235.8883682,,,,0,4,381.036440616501,61.291,5623.04203839813,6861.72735833709,2.90730065526785,403.448571605377,61.291,6101.41913485285,7640.79183041422,2.83695253615217,61.291,1309.12260036434,1416.2358883682,9.19653231608125,0,28.2838092186937,0,118.554774548118,0,7.81466415150702,0,279.471442394586,0,51.7040760398017,0,79.2977979308648
-15.3329,12.0479898,GNB,"",FALSE,0,1367.45133840083,18.1778592380354,0,0,,,,0,5,145.562362620034,1e-06,2.32032993870706e-05,1718.7686535257,5.1686590001568,158.716486505721,1e-06,2.62558074851332e-05,2126.88402426515,4.71291515535499,1e-06,99.4424013202121,1.81778592380354e-05,36.3137493874395,0,12.3769647841142,0,145.671991460413,0,4.06922365777682,0,305.80490986416,0,80.4872699935328,0,41.811976349351
-13.6763992,13.7135201,SEN,"Khénifra - Morocco",FALSE,78.8,2287.6685,28.5775553827832,180268277.8,2251911.36416331,,,,0,1,421.229865742889,78.8,8342.93583600461,10390.6292715765,2.784996226037,469.828235176777,78.8,9751.28163056736,11922.7314604857,2.65767377473684,78.8,2184.62725099075,2251.91136416332,8.23823066817617,0,71.3853700953404,0,80.6020403326399,0,13.7626513166075,0,241.518706801687,0,36.7516361896282,0,125.478040122852
-14.8474998,12.0527,GNB,"Misséni - Mali",FALSE,54.756,1394.43121299449,18.6469722659379,76353475.4987265,1021033.6133937,,,,0,5,325.997396104762,54.756,4019.91826629058,5230.68359391857,3.10832674828511,329.782338366984,54.756,4086.75898189148,5983.25233694358,3.09298719746503,54.756,899.893530645048,1021.0336133937,10.9364301099023,0,24.6680552972639,0,120.29467218789,0,6.93064081920864,0,280.427590604717,0,49.9238152215272,0,75.1849918658347
-14.299376,10.940929,GIN,"Boké - Guinea",TRUE,116.27,1146.57562365401,27.5929884020649,133312347.762251,3208236.76150809,,,,0,6,437.846423880929,116.27,13009.6060615155,14227.7864402152,2.73919792272655,476.216207995869,116.27,14668.3684780686,15899.642392173,2.64233619563812,116.27,3021.27992247226,3208.23676150809,7.99439620846817,0,74.7274796766692,0,94.1729311646733,0,16.8397229489802,0,254.305849738143,0,59.9548282443891,0,109.067879460132
-13.3009596,12.4839897,GIN,"Kalfou - Cameroon",FALSE,13.99,1189.02775135884,23.7319650851646,16634498.2415102,332010.191541452,,,,0,6,340.282443902641,13.99,1091.97062151441,1750.40890074177,3.05171768902855,335.840681610471,13.99,1071.66533277637,2050.60901161288,3.06895044535948,13.99,312.52085011886,332.010191541453,10.7562061876448,0,13.2356575221888,0,88.5281597152263,0,2.81161568777146,0,248.66107813364,0,9.82151820446017,0,108.008856092147
-13.6282301,10.0732899,GIN,"",FALSE,0,1176.62521698137,26.8793431772143,0,0,,,,0,6,122.171624266837,1e-06,1.80661585675764e-05,1143.77715503937,5.68626122458153,150.076618990841,1e-06,2.42380809163699e-05,1380.22664553709,4.84888180131075,1e-06,84.1451618613424,2.68793431772143e-05,31.3032263996702,0,20.0117339163383,0,81.5490155655074,0,3.3022519748828,0,271.061849459009,0,16.5392612815566,0,92.5971877853246
-13.1784992,11.1257696,GIN,"",FALSE,0,1125.84335585272,17.2149499541175,0,0,,,,0,6,244.795303019581,1e-06,4.8759072511464e-05,258.371343231503,3.93483968503754,232.951250515847,1e-06,4.54241506273273e-05,462.411549681645,3.8896830739844,1e-06,42.7786148383845,1.72149499541175e-05,19.0158402177145,0,6.19159105094739,0,68.981371239439,0,1.02287304623747,0,229.114290098446,0,2.69552520602366,0,120.089324369376
-13.0830994,11.79953,GIN,"Bethlehem - South Africa",FALSE,7.461,1135.4866,20.8461390559678,8471865.5226,155533.043496575,,,,0,6,277.043734607838,7.461,434.141605412867,809.201357031336,3.33282175634231,277.509619029488,7.461,435.184930482037,958.496629258142,3.33042205878162,7.461,123.084577822439,155.533043496576,13.084503277245,0,8.52142109850953,0,77.6041565564368,0,1.58925698915393,0,237.737075176397,0,4.70651809618149,0,115.281560390931
-13.8246593,13.3325996,SEN,"",FALSE,0,2141.07888826552,23.0399064754911,0,0,,,,0,1,183.46627649261,1e-06,3.22947099110648e-05,418.705410526038,4.56942282290342,177.620692677495,1e-06,3.08348495824533e-05,534.373652538104,4.45251372675415,1e-06,46.6615145159225,2.30399064754911e-05,22.6219169641293,0,5.42332229900453,0,94.9857265050417,0,1.22642619586896,0,255.902393117201,0,4.80452259714313,0,102.975789829714
-13.7090893,13.0267,SEN,"",FALSE,0,2287.6685,21.3110377398114,0,0,,,,0,1,170.089951616101,1e-06,2.89843391709951e-05,206.327444882874,4.75570606440959,187.558696910021,1e-06,3.33287076110078e-05,213.353348048991,4.33245330760572,1e-06,19.4893624421887,2.13110377398114e-05,21.3600259624775,0,1.97265197175086,0,98.3482309671344,0,0.460876666746654,0,259.264897952641,0,1.98939464587892,0,97.7956572774495
-11.400062,16.629969,MRT,"Kiffa - Mauritania",TRUE,110.714,3692.66927840016,24.5103198098448,408830186.488796,2713635.54742716,,,,0,2,353.198710519404,110.714,9114.00887908695,11462.7606016102,3.0033797615542,331.329618875288,110.714,8318.67102155705,14667.5985803176,3.08678863918748,110.714,2713.63554707669,2713.63554742716,9.5070378708393,0,66.1728011575065,0,113.055898097483,0,31.9817270642902,0,183.574193403084,0,36.3126000372266,0,168.671357268307
-12.2216101,14.4544096,SEN,"Sidi Redouane - Morocco",FALSE,20.065,2223.952360451,30.4239054818422,44623604.1124494,610455.663493164,,,,0,1,242.003311662995,20.065,962.449128431478,3423.64041856253,3.53167430625083,248.092693989032,20.065,997.231246287632,3573.71469185551,3.49426068428567,20.065,491.841272557148,610.455663493164,13.1084670589818,0,27.4418899303959,0,89.7757843594157,0,8.10531519454169,0,202.420867450033,0,13.3151313150627,0,145.391243525376
-13.712215,9.509116,GIN,"Conakry - Guinea",TRUE,1667.864,2150.37966857964,47.7173443768735,3586540835.55592,79586040.8617897,GNCKY,Conakry,AI,676.60790476,6,539.643928845283,1667.864,251565.258003858,257976.936856085,2.50446761429927,563.64436524804,1667.864,267699.541035903,274821.489419834,2.45819435991598,0,336.693555386518,0,214.697411352744,0,245.609888760752,0,264.943200510232,0,109.329460269801,0,454.456034396048,1667.864,103919.043381567,104620.53333791,4.70096030194457
-13.5013895,9.7055101,GIN,"",FALSE,0,1177.39094451741,47.8186094627483,0,0,,,,0,6,76.6988040626322,1e-06,9.29040695705791e-06,6663.11130191525,7.40706285107738,85.8663573613821,1e-06,1.09165133137743e-05,7999.26810417145,6.48088833793928,1e-06,208.182614446397,4.78186094627483e-05,73.7969481230445,0,95.5311595384432,0,124.042737282419,0,23.77006004696,0,313.555571176928,0,290.909201211437,0,59.0422730480215
-12.1095896,12.6156893,SEN,"Ādēt - Ethiopia",FALSE,11.216,2258.58745277728,29.7127985122773,25332316.87035,333258.748113702,,,,0,1,262.586618059497,11.216,604.534801147576,1907.38497031793,3.41025850193626,330.921424696746,11.216,841.24904904368,2154.72659276293,3.08841988816115,11.216,325.578465505812,333.258748113702,10.8866436289535,0,16.6446361206283,0,79.0341738929499,0,3.56262410388313,0,220.877318253474,0,7.48495029741251,0,134.649633172627
-12.9784594,10.6564093,GIN,"Bawku - Ghana",FALSE,30.311,1134.95099453162,19.5251633744116,34401499.5952479,591827.22704179,,,,0,6,345.554231060013,30.311,2418.41933733392,3030.87688185389,3.03167689392035,294.707518817218,30.311,1926.55587122811,4364.98279251824,3.24569654071538,30.311,393.114270881916,591.82722704179,16.1541358171275,0,79.4895890985787,0,46.890993592084,0,7.02202950199773,0,236.403827488488,0,22.015050660005,0,110.361216057832
-12.854191,10.049703,GIN,"Kindia - Guinea",TRUE,181.126,1272.4382327917,31.7736110513414,230471647.35263,5755027.07528526,,,,0,6,431.903238424794,181.126,19874.5911510792,28646.8648164251,2.75528867692501,443.562129645245,181.126,20645.4292519106,33522.414078551,2.72401427577786,181.126,4749.27510462999,5755.02707528526,10.0233913096969,0,322.111645178313,0,60.2691804841124,0,38.1775108909004,0,249.782014394655,0,141.630667419831,0,104.230471494237
-12.7595196,8.4948397,SLE,"",FALSE,0,1525.79033972791,18.3068914371631,0,0,,,,0,7,85.1585453086629,1e-06,1.07881881587031e-05,6382.84482725295,6.96922492606903,109.804764893099,1e-06,1.55114618824251e-05,8572.29191606634,5.69523946297224,1e-06,163.17118957566,1.83068914371631e-05,79.8878936640543,0,238.592201049569,0,62.0115320845341,0,23.370075465408,0,291.834443161102,0,209.602907798858,0,67.6049384279266
-13.234314,8.484392,SLE,"Freetown - Sierra Leone",TRUE,1035.246,1636.18751938735,51.9455928614036,1693856584.69567,53776467.2273966,SLFNA,Freetown,AI,292.305,7,558.038404253164,1035.246,163805.699215438,170116.383543181,2.46874768576824,587.6053726931,1035.246,176343.706529807,184261.53041106,2.41472342023443,0,233.212833062808,0,206.374268596346,0,267.162787950421,0,188.497907017759,0,80.8111985857368,0,418.320818079543,1035.246,63927.9433988135,64591.7522273966,4.890613640841
-11.6982899,26.7553997,ESH,"Malakal - South Sudan",FALSE,57.035,6390.125709182,25.1492270818786,364460819.823195,1434386.16661495,,,,0,3,381.571773798614,57.035,5243.08756443092,8390.36412920828,2.90555178104389,460.623840135306,57.035,6861.22466982928,10189.5491068073,2.6803052511375,57.035,1248.93259875949,1434.38616661495,10.862461095175,0,164.579711650153,0,41.94723801064,0,16.2994062766266,0,195.962533267872,0,24.2606683955951,0,150.320793832655
-11.1610899,28.4597492,MAR,"Kukawa - Nigeria",FALSE,73.209,6295.70213058728,39.2491173607986,460902057.278165,2873388.6328667,,,,0,8,527.544116004838,73.209,10690.1844933386,14221.6429586053,2.52892590328535,559.771085564,73.209,11635.1855120971,15949.238808189,2.46546967033746,73.209,2606.62112121659,2873.3886328667,8.24785526901719,0,140.37505779554,0,57.8361896038348,0,20.0236012887361,0,211.851484846645,0,42.7568412811242,0,127.758330845288
-12.283231,11.316916,GIN,"Labé - Guinea",TRUE,127.747,1146.98337636056,35.8287216279254,146523685.379933,4577011.70180259,,,,0,6,483.064875698058,127.747,16448.4065405196,22097.8345076216,2.62621571391225,554.552480689342,127.747,20033.1107212016,25080.6317344201,2.47538646008036,127.747,4208.27591461404,4577.01170180259,8.13702882231301,0,220.551536576232,0,58.1025598603861,0,30.2980693462347,0,218.235478533454,0,62.4461241464809,0,134.750897554679
-12.08277,10.383497,GIN,"Mamou - Guinea",TRUE,376.269,1135.61305456118,26.8662514052221,427295988.426679,10108937.5499915,,,,0,6,443.883690994413,376.269,42932.9936647055,57649.0627549824,2.72316835579215,494.703869386526,376.269,50123.6594216327,64229.6028040755,2.59955503392172,0,888.241221509076,0,45.1199445901057,376.269,8481.89799608117,10108.9375499915,10.0244482177129,0,95.5097441700097,0,199.537282152505,0,163.693229043354,0,139.327024775998
-11.74007,7.956451,SLE,"Bo - Sierra Leone",TRUE,249.807,1496.9442,25.5146367561591,373947139.7694,6373734.86414584,,,,0,7,413.905766841278,249.807,25793.7741189958,35580.8516728341,2.80601014479096,471.45378455121,249.807,31065.8300683732,39842.1435141861,2.65374267211587,0,447.203827601041,0,52.9358954153252,249.807,5250.24199133847,6373.73486414584,10.2478884840155,0,42.0804958689144,0,255.878250353216,0,180.231506086697,0,97.0212346683787
-10.971644,8.643743,SLE,"Koidu - Sierra Leone",TRUE,300.387,1517.04766003136,22.0121301485176,455701395.453841,6612157.73892276,,,,0,7,404.711329969097,300.387,30036.8313023453,35187.446408199,2.83315558697982,451.558332555783,300.387,35124.4160287822,40877.1003962013,2.70323574685765,0,429.788478643558,0,56.3249476582903,300.387,6041.05689626581,6612.15773892276,9.67079162102809,0,49.0190416968284,0,239.493702708326,0,127.167958350516,0,126.84855092943
-10.8695793,12.6057196,MLI,"Kawambwa - Zambia",FALSE,10.832,2285.3071,24.4574447781555,24754446.5072,264923.041836981,,,,0,9,68.6609865154559,10.832,85.9131696861147,3502.47220752131,6.05978185101433,101.608383870794,10.832,150.393983694552,3706.19326582725,5.12278079831314,10.832,265.101863477689,264.92304183698,29.7291592675317,0,37.4563843115035,0,109.590753556683,0,30.9286674883224,0,124.51366266412,0,16.9075412759617,0,186.239091283393
-11.432892,14.449705,MLI,"Kayes - Mali",TRUE,174.373,2363.01954108217,36.6490483544719,412046806.437122,6390604.50871433,,,,0,9,433.961833208539,174.373,19264.0125857718,23221.0417186182,2.74967862364927,512.742277581879,174.373,24447.9987554812,26362.5908519855,2.55995949002071,174.373,6311.47170755738,6390.60450871433,6.63954103447844,0,72.6850383674533,0,130.19524900147,0,47.241828506064,0,173.516463160004,0,42.6315988669195,0,185.810708226276
-11.8790693,12.8341799,SEN,"",FALSE,0,2287.6685,30.2988245952444,0,0,,,,0,1,102.204459818439,1e-06,1.40007343960438e-05,1167.73047497644,6.28031541951255,135.463862380386,1e-06,2.09383128199095e-05,1142.20595255996,5.10947559032878,1e-06,86.8131129394999,3.02988245952444e-05,28.4762232005621,0,13.8893862294596,0,96.6237536596457,0,4.96960349621484,0,191.715892357586,0,7.02294257646182,0,152.239212955662
-11.5879192,10.1457901,GIN,"",FALSE,0,1178.37874359219,21.1600028678453,0,0,,,,0,6,268.422828978301,1e-06,5.56188079752171e-05,725.287664550196,3.75451608867624,267.712782501897,1e-06,5.54087473786016e-05,1419.50153876317,3.63277998892896,1e-06,55.6237867687567,2.11600028678453e-05,31.4887900913761,0,72.5501526539942,0,26.3777321809571,0,3.60833599524995,0,195.040601838544,0,5.0599239233767,0,155.680308638777
-9.299825,10.383689,GIN,"Kankan - Guinea",TRUE,198.013,1153.17201735961,31.112356240142,228343050.673428,6160650.99617924,,,,0,6,482.139398107466,198.013,25425.9421760186,31520.5299866481,2.62837488807891,513.528093710137,198.013,27823.2522074731,34046.7817436274,2.55827990093764,198.013,6094.68256484926,6160.65099617924,8.05436628768008,0,258.511366273072,0,66.2235322120389,0,67.2715683176901,0,162.471703832919,0,50.9554943479019,0,195.526108690551
-11.3188601,7.3100801,SLE,"",FALSE,0,1344.94827331861,15.4784810906556,0,0,,,,0,7,141.244172829067,1e-06,2.2226244714077e-05,4808.48083252992,5.2534283655438,159.766674249899,1e-06,2.65043420579355e-05,5873.66048910566,4.69719052048779,1e-06,225.580973458827,1.54784810906556e-05,41.2644212078643,0,137.171902564212,0,57.4911012019671,0,13.0927471290672,0,275.268731962171,0,87.5947127790881,0,77.5280404118387
-11.1890097,7.8601699,SLE,"Khartoum North - Sudan",FALSE,188.463,1485.97140072144,26.5325861186727,280050628.094164,5000410.77768342,,,,0,7,443.686126501825,188.463,21490.3077027039,30750.0635536679,2.72368801767126,495.34437334565,188.463,25152.038200848,34268.3745535097,2.5981139233547,188.463,3782.59324318005,5000.41077768341,11.2908706493256,0,639.865487749706,0,36.9143083927021,0,37.3548730523064,0,245.295181529171,0,120.562048676829,0,112.317332593959
-2.216954,31.616774,DZA,"Béchar - Algeria",TRUE,179.119,13194.7313701357,47.9612505819522,2363427088.28733,8590771.24298869,,,,0,10,545.208561534304,179.119,27415.5208465459,29893.883654394,2.49347994743896,567.590051244344,179.119,29037.3282903106,43809.6263907672,2.45085611759362,179.119,7833.32735187387,8590.7712429887,7.72206284215708,0,342.641511867146,0,62.201978257935,0,82.8519387591391,0,160.261449062827,0,65.7107737067064,0,187.042283129589
-10.0955496,9.1883497,GIN,"Mongu - Zambia",FALSE,66.815,1121.84293071791,25.8338628216588,74955935.4159169,1726089.54442914,,,,0,6,403.668770872611,66.815,6656.51099904553,10746.3976861955,2.83628921274659,450.54041667238,66.815,7787.56711709698,11434.6236683754,2.70585155125941,66.815,1301.19926477223,1726.08954442913,11.5227465916343,0,222.828843977614,0,37.365512702313,0,19.2168672815587,0,191.424192362177,0,23.6537031056929,0,166.668089184314
-10.3059597,14.7111797,MLI,"Ikot Abasi - Nigeria",FALSE,18.328,2285.3071,26.3038363987401,41885108.5288,482096.713516109,,,,0,9,158.922610812255,18.328,482.109478527019,2958.36578193947,4.22915064105447,251.049974350023,18.328,926.453258612252,3172.80202038604,3.47656044672513,18.328,481.91789277031,482.096713516109,12.2122700560245,0,16.6992475632378,0,114.898360528346,0,13.4178154978597,0,132.94047414466,0,7.09803732645862,0,203.244864788296
-9.6050797,16.6627998,MRT,"Abū Ḩamad - Sudan",FALSE,24.199,3760.08548182476,19.5791653774687,90990308.5746773,473796.222969366,,,,0,2,130.506918839612,24.199,480.408463174841,4009.40343840018,4.60170054595597,274.978680851713,24.199,1393.12446104226,3234.19750339546,3.3435249351128,24.199,473.796438960249,473.796222969365,12.0315356741654,0,24.2030458272157,0,87.3914427944019,0,9.98822723552891,0,157.660651014607,0,7.37360864465544,0,193.016988740838
-10.801398,6.313299,LBR,"Monrovia - Liberia",TRUE,1110.25,967.725459213548,41.2600904571139,1074417191.09184,45809015.4300107,LRMLW,Monrovia,AI,467.27200002,11,560.749305704977,1110.25,176893.909607011,188147.985476107,2.46362618526459,570.277869596026,1110.25,181203.609093929,196197.935939651,2.44589887324159,0,355.644416074847,0,164.522054258041,0,308.844081035202,0,180.748734264883,0,101.19500280017,0,380.302116085134,1110.25,62112.9791783668,63098.0794307507,5.26558401192476
-10.132382,8.567176,GIN,"Guéckédou - Guinea",TRUE,221.715,1099.39487496181,19.6079430369351,243752334.702158,4347375.09043406,,,,0,6,432.582480787646,221.715,24383.0166553372,27705.0209351153,2.75343362880856,470.060793683453,221.715,27456.0199620976,30647.1456989446,2.65711018270535,0,536.283564439303,0,39.4221156391788,221.715,3667.06272572757,4347.37509043407,10.9426882486783,0,40.8673469274545,0,219.323561393884,0,79.7495719329847,0,140.448577647299
-10.066664,28.983267,MAR,"Guelmim - Morocco",TRUE,118.318,6238.3237,43.0273185293868,738105983.5366,5090906.27375998,,,,0,8,615.558746191887,118.318,21537.7905803821,22691.1800670231,2.36710333421542,650.432291979959,118.318,23301.8585419976,24547.7742426186,2.31185394318535,118.318,5090.90627337335,5090.90627375999,6.59839645179612,0,105.964807247746,0,87.2021859519509,0,23.03241850047,0,241.217481127878,0,78.5524964635542,0,106.462128692512
-10.4223099,8.6459198,GIN,"",FALSE,0,1227.60079775481,18.0701264188066,0,0,,,,0,6,294.86489020671,1e-06,6.36081192846036e-05,640.462103708091,3.58052373884641,333.868547458085,1e-06,7.59604405116551e-05,625.058529946485,3.26356149934603,1e-06,18.7370750493546,1.80701264188066e-05,33.8198020031917,0,45.4254267920282,0,18.7401435680784,0,1.17946983532133,0,213.721247792515,0,2.04586892344915,0,148.042720014581
-9.4627399,13.0295696,MLI,"Ghardaïa - Algeria",FALSE,57.187,2269.38964058337,35.3665191502151,129779585.376041,2022505.13064335,,,,0,9,140.936962749104,57.187,1267.10470553551,14159.3716286664,4.4525392425429,159.496588852169,57.187,1512.04471321968,16991.8220590363,4.22262116006259,57.187,1079.48213415475,2022.50513064335,26.5215222742482,0,102.020500009691,0,127.825388740087,0,390.471601082231,0,52.241517668817,0,41.7366978656073,0,231.951239164494
-9.4801102,7.0074396,LBR,"Zuwārah - Libya",FALSE,34.046,786.9167,15.4325262289124,26791365.9682,525415.787989552,,,,0,11,91.1190568072487,34.046,404.564189426142,6730.38818339991,5.3676714449762,95.309927966917,34.046,431.405724090895,7814.89867021773,5.26521819377817,34.046,284.365262479876,525.415787989552,47.9491499474846,0,122.967976678652,0,83.8501652179661,0,22.0450229913958,0,263.729211786935,0,165.639267513973,0,68.7474203611145
-9.544252,15.181505,MLI,"Nioro - Mali",TRUE,116.376,2301.37386339613,31.0032048103123,267824684.726588,3608028.96300491,,,,0,9,415.081920170745,116.376,12065.1909499159,14383.8869899503,2.80259978634025,447.337480300104,116.376,13426.5635322312,18236.8272882777,2.71413772737983,116.376,3608.02895655257,3608.0289630049,7.99376534924018,0,71.9690647325774,0,108.684471894322,0,57.1604327265414,0,126.726585492115,0,26.2668550867155,0,212.810320936801
-9.5260296,14.5371294,MLI,"Rundu - Namibia",FALSE,52.399,2258.05105134941,26.6645356098404,118319617.039658,1397195.00142003,,,,0,9,174.512682244165,52.399,1575.47891862396,7984.08088105084,4.06289357698978,205.318414613034,52.399,1987.33479786072,10928.1495319121,3.78946503436441,52.399,1239.22930140616,1397.19500142003,16.1748852228054,0,63.3103189089818,0,117.478751567227,0,94.9844048353233,0,89.6411569086362,0,24.4368556168382,0,221.6046019565
-9.4735699,8.5450697,GIN,"Manzini - Eswatini",FALSE,43.102,1096.84397846855,22.3680314344588,47276169.1599514,964106.890888042,,,,0,6,360.465894706041,43.102,3652.9198560981,6310.5037511502,2.97727878334312,390.216658880021,43.102,4091.12233639903,6831.26505431677,2.87778803454231,43.102,702.069128789675,964.106890888043,13.1161480100364,0,148.589101338948,0,36.9318947600504,0,12.0877445951761,0,196.71133095569,0,15.5314303228996,0,166.437784103871
-9.716798,29.717562,MAR,"Tiznit - Morocco",TRUE,108.998,6238.3237,44.8746618567915,679964806.6526,4891248.39306656,,,,0,8,437.44517581087,108.998,12179.9689347995,26641.4849463093,2.74027419293461,457.271515397863,108.998,12976.1817511534,29240.6704316367,2.68870898377732,108.998,4055.42479104113,4891.24839306656,10.0348552991617,0,123.222534767803,0,103.056468644008,0,33.8862699382345,0,243.698489996128,0,293.913747469959,0,57.728297388112
-9.599649,30.433289,MAR,"Agadir - Morocco",TRUE,1070.86,6374.8461531175,58.0517269919173,6826567751.5274,62165272.3665645,MAAGA,Agadir,AI,593.66057139,8,762.914966142587,1070.86,264871.574095854,282135.843932637,2.15909386754682,805.71903711624,1070.86,286353.961780093,304359.842303661,2.10916796091217,0,835.823602012538,0,107.553936958823,0,370.584486767664,0,184.974236100428,0,353.209442765293,0,190.99171516635,1070.86,82851.6149128455,84130.7135079945,5.02152251076877
-5.986109,14.249942,MLI,"Niono - Mali",TRUE,128.619,2285.3071,33.8806562465947,293933913.8949,4357696.12578076,,,,0,9,490.814446846628,128.619,16941.519505181,21360.5490054129,2.60836354897138,531.468088054492,128.619,18981.1963435009,23777.5447818815,2.52090674125244,128.619,3956.97804248791,4357.69612578076,8.33218731844661,0,210.906598221158,0,58.8312406820255,0,64.8799563492805,0,129.100448942746,0,26.1448372357205,0,236.634188113458
-8.8621101,31.2670689,MAR,"Dayr Mawās - Egypt",FALSE,41.579,6727.27118707371,36.8417125347524,279713208.687338,1531841.56548247,,,,0,8,288.059180842933,41.579,2557.99070956375,21439.1493552124,3.27759161081589,326.608604681896,41.579,3060.70644780483,23310.4208822553,3.10583245618758,41.579,1330.02674255634,1531.84156548247,20.9558132003333,0,219.959725462132,0,69.5530193988725,0,194.217661588613,0,75.5704984645971,0,189.233389562293,0,76.891722226087
-9.551909,13.355745,MLI,"Balandougou - Mali",TRUE,1631.251,2258.59960670909,27.9096560141396,3684342867.04381,45527654.2827213,,,,0,9,366.291357601677,1631.251,141452.272412519,147754.698294095,2.9568932087236,408.209978507425,1631.251,165133.100622191,177124.094259107,2.82272332564618,0,719.999714828642,0,110.823498880136,0,271.884884736578,0,212.12736522946,1631.251,44410.8540675134,45527.6542827212,7.0989479227521,0,149.357723501578,0,316.253215613032
-9.1929197,14.5529394,MLI,"Cahama - Angola",FALSE,43.276,2285.3071,27.938885275401,98898950.0596,1209083.19917825,,,,0,9,133.418446042072,43.276,886.644249115055,8184.96745751759,4.5583916167545,177.533348278337,43.276,1333.4716332182,11687.9297569395,4.03312158622956,43.276,802.585941542961,1209.08319917825,24.0513067847371,0,129.805650007934,0,81.0221902678686,0,151.340102690949,0,73.141471572179,0,27.2319911612661,0,229.481023674887
-8.816789,7.750291,GIN,"N’Zérékoré - Guinea",TRUE,195.027,1164.86349690503,28.8972795876179,227179833.210898,5635749.74613435,,,,0,6,471.236736998465,195.027,24237.4766748595,27156.7501130449,2.65426644171914,501.978986242778,195.027,26527.5134110653,29967.0710164085,2.58334122655025,195.027,5337.97051328516,5635.74974613436,8.16006952704391,0,242.110356940791,0,64.1606951681283,0,37.1294970414132,0,223.940131367594,0,64.7492612799492,0,154.568654874175
-8.1639996,7.2641697,CIV,"",FALSE,0,3149.8581711304,28.2093242708592,0,0,,,,0,12,177.80546033868,1e-06,3.08806820219769e-05,1473.03277318758,4.64551335989732,194.452174383616,1e-06,3.5092328281424e-05,1598.22693370251,4.25487663391922,1e-06,55.8487624683556,2.82093242708592e-05,39.8079885022531,0,73.6058796016862,0,33.1159789628456,0,3.43287577815759,0,255.588049854303,0,10.2174426069521,0,123.52393884596
-7.5722198,9.5049696,CIV,"Bariadi - Tanzania",FALSE,86.279,3289.988,39.2309187365728,283856874.652,3384804.43767277,,,,0,12,583.037576217008,86.279,14533.8199073522,16391.6911571898,2.42281309137518,629.643589892832,86.279,16221.5200267283,17739.4418997898,2.34426326570595,86.279,3384.80443696182,3384.80443767276,7.07311353716334,0,145.447119568646,0,57.6540208203342,0,26.4832330689385,0,179.467445913867,0,22.5719406791866,0,199.642845151547
-8.002662,12.639193,MLI,"Bamako - Mali",TRUE,4552.105,2286.20141850059,45.3510168389582,10407028908.1636,206442590.507706,,,,0,9,513.554736139536,4552.105,639673.923937502,680673.949544245,2.55822270665696,532.28416622747,4552.105,673259.76271727,715082.582176723,2.51924960332167,0,1851.28269233157,0,133.616524577494,0,1194.9774034531,0,178.896648033208,4552.105,203553.820306252,206442.590507706,5.8217804972567,0,458.009616349577,0,339.046241462311
-9.166742,11.416769,GIN,"Siguiri - Guinea",TRUE,183.875,1135.4866,32.4018248026735,208787598.575,5957885.53559159,,,,0,6,359.393017929295,183.875,15517.2964603337,31321.2142154249,2.9810845275864,366.967735312355,183.875,15986.6110566984,33734.3933532968,2.95455581353577,183.875,5325.71636451579,5957.88553559159,10.1147568255363,0,173.160175674366,0,99.2907496788936,0,175.714342836122,0,98.3262161135468,0,49.5696533952683,0,228.59332611593
-7.4854398,11.42488,MLI,"Souk Ahras - Algeria",FALSE,95.222,2285.3071,32.0476990885096,217611512.6762,3051646.00260606,,,,0,9,279.245940813893,95.222,5603.81592345173,23230.6925248168,3.32153136615044,300.397378698032,95.222,6219.89162795449,24621.1027087277,3.21920519475097,95.222,2553.55141830877,3051.64600260606,14.5833485200824,0,307.034824776084,0,59.86347198412,0,137.239671748252,0,102.400138962718,0,43.5770454623597,0,220.013065415736
-9.233368,32.283274,MAR,"Safi - Morocco",TRUE,395.857,6780.39513730578,50.0776184680819,2684066877.86845,19823575.8139195,,,,0,8,720.038550174663,395.857,90147.7142757359,102988.261593475,2.21328529609583,773.38508878416,395.857,99838.4067714925,115109.691971416,2.14651793534152,0,742.810110763289,0,61.9285025042344,395.857,18445.7098821417,19823.5758139195,7.27576841168363,0,287.728800153761,0,116.543187759632,0,282.904360174541,0,117.864410613515
-8.500158,33.233179,MAR,"El Jadid - Morocco",TRUE,467.017,7268.41013196153,54.5650407804857,3394471094.59828,25482801.6501801,,,,0,8,603.302964306358,467.017,82604.8999271773,136144.077557028,2.38759345362812,640.362483743551,467.017,89948.1272110384,147178.978786267,2.32736492404999,0,700.457840650963,0,82.257153029437,467.017,23590.0200080959,25482.8016501801,7.88756229097953,0,297.827646820355,0,145.473873046663,0,626.963736590497,0,88.5659380475273
-8.3035603,32.2542381,MAR,"Funtua - Nigeria",FALSE,139.815,6725.98050128035,37.1479411148004,940392963.786512,5193839.38696582,,,,0,8,630.787774061632,139.815,26355.2179753034,40617.3233033238,2.34243992718831,678.921271341183,139.815,29274.5131897764,45202.204418817,2.26976837709107,139.815,3855.42919471202,5193.83938696582,11.7140245502475,0,601.664332535627,0,40.4127533166807,0,229.953836966295,0,76.7351201299414,0,155.120694987495,0,99.7642150399739
-8.2107401,31.9539585,MAR,"Ouled Fayet - Algeria",FALSE,38.613,6720.5864,38.3004049757337,259502002.6632,1478893.53732801,,,,0,8,439.521973884701,38.613,4344.09898196004,14786.5065409143,2.73471747690905,469.315726894703,38.613,4770.80732029557,17594.1685878043,2.65891721583627,38.613,892.590958240554,1478.89353732801,19.4021113724325,0,300.020104664795,0,40.1344278890975,0,150.755055019891,0,63.4993665644266,0,83.1077081527683,0,94.4473502277724
-8.008349,31.630015,MAR,"Marrakech - Morocco",TRUE,1132.514,6720.5864,58.6646890573813,7611158186.2096,66438581.6631311,,,,0,8,739.490899415834,1132.514,267916.007474778,301475.690332312,2.18814345021961,786.60509074551,1132.514,292629.797660458,328280.511819023,2.13098221510658,0,1322.88007539763,0,84.1517030320557,0,950.716115774578,0,104.884019490428,1132.514,63666.03904311,66438.5816631311,6.3602082949923,0,560.121166016915,0,149.2411442812
-7.6750998,8.2902699,CIV,"Krugersdorp - South Africa",FALSE,55.013,3186.43542100719,24.1835686231057,175295371.815869,1330410.66066291,,,,0,12,349.782315338502,55.013,4466.23798925607,8624.66246491519,3.01591677054467,372.293140619305,55.013,4882.45041993553,9316.06484231866,2.93636853498327,55.013,978.795782574884,1330.41066066291,13.1877539937992,0,201.172456861086,0,37.8663301304127,0,16.8700772549382,0,197.64576633475,0,19.4340811706205,0,179.855154435594
-7.583329,33.53329,MAR,"Casablanca - Morocco",TRUE,4219.891,9656.635,70.9405986874118,40749947126.785,299361593.935621,MACAS,Casablanca,AI,2434.0279715,8,829.680505867548,4219.891,1176666.89284271,1246529.7848131,2.08284343316485,844.985083962724,4219.891,1207796.47532213,1287992.60136387,2.0665911158578,0,2043.87346972978,0,151.901058201513,0,1537.50826154688,0,183.647560989386,0,1635.30301642315,0,176.250887164838,4219.891,385642.59183396,389420.628881121,4.617498980745
-7.9837198,32.2262306,MAR,"Qillīn - Egypt",FALSE,132.168,6742.80992422409,43.2105007592418,891183702.06485,5711045.46434747,,,,0,8,493.48029090054,132.168,17544.226586474,56410.4323947108,2.60231546761961,534.097075231756,132.168,19642.9273349261,60202.5739375154,2.51558124351037,132.168,3615.49231796241,5711.04546434747,16.4035089155814,0,688.179312917505,0,49.5732408916578,0,537.330392085264,0,58.4638552950918,0,326.507018425296,0,81.4929501982296
-7.59407,7.3604698,CIV,"Pikine - Senegal",FALSE,241.969,3331.50044575431,31.6783867627629,806119831.358724,7665187.56659899,,,,0,12,473.047956786178,241.969,30236.5640003844,34105.6723492333,2.64990620666406,512.733250489675,241.969,33924.4552096623,37960.9047269698,2.55997880562664,0,289.243447300636,0,66.1127242966275,241.969,7083.1992435879,7665.18756659898,7.83985024931829,0,39.2008590779215,0,250.570736623159,0,84.7810327161163,0,149.828674637245
-7.408295,32.048099,MAR,"El Kelaa des Srarhna - Morocco",TRUE,223.364,6725.77294838356,38.3125407240053,1502295548.84275,8557642.34627671,,,,0,8,547.381434487852,223.364,34382.3639018888,53614.9254979813,2.48923299651473,605.644571105061,223.364,39727.3579021141,61937.2946032228,2.38363286140376,0,412.832783981225,0,67.3014983268804,223.364,7203.21519307692,8557.64234627672,10.0043741550908,0,421.526824179466,0,66.3728868620008,0,149.631793384613,0,132.390939602231
-6.26652,13.449454,MLI,"Ségou - Mali",TRUE,240.936,2285.3071,34.5068161376911,550612751.4456,8313934.25295074,,,,0,9,391.781776938269,240.936,23000.1254523823,56726.1590529756,2.8728554679868,398.226476690773,240.936,23542.5184113896,61769.1379726249,2.85283693537946,0,884.494740331563,0,48.3794736590288,240.936,6258.45113033049,8313.93425295074,13.1264331782569,0,390.815638078955,0,83.3956414555181,0,73.6081575797717,0,253.80919055168
-7.350092,6.733084,CIV,"Duekoué - Côte d’Ivoire",TRUE,284.596,3302.72447034709,26.4823462879371,939942173.3629,7536769.82416175,,,,0,12,432.618804291414,284.596,31302.0834515255,31465.1606954056,2.75333452271957,467.433973339757,284.596,34961.8579508851,34993.5118838022,2.66349939104725,0,170.462323713482,0,92.6883928844552,284.596,7507.79002091227,7536.76982416175,7.43195166436198,0,32.9687558028704,0,277.146405186505,0,83.8167182187735,0,148.784327637033
-6.841593,34.020894,MAR,"Rabat - Morocco",TRUE,1891.455,7891.94605770258,67.9275739994679,14927260830.5718,128481949.479164,,,,0,8,688.257090195041,1891.455,403836.140650177,477452.217443795,2.25652196245311,784.692418226496,1891.455,487035.4322429,583077.987686146,2.13320676433991,0,983.35393732782,0,150.560417021605,0,2130.7376812697,0,89.9147053613716,1891.455,124278.894522803,128481.949479164,5.97841137172599,0,1269.16025965878,0,127.010533354408
-6.5227799,32.8590393,MAR,"Randburg - South Africa",FALSE,178.623,9675.0688844993,45.6605596927238,1728189829.35592,8156026.1539934,,,,0,8,439.145296859981,178.623,20071.12004329,64812.7054353241,2.73572252822848,456.186150620321,178.623,21192.9497825717,82424.2647678377,2.69144870045015,178.623,5284.0548497908,8156.0261539934,16.8026565231139,0,983.067504902698,0,51.558538781557,0,633.272189113949,0,69.1240566029564,0,434.02325740785,0,88.9230109771618
-6.4903197,9.5225697,CIV,"Kikuyu - Kenya",FALSE,92.792,3289.988,40.8585933304043,305284566.496,3791350.59231487,,,,0,12,551.178913273951,92.792,14425.219138081,19612.7004129862,2.48186834845393,607.799450617444,92.792,16587.8681655372,21310.3756438867,2.38000737938218,92.792,3311.78400738807,3791.35059231488,8.23375052217073,0,311.239740391902,0,39.8329383539131,0,30.1135308005556,0,189.001211313586,0,25.1714354184933,0,212.993844412108
-5.666994,11.316457,MLI,"Sikasso - Mali",TRUE,315.73,2285.3071,34.5993127669643,721540010.683,10924041.0199136,,,,0,9,534.116807970853,315.73,46926.5539624195,55089.0649451153,2.51554161262423,577.666347212571,315.73,52486.5963030117,62576.6737855151,2.43244230077637,0,835.303233650145,0,43.2269660923081,315.73,9648.04579828154,10924.0410199136,8.45975838623996,0,137.766971477351,0,143.732216502752,0,56.1894325422147,0,261.345142875355
-6.36073,32.339077,MAR,"Béni Mellal - Morocco",TRUE,559.315,9578.10692231839,51.2521768542167,5357178873.25651,28666111.2972162,,,,0,8,710.84163894998,559.315,125053.917458857,131202.858160631,2.22551263960286,751.082619870753,559.315,135288.654226797,140687.190992831,2.17360609107691,0,508.443244081978,0,92.2972781911567,559.315,28032.3734569501,28666.1112972162,6.37153345547653,0,451.348537084343,0,99.9253907718702,0,213.847036419145,0,164.417632640563
-6.9510198,6.7373199,CIV,"",FALSE,0,3289.988,26.0983083598812,0,0,,,,0,12,277.848811515076,1e-06,5.84298361703445e-05,300.986673383039,3.68947990832196,327.884901916586,1e-06,7.40231135313989e-05,202.18212804914,3.29213387003247,1e-06,1.4653665158883,2.60983083598812e-05,87.9039697037994,0,32.4622165740818,0,11.1443278384507,0,0.25658247608764,0,280.858781316755,0,0.748452849427478,0,137.571889159623
-6.59448,6.48704,CIV,"",FALSE,0,3289.988,30.2351215412896,0,0,,,,0,12,170.215987983636,1e-06,2.90150259656982e-05,1057.006745542,4.75391504618648,219.945367332733,1e-06,4.18450059165998e-05,919.078159752783,4.00181264519342,1e-06,8.10053488499834,3.02351215412896e-05,93.7884269809145,0,104.703711366211,0,17.0287851101527,0,1.73476561632782,0,262.018031721024,0,5.826939830907,0,116.823808624712
-6.450154,6.883246,CIV,"Daloa - Côte d’Ivoire",TRUE,466.205,3289.988,31.5809428623859,1533808855.54,14723193.4671586,,,,0,12,487.477393610829,466.205,60812.3106760401,62201.2770491494,2.61600121629761,520.124248386419,466.205,66712.8562918935,67981.7933116682,2.54432469385739,0,358.957301569904,0,83.9084598553401,466.205,14434.4438790706,14723.1934671586,7.14881798897807,0,57.7250601512769,0,283.742689819941,0,165.745562774058,0,140.455797648269
-5.51861,33.8304405,MAR,"Ibadan - Nigeria",FALSE,713.763,5725.32862494757,52.8535171786926,4086527735.32846,37724884.9820151,,,,0,8,659.809978681331,713.763,143474.557508608,175438.618454423,2.29771445610612,730.451519645117,713.763,165912.264351743,191330.962544605,2.19970771326202,0,369.230648675289,0,141.913372095427,713.763,36141.7207003095,37724.8849820152,6.68163270309354,0,1163.56386568226,0,66.0229610501326,0,324.009390386305,0,154.828206800954
-6.633194,4.750108,CIV,"San-Pédro - Côte d’Ivoire",TRUE,390.654,3573.43717303907,31.4114659961222,1395977525.39641,12271014.8372491,CISPY,San-Pdro,AI,2312.50202864,12,1124.30900807461,390.654,168143.472036896,204901.257346189,1.82850386445816,1163.40753947612,390.654,176558.587116918,219302.059767721,1.80191103389128,0,112.923009260516,0,280.483201869698,0,189.314140631831,0,198.749684964878,0,54.6136401492708,0,455.226709604368,390.654,96922.1494350129,97833.5898969291,3.10560673992865
-6.600167,5.783308,CIV,"Soubré - Côte d’Ivoire",TRUE,310.768,3216.67761193904,26.8544558285881,999640468.107073,8345505.52893867,,,,0,12,265.935491665987,310.768,17056.1907780544,45577.6861782764,3.39178715462491,293.376655458651,310.768,19624.9946417394,52087.9041463977,3.2519985199389,0,275.707872865672,0,107.071893497529,310.768,7195.39909822786,8345.50552893867,12.1694701491255,0,66.872803522464,0,275.301497863315,0,417.326726429993,0,81.2189671336697
-4.034,5.317569,CIV,"Abidjan - Côte d’Ivoire",TRUE,9022.419,3473.84868051719,53.7001420652593,31342518338.2232,484505182.072294,CIABJ,Abidjan,AI,3248.84543344,12,538.384104648742,9022.419,1356322.3734545,1377579.63953593,2.50697654584493,564.229904465978,9022.419,1450287.72147699,1473793.77640641,2.45710073560447,0,1190.0993559916,0,283.351355119407,0,1094.67555650684,0,299.587595281423,0,593.59464870562,0,450.526964822757,9022.419,603206.834757934,604712.463109575,4.45728022124597
-5.93669,6.13259,CIV,"Gagnoa - Côte d’Ivoire",TRUE,277.044,3292.32142843847,37.4502145097444,912117897.820308,10375357.2286376,,,,0,12,468.815763648313,277.044,34177.9329050488,43900.7894484674,2.66013208838727,518.832259964587,277.044,39503.7491917938,50324.0065181879,2.54703812438887,0,263.170397630052,0,84.5397373944445,277.044,9426.51214518446,10375.3572286376,7.78009496203531,0,50.9028128855802,0,252.769341778438,0,183.341436167931,0,107.575118436639
-5.900032,35.008948,MAR,"Ksar El Kebir - Morocco",TRUE,481.749,7708.3994,48.126429375983,3713513702.5506,23184859.2254504,,,,0,8,468.524751525759,481.749,59378.9654879517,133879.016169492,2.66084008040211,562.832282789614,481.749,77163.7428347608,154653.201368039,2.45971379320815,0,445.831434380874,0,121.434865289056,481.749,21229.3192992585,23184.8592254504,9.24342964674347,0,886.708162413778,0,76.7838790737613,0,667.850410777852,0,92.7550836024769
-5.667584,32.939324,MAR,"Khénifra - Morocco",TRUE,381.704,5810.59514758978,38.7930319415803,2217927410.21561,14807455.4642289,,,,0,8,556.959113524033,381.704,60229.7489447365,73760.274411999,2.47079670207226,561.186680868203,381.704,60883.9105230715,95286.3908336413,2.46280239396901,0,490.209226408047,0,82.6410509306733,381.704,13175.0604332058,14807.455464229,9.21046892006369,0,594.764693225314,0,72.6473927065576,0,191.28513896604,0,154.76140538029
-5.759602,10.555472,MLI,"Kadiolo - Mali",TRUE,317.492,2328.09481993824,27.1998768923998,739151480.571833,8635743.31432181,,,,0,9,479.895161778658,317.492,40496.8734825896,42130.5760119043,2.63363547754955,526.907974732219,317.492,46281.2333651506,48441.3101048385,2.53023392405648,0,519.84859637447,0,52.0059870997785,317.492,8209.02477288718,8635.7433143218,8.26247611122879,0,98.7012263221829,0,157.430749108169,0,47.3860395771283,0,256.766080989905
-5.6370897,9.4510393,CIV,"Nneyi-Umuleri - Nigeria",FALSE,286.071,3289.988,35.5292803371237,941170157.148,10163896.7553213,,,,0,12,555.098664570258,286.071,44924.3986911766,49410.0214539635,2.47434224572011,599.933273375635,286.071,50196.3269898722,55275.2977664014,2.39333164845858,0,712.926881515296,0,43.5171338618874,286.071,9269.64469827327,10163.8967553213,7.87012358584104,0,83.3938250595137,0,181.942579715406,0,54.1824731840542,0,242.540570363241
-5.30024,6.8373399,CIV,"Arzew - Algeria",FALSE,37.253,3289.988,41.8178867554655,122561922.964,1557841.73530136,,,,0,12,292.692595864749,37.253,2344.69413255166,10331.5879262511,3.2552536432365,328.009261527136,37.253,2759.07730018497,11288.8537780196,3.10014160044703,37.253,853.484957989173,1557.84173530136,17.3387392344885,0,369.949505667318,0,30.2728374171034,0,19.2536685187183,0,217.172969236753,0,29.4528663756617,0,163.579817037298
-5.7609501,12.9448795,MLI,"Béni Mellal - Morocco",FALSE,89.799,2275.85166218126,32.5280080868355,204369203.412215,2920982.59818974,,,,0,9,461.67142456386,89.799,10837.7991691638,14781.4727017498,2.67769723103107,515.351871023313,89.799,12681.9252355006,15983.927878158,2.55439590375783,89.799,2503.6738749211,2920.98259818974,8.79073884343183,0,173.935001906996,0,52.0178692977704,0,48.2552950671182,0,122.287077570406,0,13.6262291058446,0,284.114517504434
-5.0414901,6.5430398,CIV,"Chipata - Zambia",FALSE,39.005,3289.988,39.0763581540411,128325981.94,1524173.34979837,,,,0,12,201.241967818271,39.005,1437.561378259,10387.4590178872,3.82217426186238,267.815807518582,39.005,2162.40644737607,10037.0822634929,3.38156081278828,39.005,719.603512851665,1524.17334979837,19.5941611067266,0,249.05662837292,0,39.7487480822584,0,24.2469698109473,0,187.823765632696,0,40.1333973052769,0,134.230613414417
-4.6909499,5.9060397,CIV,"",FALSE,0,3289.988,32.1998889870533,0,0,,,,0,12,78.9547987848523,1e-06,9.68323262446183e-06,11753.119637029,7.28235947076068,100.315656730597,1e-06,1.36325713357311e-05,16066.8532779736,5.97065267300281,1e-06,464.221761308245,3.21998889870533e-05,63.410137724799,0,329.772544049081,0,79.6463778951958,0,66.9444919273257,0,230.585747429682,0,277.323456087857,0,89.395973319554
-5.803895,35.77671,MAR,"Tangier - Morocco",TRUE,1007.037,7897.3692983517,60.3686019577755,7952943086.1042,60793415.8097524,MAPTM,Tanger Med,AI,29213.26830742,8,3438.64051081481,1007.037,2140455.19586407,2214536.25638085,1.13246320021719,3559.37334105457,1007.037,2248618.65943287,2332908.85406655,1.11583813703458,0,903.774630037146,0,209.971145495057,0,981.194725168138,0,198.775526146216,0,632.708608295816,0,266.315975571697,1007.037,1139104.04700943,1141684.34318429,1.79952320652212
-5.003295,34.043295,MAR,"Fès - Morocco",TRUE,1380.105,4852.60936283408,54.7499901257426,6697110444.69412,75560735.122488,,,,0,8,651.821099451914,1380.105,272630.967684623,310974.032900838,2.30974161252683,711.842042522046,1380.105,309190.04285085,367074.665528858,2.22417166845135,0,810.312039197541,0,131.190700569544,0,1854.2219350786,0,75.5492404856471,1380.105,71902.2874457753,75560.735122488,6.59441246274496,0,594.772143190828,0,161.226898320303
-4.31988,35.1186104,MAR,"Niangoloko - Burkina Faso",FALSE,87.889,5072.45692357448,40.7110698682004,445813166.556038,3578055.21964627,,,,0,8,218.341778817406,87.889,3639.47040942012,34460.2963942962,3.69089095879575,291.942589453831,87.889,5511.47241233598,50352.0450674519,3.25883506800375,87.889,1820.20808939608,3578.05521964626,29.807560251936,0,757.074680011378,0,53.4951787243266,0,370.433016662133,0,86.1523903434942,0,597.135667435384,0,62.6650103049941
-5.466706,12.38318,MLI,"Koutiala - Mali",TRUE,173.39,2285.3071,34.2337289247921,396249398.069,5935786.2582697,,,,0,9,546.132877246356,173.39,26602.9517801134,29905.4029373322,2.49167066807977,602.053115942574,173.39,30578.1018114397,33121.5947659193,2.38971644805865,173.39,5563.62009510256,5935.7862582697,7.84962460101035,0,362.614441117013,0,48.4682272098633,0,82.3152341237022,0,130.246797556385,0,24.7475326627743,0,290.22351320334
-4.88414,13.22997,MLI,"Techiman - Ghana",FALSE,62.939,2285.3071,27.7750123769379,143834943.5669,1748131.5039921,,,,0,9,478.006837248677,62.939,7982.93250362757,8845.20373722933,2.63808981332358,516.269016009494,62.939,8911.20994708575,9919.9925833383,2.55245012315186,62.939,1748.1314947105,1748.13150399209,8.12048741851499,0,82.5616519171084,0,62.1506841213663,0,28.2660275437199,0,126.995493745257,0,8.48668894548699,0,283.230035267064
-5.1606898,9.9698601,CIV,"",FALSE,0,3219.81194498956,23.6325528252283,0,0,,,,0,12,247.154538703991,1e-06,4.94317702778739e-05,1041.13831066964,3.91563490331363,293.465705727441,1e-06,6.31773703572164e-05,750.258234667291,3.47372663066464,1e-06,45.7755307394692,2.36325528252283e-05,22.4137174392206,0,30.6720757529263,0,29.2712120745441,0,2.38666491368275,0,160.598636490461,0,1.13393855194626,0,263.760529592703
-5.31213,8.7883997,CIV,"",FALSE,0,3289.988,26.5663110545579,0,0,,,,0,12,234.713002605035,1e-06,4.59157040884738e-05,1290.34144884028,4.02058611342077,257.389413130348,1e-06,5.23818192292384e-05,1385.32992262398,3.70340992937937,1e-06,47.8649712784317,2.65663110545579e-05,34.9107137470034,0,90.1602528568529,0,22.8890191421282,0,4.32635488564403,0,173.336159333323,0,2.76366111172827,0,233.693915679892
-5.199932,9.583411,CIV,"Ferkessédougou - Côte d’Ivoire",TRUE,160.267,3267.52578171889,28.1654532445121,523676554.458741,4513992.69513822,,,,0,12,470.261105244452,160.267,19858.7058482594,24588.9868011069,2.65662517743778,519.272862259467,160.267,22880.2267101626,27638.7575406408,2.54611168920316,160.267,3799.79004873193,4513.99269513822,9.55836023329019,0,442.194820822121,0,40.1002758718017,0,62.3754084702771,0,147.983806104482,0,28.2533708959813,0,250.905172410148
-4.93154,12.8220196,MLI,"Siliana - Tunisia",FALSE,24.889,2270.88540033439,28.0674148072147,56520066.7289225,698569.887136766,,,,0,9,515.792616201532,24.889,3519.26128915346,3622.47252881114,2.55340920997807,555.332518466526,24.889,3910.90443948542,4091.44533534362,2.47389571758468,24.889,698.568968588322,698.569887136767,8.03821646834714,0,41.0250387573829,0,53.2026450239615,0,10.5065342306279,0,131.924737255128,0,3.25461726542968,0,288.159278903954
-4.805582,12.183353,MLI,"Kouri - Mali",TRUE,137.964,2215.83852651061,27.169998873553,305705946.47151,3748481.72459086,,,,0,9,484.219302560113,137.964,17824.6006878025,19735.1911934255,2.62355778567106,503.650878556418,137.964,18855.1729733353,23182.0527715942,2.57966251184472,137.964,3175.14682274393,3748.48172459087,9.70856280101304,0,364.364566246293,0,41.1124534898161,0,63.257746652135,0,132.105735765125,0,19.4376309138298,0,290.113940787249
-4.8452396,10.9798899,BFA,"Tiko - Cameroon",FALSE,33.422,1561.522,23.9344297130372,52189188.284,799936.50986913,,,,0,13,313.182113359649,33.422,2317.05453856155,5275.0266997944,3.1622141951046,375.75405326685,33.422,3005.70159264721,5473.35776104548,2.92474688930335,33.422,382.883343142875,799.936509869129,17.2271405244622,0,230.727735579473,0,24.1466920076049,0,14.1305540826351,0,155.412060224221,0,5.93732992740967,0,277.032076410114
-5.016623,7.683365,CIV,"Bouaké - Côte d’Ivoire",TRUE,659.233,3289.988,40.2539059826232,2168868659.204,26536703.2026426,,,,0,12,552.091957869959,659.233,102725.37103499,108120.160552674,2.48010843913695,580.204546088672,659.233,110278.686520196,117766.042440532,2.42787611032092,0,740.618403103266,0,71.2596321348026,659.233,25713.1240535364,26536.7032026426,6.69581345188857,0,146.72650722917,0,209.685076627874,0,138.889317927028,0,217.50070993535
-3.2846298,9.6600199,CIV,"",FALSE,0,3217.02361233922,19.5825015048918,0,0,,,,0,12,144.465965314942,1e-06,2.2954030528299e-05,1528.58987830057,5.18977836191084,184.720933377401,1e-06,3.26106736229069e-05,1439.23466302632,4.3656971845247,1e-06,95.4199108122521,1.95825015048918e-05,26.6511126153289,0,24.5607467417304,0,65.8638283910557,0,12.5013854152001,0,103.316397020261,0,3.32893537375607,0,249.615245336289
-4.758877,10.630955,BFA,"Banfora - Burkina Faso",TRUE,126.236,1561.522,24.6889188876878,197120291.192,3116630.36470615,,,,0,13,464.068335408905,126.236,15348.4879483716,18702.0963462671,2.67176226321736,469.811015264581,126.236,15620.5372599027,20998.8041111626,2.65771552169285,126.236,2273.74423954593,3116.63036470616,11.6988667138953,0,518.893785430747,0,31.3270298832626,0,49.5821457340884,0,149.883786458397,0,20.3373061554564,0,271.503802681481
-4.1257401,6.7047696,CIV,"Cidade de Nacala - Mozambique",FALSE,74.281,3289.988,36.3507584903294,244383598.628,2700170.69142016,,,,0,12,496.840192926856,74.281,9956.24378883165,11878.2808555939,2.59475872520773,479.583018282575,74.281,9465.91874150159,15213.7617226024,2.63437020892065,74.281,2499.35646845099,2700.17069142016,8.78245120474342,0,110.562447452987,0,70.2149273183329,0,27.8700706045862,0,175.958060897659,0,38.4891507640953,0,141.886908884267
-3.98735,7.06142,CIV,"Ilesa - Nigeria",FALSE,101.136,3289.988,30.9159129234854,332736226.368,3126711.76942962,,,,0,12,423.204389972733,101.136,10779.5318388591,16624.5820913332,2.77941936352812,429.875193426877,101.136,11023.0828422007,19423.0272774885,2.7608519989308,101.136,2790.42551326742,3126.71176942962,10.0648533179006,0,172.275532890559,0,64.4325527705654,0,49.2418648424953,0,148.490297816368,0,45.5951262222061,0,156.305931131795
-4.016502,34.216732,MAR,"Taza - Morocco",TRUE,215.147,4756.2676,43.2527353559962,1023296705.3372,9305696.25363651,,,,0,8,497.155917011525,215.147,28863.3811880988,43543.4102910022,2.59405238894729,626.654968786043,215.147,40176.2949261477,63495.7674528246,2.34904825780796,0,437.722471557363,0,64.8518786669742,215.147,8178.31122608844,9305.69625363651,9.21041857546466,0,212.63249624476,0,104.946678555478,0,236.68930824627,0,97.7093287516993
-4.1851397,14.0335598,MLI,"Rubengera - Rwanda",FALSE,35.513,2285.3071,26.5762081399309,81158111.0423,943800.879673367,,,,0,9,443.785758504012,35.513,4050.8223565146,4447.55906272888,2.72342599888993,469.0839524435,35.513,4384.69328241513,4898.93936111657,2.65948018229279,35.513,943.800880192642,943.800879673366,7.97280634555083,0,26.8414655682352,0,85.5711399826917,0,15.9521063750323,0,121.055941508804,0,4.60145051018846,0,277.290483082216
-3.4726,12.4589195,BFA,"Al Marj - Libya",FALSE,63.617,1561.522,23.9784948796488,99339345.074,1525439.90875862,,,,0,13,376.483663564028,63.617,5737.06973427106,8897.18639642964,2.92231685355211,416.248902542468,63.617,6621.94842283507,9867.72834276966,2.79922967166034,63.617,1250.96910315134,1525.43990875862,11.0922317290907,0,146.963543616172,0,46.242742153791,0,35.5198570002915,0,119.179762935094,0,9.38859680812125,0,289.367352349595
-4.283237,11.183756,BFA,"Bobo-Dioulasso - Burkina Faso",TRUE,903.887,1563.71297280047,35.5323045529694,1413419827.8457,32117188.1654698,,,,0,13,547.818728821925,903.887,139293.913713903,148523.192037171,2.48838146692063,576.681310650125,903.887,149895.245084926,158225.327272558,2.43422209749829,0,1500.34322968861,0,54.3355149203207,903.887,30536.2310270721,32117.1881654699,7.288988200684,0,290.298523117651,0,162.423046240264,0,107.927100492283,0,314.140450732567
-3.4547899,10.1577702,BFA,"",FALSE,0,1561.522,18.5995770061625,0,0,,,,0,13,219.077914596757,1e-06,4.1609441803747e-05,279.562429272183,4.16587641976046,250.809782824053,1e-06,5.04794444575012e-05,758.688450406493,3.75076485895656,1e-06,51.6237534898557,1.85995770061625e-05,22.5041406957244,0,22.0622203091128,0,39.6639542725965,0,3.66014237333512,0,131.37019204126,0,1.16186580952583,0,282.309075831781
-3.932213,35.247186,MAR,"Al Hoceïma - Morocco",TRUE,157.146,5081.60594467335,48.3370623895879,798554047.781638,7595976.00627419,,,,0,8,483.963785155191,157.146,20287.5632640757,45217.7627773527,2.62412397537752,707.623763489881,157.146,34908.3431187628,54232.9063113389,2.22984432390294,157.146,5942.87999317593,7595.97600627418,9.73759757885072,0,828.231323423591,0,36.225581214693,0,119.124789211124,0,131.961841161469,0,159.839253514679,0,108.474461118844
-3.8383498,11.7186594,BFA,"",FALSE,0,1561.522,21.1535394343159,0,0,,,,0,13,252.038392515548,1e-06,5.08330680276618e-05,1009.67815747097,3.87671860667364,268.974048478127,1e-06,5.57820454069478e-05,936.280658669229,3.62444053205309,1e-06,51.2698803254604,2.11535394343159e-05,25.1344938332867,0,38.7897546625163,0,30.2714802208497,0,4.20149134859133,0,133.222025135003,0,1.22242863971766,0,303.409613166167
-3.516123,11.495237,BFA,"Houndé - Burkina Faso",TRUE,102.324,1561.522,23.1279888600729,159781177.128,2366548.3321181,,,,0,13,440.033864953102,102.324,11530.9697098154,15029.9862387145,2.73335531661215,466.540936821333,102.324,12535.9360666216,16086.7513549682,2.66568321686988,102.324,1945.54892157106,2366.5483321181,10.899987500473,0,283.71508289288,0,39.3428503435588,0,53.9422481911418,0,118.987518835507,0,14.0098781501705,0,292.301603995478
-3.2551699,10.9504795,BFA,"Abū Za‘bal - Egypt",FALSE,25.688,1559.68196236009,20.0266158993534,40065110.249106,514443.709222591,,,,0,13,305.451593940216,25.688,1718.41322867329,3624.4554584315,3.19626900692496,339.475568978005,25.688,1998.2538064988,3772.39099852718,3.0548241052367,25.688,362.109961905941,514.44370922259,14.5714809734534,0,83.5476748294939,0,38.735374898422,0,14.8267791481833,0,122.65901230324,0,4.18136948450167,0,285.223285940787
-4.031478,6.172398,CIV,"Adzopé - Côte d’Ivoire",TRUE,156.488,3289.988,28.5378806552521,514843642.144,4465835.86797909,,,,0,12,353.945883089187,156.488,12921.0862502988,18126.5865227486,3.00066091731997,408.818483803853,156.488,15875.1755656131,21847.0753389611,2.82092192599587,156.488,3962.89207036704,4465.83586797909,8.8032920059011,0,84.208197001603,0,114.749382789653,0,44.3393172699452,0,175.978901727666,0,74.512858714865,0,124.498978175893
-4.183454,14.484661,MLI,"Mopti - Mali",TRUE,175.604,2287.68401478936,27.9093141499409,401726463.733071,4900987.20198623,,,,0,9,466.745186191762,175.604,21527.084797092,21590.2265979515,2.66518328772486,494.004854590499,175.604,23345.4077292849,23378.9341132713,2.60113083705739,175.604,4900.98719895132,4900.98720198622,7.37094137432252,0,101.046293320503,0,98.0313713282705,0,75.6732652365302,0,118.873126865355,0,20.1325400548236,0,287.37321586882
-3.5236499,14.0762997,MLI,"Kamsar - Guinea",FALSE,105,2285.3071,24.7752788915821,239957245.5,2601404.28361612,,,,0,9,443.913954993502,105,11981.8624895121,12063.4566783269,2.72308883424257,466.023609951537,105,12843.4062364318,12912.7220419031,2.66695101823954,105,2601.40428387062,2601.40428361612,7.76047564602666,0,58.7909458676249,0,97.0852551200992,0,45.2923752984499,0,115.525230308041,0,11.4586698503399,0,288.804598161135
-0.04122,16.2347698,MLI,"Catabola - Angola",FALSE,49.483,2285.3071,23.3834754351307,113083851.2293,1157084.51495657,,,,0,9,359.279082627386,49.483,4174.00221844723,5425.22269333587,2.98149016593489,416.381672095572,49.483,5153.07534315309,5913.26915978564,2.79884710457266,49.483,1056.05416560935,1157.08451495657,8.82551674889688,0,26.972561778921,0,101.76133800865,0,28.3485312560812,0,98.4412752367001,0,6.34852152143351,0,266.941364268152
-3.7660499,6.5562596,CIV,"",FALSE,0,3330.13071312614,26.749789223801,0,0,,,,0,12,130.226008709441,1e-06,1.97913930494653e-05,1174.39777374768,5.49059930856648,184.32119989876,1e-06,3.25099074831637e-05,1249.51662847796,4.37043114071169,1e-06,96.7058316654297,2.6749789223801e-05,24.0648891588938,0,14.4410697611951,0,85.4973652632165,0,6.42338451107517,0,146.72688429696,0,6.71540851931817,0,142.441766427509
-3.199681,5.466835,CIV,"Aboisso - Côte d’Ivoire",TRUE,115.831,3283.31415970208,30.802133925745,380309562.432452,3567841.97475296,,,,0,12,96.7122746750586,115.831,1498.67235128593,27143.4235137686,5.23236156584443,132.860555983633,115.831,2358.99686104053,33787.1058731077,4.56658502696508,115.831,2765.94020113362,3567.84197475297,24.2212760359468,0,200.738457973859,0,139.210444773861,0,124.51911195671,0,191.396885741919,0,412.219644326868,0,86.1667581864421
-2.884658,34.416684,MAR,"Taourirt - Morocco",TRUE,321.876,5909.4069394727,41.5215982796711,1902096268.04972,13364805.9678674,,,,0,8,533.249365316836,321.876,47729.0712846622,48831.324894745,2.51729433929523,658.242052023757,321.876,64481.2397990072,74888.2283317725,2.30005849121461,0,628.668928122154,0,55.6843627590343,321.876,12735.1104108894,13364.8059678674,7.49340906914942,0,110.084568051118,0,177.908605772717,0,160.89179638341,0,138.14186582898
-3.3598599,7.0014696,CIV,"",FALSE,0,3315.53558628181,33.597304142047,0,0,,,,0,12,131.561637496773,1e-06,2.00820079925874e-05,3299.07548342759,5.46010093717378,160.316107286609,1e-06,2.66346489170055e-05,4345.0938251158,4.68901782032251,1e-06,247.524819774778,3.3597304142047e-05,31.6715136976262,0,55.2811843308156,0,86.0392131446299,0,45.9087459904902,0,97.3832734951761,0,18.591394012768,0,177.912591521179
-2.933289,35.166696,MAR,"Nador - Morocco",TRUE,398.424,7606.25038889618,51.3612061101847,3030512704.94557,20463537.1832442,,,,0,8,580.793205260953,398.424,66746.3127495114,72981.9471123221,2.42682119468472,718.039598215298,398.424,90372.66533811,93909.9095994678,2.21592386896112,0,474.950441708066,0,75.2079215394,398.424,20104.7278702581,20463.5371832442,6.1919910199443,0,111.664933993792,0,197.432165116593,0,179.85511960696,0,143.685821108538
-3.483656,6.733739,CIV,"Abengourou - Côte d’Ivoire",TRUE,164.424,3393.50643563291,31.3151713379485,557973902.172505,5148965.73207084,,,,0,12,426.36416365778,164.424,17712.2763515234,20779.8977023172,2.77057264017672,505.856375807927,164.424,22612.0978464828,27292.9992654992,2.57483628974971,164.424,4653.34076563655,5148.96573207084,8.37414658955907,0,148.919281540842,0,83.0774534206615,0,75.5359233487805,0,130.621530739188,0,58.6539565364484,0,154.615224420697
-2.416466,13.583359,BFA,"Ouahigouya - Burkina Faso",TRUE,124.58,1563.41905949248,24.9678181813964,194770746.431573,3110490.78903837,,,,0,13,452.813876361234,124.58,14625.1042997876,16032.6797593486,2.70002113187924,479.717346943069,124.58,15882.070116619,17311.4154459019,2.63405404070705,124.58,3046.83458045501,3110.49078903836,8.38713852348539,0,93.4861007779067,0,85.5752879780025,0,83.861857072627,0,92.0033024251298,0,14.8155423277555,0,292.214232273388
-3.0625598,11.1466293,BFA,"Hohoe - Ghana",FALSE,25.922,1561.522,20.2432159885365,40477773.284,524744.644854843,,,,0,13,462.552299604066,25.922,3137.0449936812,3305.3958732931,2.67551016403762,494.253523453029,25.922,3448.6394345985,3599.91092767986,2.60056989511624,25.922,491.869095063887,524.744644854843,9.80309798050365,0,50.8608787891849,0,44.4979968576473,0,11.8273058134298,0,117.671823495756,0,3.041491565684,0,290.985907858558
-2.7472,11.7775002,BFA,"Sébékoro - Mali",FALSE,40.627,1561.522,21.1605772475616,63439954.294,859690.771836685,,,,0,13,426.469916654624,40.627,4378.02050250139,5105.25264275953,2.77027832845989,434.077197217116,40.627,4490.00865475107,5405.01242233566,2.74936619515633,40.627,657.807295353691,859.690771836685,11.1951846792249,0,78.0600565312606,0,46.3601122120909,0,24.2821202918529,0,100.980918212934,0,4.76780467782831,0,298.917551482675
-3.03983,6.1229501,GHA,"",FALSE,0,3802.82235998441,26.9757504642009,0,0,,,,0,14,90.6045241671651,1e-06,1.17871283368496e-05,1881.30799834446,6.72506247787493,135.030107463941,1e-06,2.08426008338843e-05,2700.08350604673,5.11789980440378,1e-06,141.853541864759,2.69757504642009e-05,36.4851766911194,0,26.6639910060455,0,111.188483541892,0,22.4959217410961,0,124.530017234354,0,24.3678157521992,0,118.067991414279
-2.75492,6.4242897,GHA,"",FALSE,0,3953.2102,29.0369393929079,0,0,,,,0,14,116.531742807047,1e-06,1.68866230463523e-05,1562.61690888503,5.83661515179309,138.975483033056,1e-06,2.17180026144563e-05,4226.06742521424,5.0429144242886,1e-06,160.033510059434,2.90369393929079e-05,44.7196702343983,0,36.9083089411206,0,118.911296656626,0,89.7036532299174,0,65.780796245134,0,25.2165244126704,0,153.290671938212
-2.366508,12.250045,BFA,"Koudougou - Burkina Faso",TRUE,252.816,1560.77676867213,26.6972220059627,394589339.548613,6749484.87865947,,,,0,13,443.062925787098,252.816,28770.6076960363,40381.3006732286,2.72532944319412,482.793614738777,252.816,32525.8898907846,44584.2545895325,2.62684789397501,0,672.045809967462,0,43.0483669277762,252.816,5111.3284710171,6749.48487865947,11.1309800723522,0,246.256565866732,0,84.068000881421,0,32.9549146407518,0,321.323487502916
-2.883702,7.283584,GHA,"Domaa-Ahenkro - Ghana",TRUE,1000,3838.14915389001,37.1443756204362,3838149153.89001,37144375.6204362,,,,0,14,507.622644543851,1000,138209.584012545,150726.345866042,2.57099258626343,553.27863071416,1000,156304.286262121,177289.827648105,2.47782738893329,0,847.063180923187,0,87.3473481698499,0,444.027033943852,0,134.355047300519,1000,35187.1133205626,37144.3756204362,7.28234362844503,0,252.160884971308,0,195.918349920896
-2.800007,8.033291,CIV,"Bondoukou - Côte d’Ivoire",TRUE,141.568,3415.9826182662,35.1347520530404,483593827.30271,4973956.57864482,,,,0,12,572.536190341624,141.568,23236.0977289365,24811.1572256801,2.44175952505693,619.306271139091,141.568,25994.477951908,27676.7043557253,2.36095394016674,141.568,4717.14389869509,4973.95657864482,7.68029109932107,0,117.588507712974,0,90.0023491342917,0,159.687936954583,0,73.3920509278088,0,31.3474576945777,0,217.284567048066
-3.0037599,9.2666302,CIV,"Birkat as Sab‘ - Egypt",FALSE,94.883,3281.84616266209,23.3886063445532,311391409.451867,2219181.13579024,,,,0,12,443.980795486486,94.883,10829.7105681591,11813.1403193465,2.72291283335624,486.550296278891,94.883,12343.034146745,13191.9598919802,2.61813633967238,94.883,2118.23146974153,2219.18113579024,8.86236289653187,0,70.9920505665819,0,85.2560733557217,0,70.654189963166,0,85.5276473441531,0,15.8326315458321,0,231.826495616433
-2.500115,10.066876,GHA,"Wa - Ghana",TRUE,107.214,3936.48868750266,37.1891567694194,422046698.141911,3987198.25387653,,,,0,14,459.978260698843,107.214,12871.8670060762,21070.6658615273,2.68191683240558,478.934683960147,107.214,13636.3215457827,23746.4918001543,2.63589796774581,107.214,3517.28182159965,3987.19825387653,9.4157905423943,0,127.846629065663,0,85.8095016248016,0,176.246266307524,0,69.2758107248901,0,24.1579944716513,0,260.587941748605
-2.7890699,11.0427799,BFA,"",FALSE,0,2197.95807905528,23.1288106598402,0,0,,,,0,13,252.810847760363,1e-06,5.10557781058943e-05,918.279018903708,3.87076500563669,274.487694260375,1e-06,5.74227146040362e-05,878.601023931511,3.58869942632661,1e-06,77.9084123655034,2.31288106598402e-05,18.047150997805,0,15.5941542319182,0,52.7420498761354,0,5.42610602607756,0,106.61198722043,0,1.16155249290308,0,297.924118042851
-2.75752,5.2915597,GHA,"Kolda - Senegal",FALSE,27.938,3680.15963132643,31.4353166300399,102816299.779998,878239.876010055,,,,0,14,233.321821303381,27.938,1271.94486958521,3923.88099616376,3.58740512053659,215.20153460215,27.938,1133.21197129245,5770.95605552105,3.71387740446809,27.938,527.860274388105,878.239876010055,18.2941999801275,0,31.6377957927982,0,119.450671652435,0,26.9916999584651,0,132.792205301293,0,50.355391426506,0,87.6251466067772
-2.49212,9.0273695,GHA,"Mesra - Algeria",FALSE,10.555,3903.89231157778,29.1246396378985,41205583.3487034,307410.571378019,,,,0,14,192.444872424116,10.555,364.949372643928,3325.70176171767,3.8960989667615,234.340539980819,10.555,483.541961050046,3504.30324505406,3.58071319921217,10.555,234.589827690008,307.410571378019,21.7185689920687,0,24.4326703872264,0,98.1122797223404,0,75.7003651173797,0,46.164202941241,0,6.74882550767586,0,231.32284497629
-1.911082,34.686468,MAR,"Oujda-Angad - Morocco",TRUE,619.82,7265.94785567517,64.1855171619656,4503579799.90458,39783467.2473295,,,,0,8,661.061412304232,619.82,124928.653625142,124934.196719137,2.29584927830965,761.573850445423,619.82,152924.353982285,175315.926875529,2.16072250230138,0,772.262767413393,0,80.4087254502251,619.82,39034.0453249601,39783.4672473295,5.88189862086864,0,163.926113895073,0,225.968453799125,0,404.99394158488,0,123.646233613929
-2.63341,7.4203897,GHA,"Béchar - Algeria",FALSE,96.471,3953.2102,36.4293790503192,381370141.2042,3514378.62636334,,,,0,14,465.031462090147,96.471,11764.282340644,25414.7430295556,2.66938800303704,516.969347614091,96.471,13685.3107490159,28390.3009602459,2.55096764690247,96.471,2486.09867888233,3514.37862636334,12.936179695943,0,249.235648310179,0,59.9438788306247,0,405.499719692688,0,43.333580629089,0,34.7925440016616,0,222.755015621144
-2.42713,6.64852,GHA,"",FALSE,0,3953.2102,30.0019266172557,0,0,,,,0,14,133.764293816716,1e-06,2.05640411984138e-05,7213.7488752954,5.41091005561774,176.88615913879,1e-06,3.06528474246176e-05,8426.32328286921,4.46180305738658,1e-06,202.313562869898,3.00019266172557e-05,53.6108232046082,0,85.6542277107323,0,95.08308682113,0,292.2574575538,0,41.9525863772292,0,40.5063516261176,0,156.646389466443
-1.9408599,7.58079,GHA,"Nnewi - Nigeria",FALSE,104.212,3953.2102,38.4258396252504,411971941.3624,4004433.5990266,,,,0,14,313.999979247555,104.212,7251.69701981911,29479.723133425,3.15868053436888,380.164798931012,104.212,9529.53000756421,33093.4057260857,2.91015546411075,104.212,2693.90868085518,4004.43359902659,15.4937039329873,0,284.937430582216,0,69.2751535168523,0,453.967202373909,0,50.7840712346153,0,60.4846486266866,0,194.676587426127
-2.3793299,11.9639797,BFA,"Gīnīr - Ethiopia",FALSE,8.983,1555.86958355345,20.7091832742223,13976376.4690606,186030.593352339,,,,0,13,219.812700299169,8.983,375.569826853393,2045.03484557777,3.68028589902531,265.466441401431,8.983,491.781178676036,2384.42181482355,3.39435424876252,8.983,126.654397618133,186.030593352339,24.0214401059144,0,74.4597031968265,0,34.2293266203587,0,20.4947367552929,0,80.8942513145312,0,2.70908158351511,0,311.743806500998
-2.3323998,7.3266597,GHA,"Matola - Mozambique",FALSE,225.038,3934.99061586051,37.6600902235125,885522418.212017,8474951.38371881,,,,0,14,476.332629415928,225.038,28400.2167724806,51355.7032020871,2.64205858162879,502.874541317041,225.038,30687.6432391877,58731.1261604069,2.58136853677443,0,757.772868369392,0,46.9248468189611,225.038,5939.36109148823,8474.95138371881,11.8923882243183,0,362.478349172151,0,76.7198097340044,0,91.9780327180746,0,191.413612817724
-1.527486,12.368619,BFA,"Ouagadougou - Burkina Faso",TRUE,2497.171,1561.522,38.4954008979503,3899387454.262,96129598.7557355,,,,0,13,507.406121822157,2497.171,344922.678715176,364209.709397928,2.57146243179444,536.191974128338,2497.171,373213.119677638,394915.16307304,2.51136437697479,0,1663.19308853502,0,96.2979749908027,0,955.140166190751,0,139.380129352471,2497.171,93784.1657096125,96129.5987557354,6.54876273696713,0,242.656648841799,0,347.47012619095
-0.85435,10.77911,GHA,"Calabar - Nigeria",FALSE,93.991,3844.83852701892,32.5092252880077,361380217.993035,3055574.59404513,,,,0,14,412.159200670261,93.991,9646.57218154597,17335.1360560681,2.81109994317466,442.983808243528,93.991,10693.5019155057,19049.6193024989,2.72553780978685,93.991,2490.65678593627,3055.57459404513,10.5803610479062,0,94.5795891076894,0,93.6507938578393,0,202.327596110333,0,56.4078652230979,0,20.240830579061,0,261.752512264749
-2.02933,8.1420498,GHA,"",FALSE,0,3909.39329504001,30.4736731110018,0,0,,,,0,14,364.450344945173,1e-06,8.60920374604833e-05,218.591815070329,3.22158388812406,287.650684019639,1e-06,6.13966223266792e-05,541.742073582044,3.50769538688652,1e-06,33.8613271186771,3.04736731110018e-05,22.2714040993028,0,4.75630947143238,0,82.4208038957767,0,10.3031144147987,0,49.2309141644231,0,1.18792042552908,0,207.822237826783
-0.852935,9.408997,GHA,"Tamale - Ghana",TRUE,1146.388,3953.2102,39.9885546755501,4531912734.7576,45842399.2173945,,,,0,14,545.943744539096,1146.388,175801.475303954,188995.98324479,2.49203938416496,594.818608484482,1146.388,198709.089382213,216655.845457236,2.40212987722888,0,1314.66995351962,0,72.2047220734633,0,445.29087430588,0,148.598432742099,1146.388,43810.9807064122,45842.3992173945,6.97249335345531,0,240.260125585502,0,224.210334051832
-2.0349898,7.0902801,GHA,"El Wak - Kenya",FALSE,45.153,3953.2102,34.7409805927437,178499300.1606,1568659.49670415,,,,0,14,212.054475716572,45.153,1793.33970747382,15602.622377515,3.73739927683202,246.495310771784,45.153,2223.49283301044,18089.9709164449,3.50394740382436,45.153,946.81575223469,1568.65949670416,25.0422016200235,0,218.725833656498,0,66.5144652666903,0,305.028012938377,0,53.2872130795208,0,49.6279422293029,0,178.799093384078
-1.89963,5.9580197,GHA,"",FALSE,0,3910.51913372888,33.3768235924992,0,0,,,,0,14,98.8059205374278,1e-06,1.33404218116029e-05,3592.98224349792,6.40138338990794,146.228168841371,1e-06,2.33550657587446e-05,16816.3201372664,4.91350517262133,1e-06,343.330353233421,3.33768235924992e-05,65.776474907481,0,239.454935661527,0,83.6365673188109,0,275.361640564379,0,76.1979174089654,0,205.594610908667,0,92.5843490680672
-1.625058,6.70004,GHA,"Kumasi - Ghana",TRUE,6898.949,3953.2102,55.7015155157662,27272995556.0798,384281914.76598,,,,0,14,584.207368129007,6898.949,1165470.15142901,1218016.12988523,2.42073382174845,616.462143541286,6898.949,1258470.76086843,1312937.55415276,2.36561604342199,0,2623.04286006307,0,149.131726613522,0,1815.35879503013,0,190.603990258685,6898.949,380146.69394092,384281.91476598,5.40513018709206,0,1356.26483925191,0,231.49625449144
-2.26566,12.9614601,BFA,"Zomba - Malawi",FALSE,78.833,1627.34871682273,19.3775853082574,128288781.393286,1527593.18260586,,,,0,13,285.05838723143,78.833,4777.88816539006,12059.765775106,3.29233462413255,307.747321841199,78.833,5330.29101745511,14161.5064402626,3.18602702639819,78.833,1146.34285256329,1527.59318260586,17.0260043472739,0,172.815821758023,0,60.108158708574,0,182.108094610692,0,58.0456383131427,0,15.4330550582068,0,300.853098055858
-1.083295,13.083043,BFA,"Kaya - Burkina Faso",TRUE,141.824,1561.522,20.6131088024861,221461296.128,2923433.54280379,,,,0,13,408.979162897055,141.824,14395.6415650843,15969.8310156277,2.82044703269866,437.301633283805,141.824,15840.6779384464,17241.1201134321,2.7406596462499,141.824,2660.4446875725,2923.43354280379,9.526409969525,0,78.4197093039176,0,99.8347967721269,0,132.435924836396,0,70.3981993892964,0,17.5725371268295,0,270.609129314944
-2.0190399,12.1964092,BFA,"Sakouéba - Mali",FALSE,41.911,1578.17761345313,20.6985723020877,66143001.9574339,867497.863752799,,,,0,13,233.217257242938,41.911,1906.87792849767,9366.75126399674,3.58809425991752,270.451983821847,41.911,2356.25430163243,11013.6167978605,3.36739509120337,41.911,832.29075585333,867.497863752798,18.8392670178275,0,152.11631059269,0,58.4965419467824,0,146.952833951438,0,59.8589009305348,0,11.0494533086131,0,336.011020589643
-1.9836799,4.92097,GHA,"Bocaranga - Central African Republic",FALSE,27.719,3953.2102,37.6841551729159,109579033.5338,1044567.09723805,,,,0,14,140.034131307807,27.719,608.563072471666,10640.5904598125,4.46481954332538,284.228374322409,27.719,1673.00158437181,9340.5038072022,3.29645140204535,27.719,511.08168896585,1044.56709723806,22.8717817302099,0,51.3593459579332,0,105.814996626399,0,57.2933586441211,0,98.3763467200066,0,165.695011641718,0,48.46414880667
-0.78598,32.4087105,DZA,"",FALSE,0,13888.5151898265,38.4111599953153,0,0,,,,0,10,134.744016227685,1e-06,2.07795442392437e-05,1260.40266487504,5.38950600580512,139.75402450717,1e-06,2.18920172895303e-05,1782.84799758768,5.02851684420618,1e-06,61.4792873447794,3.84111599953153e-05,47.4639164830652,0,68.1148076134066,0,44.3290507292104,0,6.4465830585826,0,213.450118123319,0,11.146093281419,0,148.172521744436
-0.29448,27.9394188,DZA,"Cuango - Angola",FALSE,77.757,13747.3943974488,41.9438900722357,1068956146.16242,3261431.06034683,,,,0,10,500.412405579442,77.757,10529.3619922106,11784.2021278295,2.58680423280331,593.02349610514,77.757,13419.934305458,13801.9465668367,2.405243488098,77.757,3248.51885641648,3261.43106034683,6.30951069159631,0,58.4871899092882,0,91.8499177285572,0,21.7311727467111,0,177.717624435647,0,15.7139854236613,0,220.594685243901
-1.735029,8.052471,GHA,"Kintampo - Ghana",TRUE,111,3953.2102,31.8375771190788,438806332.2,3533971.06021775,,,,0,14,518.055833817503,111,15793.6823007665,21977.3292373845,2.54867298467458,576.214917216138,111,18386.3161815059,25135.9883309305,2.43506630870413,111,2944.57798795795,3533.97106021775,10.170900251527,0,118.590959155287,0,86.5646109569672,0,311.601717942334,0,45.4612675286279,0,34.8821762437817,0,195.721733945316
-1.704435,4.940486,GHA,"Sekondi - Ghana",TRUE,345.041,3953.2102,55.5145875968161,1364019600.6182,19154808.818993,GHTKD,Takoradi,AI,343.8114,14,905.100398206003,345.041,108943.875084461,126432.347291213,2.00661142871826,994.004486449945,345.041,124547.11148528,158392.512356048,1.92762889921243,0,567.872845718748,0,82.289759322852,0,575.410501438553,0,81.5695383802696,0,283.17044820649,0,130.862307764733,345.041,29620.3258834317,31875.830618993,5.8945859609629
-1.66741,7.6862698,GHA,"",FALSE,0,3953.2102,34.7148244506919,0,0,,,,0,14,397.905440300989,1e-06,9.76002341129087e-05,311.422306213969,3.08523907269142,440.739454540811,1e-06,0.000112948993037424,398.278637832939,2.85831243878215,1e-06,36.6513326462034,3.47148244506919e-05,14.0230083727827,0,2.50760357049559,0,83.8291615806838,0,5.55781987050036,0,49.3133753884242,0,0.743271610882103,0,188.568587161309
-1.2003399,5.16293,GHA,"Lubango - Angola",FALSE,242.548,3953.2102,47.126908309488,958843227.5896,11430537.3566497,,,,0,14,324.431672574605,242.548,17684.6401268652,85303.941933269,3.11474011871069,371.92033321881,242.548,21495.5529793218,98195.7774194721,2.93762961814132,0,328.814982819966,0,131.247542745771,242.548,8171.57253344797,11430.5373566497,15.41186348423,0,625.664213697959,0,85.4734767765856,0,1170.24829775725,0,56.3041277313366
-0.983493,7.750098,GHA,"Atebubu - Ghana",TRUE,105.938,3953.2102,32.7029046576606,418795182.1676,3464480.31362325,,,,0,14,299.056332026367,105.938,6875.77061315705,22823.4415780271,3.2253839221164,294.87476523922,105.938,6738.83933322883,29376.4171135443,3.24490745926627,105.938,2492.39179890844,3464.48031362325,16.8057277631338,0,172.546497941651,0,99.6775681169778,0,413.845247707312,0,55.6300629691312,0,78.2888430129384,0,168.811339735755
-0.47613,6.2894998,GHA,"Benguela - Angola",FALSE,186.596,3915.11583355947,41.0997756355816,730544954.078863,7669053.73449698,,,,0,14,254.372875697888,186.596,9611.00477388616,48776.4979155692,3.45702419821649,284.772383590475,186.596,11292.9515608131,59373.7741365784,3.29375107867322,186.596,6683.53041061787,7669.05373449698,14.1280837215894,0,236.275728174133,0,131.161932044855,0,312.434988072813,0,108.871474256495,0,374.446458121956,0,96.4926115954006
-1.26867,12.4855795,BFA,"Kuvango - Angola",FALSE,33.296,1548.55313505811,24.8504324087384,51560625.1848949,827419.997481354,,,,0,13,170.844453103172,33.296,971.18396244472,6805.06730308895,4.10005314002683,187.419062378853,33.296,1108.53260293096,7181.10729572361,3.94053685195791,33.296,451.203874688601,827.419997481354,24.9326126648267,0,45.7631386803369,0,114.640780777593,0,191.946708685037,0,44.0787453253348,0,11.8151124054636,0,282.742503349096
-0.433167,12.249994,BFA,"Pouytenga - Burkina Faso",TRUE,181.256,1596.38093961074,25.259614458178,289353623.590084,4578456.67823152,,,,0,13,487.325908657779,181.256,23632.7435799218,24123.1070283569,2.61634956174462,517.840300166841,181.256,25774.7602907023,26329.1890398371,2.54912799497125,181.256,4470.14501491922,4578.45667823151,8.31385073078339,0,110.417899689096,0,98.0220188649106,0,172.560389645919,0,72.7873468198517,0,24.6830893567075,0,266.123741543943
-0.199998,5.549954,GHA,"Accra - Ghana",TRUE,3048.022,3953.2102,68.5172293751128,12049471660.2244,208842022.51439,GHTEM,Tema,QQ,7407.89336449,14,1048.16696333102,3048.022,1186856.93388212,1224327.82184079,1.88429784101411,1092.9633122995,3048.022,1259977.59947549,1299704.61885662,1.85079747111165,0,1418.99846130098,0,174.555708429319,0,1163.66086742259,0,199.237485704078,0,740.509540069367,0,269.299098966261,3048.022,480571.623109358,482934.07700052,3.59266390215569
1.65764,13.7969694,NER,"",FALSE,0,908.340884736449,18.21835659222,0,0,,,,0,15,155.861442897158,1e-06,2.55837058355604e-05,1536.66149646708,4.98228445180316,172.361942063719,1e-06,2.9539004974689e-05,1615.93413601583,4.52040226894951,1e-06,64.697302545976,1.821835659222e-05,38.6250218840475,0,11.0864954143708,0,125.197791170182,0,66.0444686688147,0,38.0979745448809,0,3.03824811441405,0,296.740868559174
0.05265,8.85392,GHA,"Chinde - Mozambique",FALSE,8.6,3953.2102,29.5972745903776,33997607.72,254536.561477247,,,,0,14,144.935410736325,8.6,198.321687275039,2857.72777242115,4.3994744706881,177.893301657062,8.6,265.761316066939,3621.70392172288,4.02962212122475,8.6,254.536564389828,254.536561477247,23.6613488652872,0,36.9098325377944,0,85.7258041588734,0,33.1595654105916,0,92.0733046480605,0,15.2020560243158,0,154.8595757717
-0.233454,11.049927,GHA,"Bawku - Ghana",TRUE,100.737,3443.348943435,35.8736219329596,346872642.514812,3613801.05266056,,,,0,14,596.681217662775,100.737,17539.4050944524,18343.2117084625,2.39891331079936,642.035033184547,100.737,19474.5217077918,20256.3375106473,2.32476457617248,100.737,3603.00369579027,3613.80105266055,7.35037998087163,0,93.6910566974348,0,83.744090646867,0,108.416087048956,0,75.978452432844,0,17.9650033119676,0,251.845809041106
-0.82513,9.98067,GHA,"Aioun - Mauritania",FALSE,12.666,3608.44598300667,29.1684758976839,45704576.8207625,369447.915720064,,,,0,14,201.756026513147,12.666,468.520285147137,3303.53996692753,3.8179974540784,229.280671221287,12.666,562.435315425135,3500.80688975976,3.61436814909017,12.666,180.843967743259,369.447915720064,26.0580435219066,0,23.1973105030922,0,102.451754329085,0,111.876565680544,0,35.8909597884348,0,6.42028960657181,0,241.235606861522
-0.01374,9.4424696,GHA,"Luuq - Somalia",FALSE,52.008,3953.2102,30.0437969546538,205598556.0816,1562517.79201763,,,,0,14,304.323958469802,52.008,3460.77068152166,11428.4110347847,3.20133780802449,339.805005919763,52.008,4051.28029540823,12946.939113829,3.05355448780542,52.008,1447.19240066731,1562.51779201763,13.1593032595797,0,81.5183361156501,0,89.5530139182556,0,120.623816641457,0,68.9649407150705,0,24.2177316154372,0,201.13829751377
-0.22433,9.9239798,GHA,"Diallassagou - Mali",FALSE,10,3953.2102,25.3205514237845,39532102,253205.514237845,,,,0,14,364.637392435104,10,861.551660695665,1689.09772332591,2.96263341649316,389.894185389386,10,948.051912438589,2076.92013104581,2.87880786562092,10,239.371724261079,253.205514237845,12.1556255180925,0,12.1747724100226,0,88.5493363058311,0,22.2691305034144,0,59.2048162657907,0,2.95967859693519,0,227.333188828151
-0.23763,32.7311096,DZA,"",FALSE,0,13822.566,39.9593271920494,0,0,,,,0,10,200.758914706911,1e-06,3.67295063297752e-05,862.65092807561,4.35901918871494,207.476135218766,1e-06,3.84976398993661e-05,1728.20471850031,4.1194965974242,1e-06,74.5749800320758,3.99593271920494e-05,33.4846303457268,0,86.4228172730407,0,30.3497645544209,0,3.59506101804473,0,252.795940707797,0,6.21070418904494,0,175.582155675504
0.062,34.1462479,DZA,"Magu - Tanzania",FALSE,18.568,13822.566,39.034247987274,256657405.488,724787.916627704,,,,0,10,528.838003734814,18.568,2720.85672203151,4147.48355151569,2.52627233546108,369.867664294592,18.568,1632.60979555495,5850.43683243243,2.94460560640118,18.568,507.667768995216,724.787916627704,15.0233321752175,0,143.151592787595,0,34.937235817823,0,7.25868501636355,0,255.02379092729,0,23.7437418337028,0,115.731937397162
-0.633443,35.696881,DZA,"Oran - Algeria",TRUE,725.418,13680.5691624158,63.5150657543658,9924131120.66136,46074971.9694005,DZORN,Oran,AI,255.6159,10,700.703920845892,725.418,158897.581814435,174063.072138956,2.2392556169784,785.61031472067,725.418,187101.895337797,221573.352082665,2.13213823187093,0,835.611226997371,0,88.0016601953077,0,606.27032891141,0,108.989041576389,0,115.55721013292,0,329.075596742717,725.418,53831.8439400981,55532.7602694005,5.47605168879218
-0.34739,35.5365906,DZA,"Kouribga - Morocco",FALSE,90.859,13775.9879587745,55.3395627750259,1251672489.94629,5028097.33417608,,,,0,10,412.36236701167,90.859,9331.69316631707,29833.6006288523,2.81050630534946,561.051427655363,90.859,14487.5261603882,34756.0988772341,2.46305682392297,90.859,4115.31271714053,5028.09733417608,10.2147220236299,0,452.738636093111,0,44.4901027342587,0,29.7965686513099,0,272.929792359592,0,198.215910830099,0,77.1618750279941
0.05872,6.15661,GHA,"Zagora - Morocco",FALSE,34.381,3953.2102,38.8969776080709,135915319.8862,1337316.98714309,,,,0,14,532.988894540751,34.381,5094.59620948136,6950.70436093258,2.51782078125612,493.857242017338,34.381,4568.77898005789,8393.07770742335,2.60146401126186,34.381,1095.5223885763,1337.31698714309,10.1099997903966,0,29.9582291870522,0,111.383593652035,0,21.4656743599958,0,139.102721604154,0,70.3737939600388,0,63.0315530860056
0.36174,12.0579901,BFA,"Mazabuka - Zambia",FALSE,73.2,1564.24563399205,22.6391773750371,114502780.408218,1657187.78385272,,,,0,13,350.410474136773,73.2,5958.0041412478,10563.0163793371,3.01359835956011,398.978831812861,73.2,7171.88532431077,11329.8345811473,2.85053014984038,73.2,1473.96289844497,1657.18778385272,11.1024029004397,0,75.7873352519697,0,80.2928598615326,0,93.2738931032319,0,69.9146115473215,0,12.3650546266111,0,268.912294797977
0.3068,35.7280197,DZA,"Kassala - Sudan",FALSE,468.678,13822.566,55.9459393267844,6478332587.748,26220630.9517987,,,,0,10,656.787709478146,468.678,93593.7947869634,101893.64617064,2.30223992677194,716.034647217665,468.678,105884.251434765,112958.40701139,2.21858092489667,0,673.747200482828,0,67.4563748680716,468.678,25412.4736804663,26220.6309517987,5.99776832310815,0,62.2188822897662,0,330.171445206768,0,239.560642107256,0,134.403527890043
0.17407,26.7181301,DZA,"Asamankese - Ghana",FALSE,20.402,13754.6295522982,35.5508752420232,280621952.125989,725308.956687758,,,,0,10,363.953844340558,20.402,1753.0323761531,2925.78380853077,2.96501694473912,506.094786014184,20.402,2807.63550342205,3237.95242043248,2.57431638678679,20.402,710.338429800145,725.308956687757,7.07726333768891,0,15.6212888700548,0,90.1635468397328,0,5.7626323766942,0,175.291807872894,0,3.93667069971405,0,225.990147180475
1.0877,26.958849,DZA,"Kherrata - Algeria",FALSE,18.598,13747.3415581596,37.6662944731761,255673058.298652,700517.744612129,,,,0,10,444.896995336964,18.598,2128.99022803607,2768.53756806329,2.72050864254796,465.583945328159,18.598,2271.80765574331,3303.77582969406,2.66803007804742,18.598,700.517744206085,700.517744612129,7.50328901543537,0,18.156474685743,0,85.672889928832,0,5.78433424231827,0,183.666034432682,0,4.01290856146491,0,234.364373311403
2.101906,34.108919,DZA,"Aflou - Algeria",TRUE,114.592,13822.566,42.5694418617965,1583955483.072,4878117.48182698,,,,0,10,590.356858356837,114.592,19650.2946651234,22683.010498724,2.40989343282862,621.298975123349,114.592,21137.9753736413,25473.366784491,2.35770567598321,114.592,4322.30635092199,4878.11748182698,7.69254640775138,0,362.720362936168,0,40.1327755997789,0,17.2555362480759,0,305.676121902477,0,39.9459549863337,0,174.675481678957
3.666624,32.483817,DZA,"Ghardaïa - Algeria",TRUE,210.733,13822.566,54.3332823474776,2912870800.878,11449815.588931,,,,0,10,641.208557520099,210.733,40664.1005273367,44542.5144148835,2.32604802249617,692.294332422138,210.733,45370.170159767,48830.5102953705,2.25087282572959,0,376.163833128461,0,57.706815441663,210.733,10871.7021076772,11449.815588931,6.12745462692963,0,35.926177898996,0,276.18777788382,0,58.3862148569353,0,199.804340814032
0.20933,10.8734493,TGO,"Al Manāqil - Sudan",FALSE,58.071,1468.95664149522,31.2532292472104,85303781.1282692,1814906.27561475,,,,0,16,516.507387518061,58.071,8227.39856037253,10181.2381522624,2.55194511542122,548.644754577263,58.071,8968.34071302327,11702.314583382,2.48677491196225,58.071,1582.89387926338,1814.90627561476,9.43734408898338,0,118.199590782191,0,53.2198534687444,0,55.4712812582522,0,88.1262976581518,0,12.6123793645285,0,236.566352114648
0.05048,5.7687697,GHA,"Ténès - Algeria",FALSE,37.402,3953.2102,53.4407004820401,147857967.9004,1998789.07942926,,,,0,14,170.515278343095,37.402,1087.94694174692,16855.6822473337,4.10344361398401,193.287247157071,37.402,1301.30471980528,19567.6603591011,3.88881301808845,37.402,988.154491821616,1998.78907942926,28.4638142657354,0,101.546899652036,0,129.737408114641,0,75.9492439253091,0,157.45653609335,0,528.792027634367,0,43.1836880914772
0.77777,18.9019699,MLI,"",FALSE,0,2285.3071,12.4608224567388,0,0,,,,0,9,73.9239161218221,1e-06,8.81398718044817e-06,1484.30890700366,7.56944685285762,128.300765825472,1e-06,1.93747307603638e-05,726.476337658826,5.25415475053385,1e-06,56.5756565661836,1.24608224567388e-05,28.811383061634,0,7.39169805197474,0,111.897666614986,0,6.78889189302872,0,118.427141547129,0,2.24400043103631,0,247.724266973379
1.4786099,14.2064199,NER,"Namakgale - South Africa",FALSE,19.262,902.661251353596,18.3109624941318,17387061.023573,352705.759561966,,,,0,15,155.830315546467,19.262,492.652752698118,1936.87271318254,4.26491589261422,200.81872989637,19.262,707.784900876174,1942.59113907156,3.82562451323849,19.262,166.454458286752,352.705759561967,19.683076899178,0,13.2710600291241,0,106.255854509242,0,31.1014718924753,0,60.2239608908845,0,3.13934523094639,0,277.798924128067
0.46922,10.3394394,TGO,"Hamma Bouziane - Algeria",FALSE,34.791,1791.52743346508,23.7423490738048,62329030.9376835,826020.066626741,,,,0,16,374.819629224949,34.791,3117.7088558643,5363.24734495877,2.92786952723397,409.697428097842,34.791,3540.27385576414,6131.60092158923,2.81832667947246,34.791,655.159609730664,826.020066626743,12.5162964809516,0,86.1661260911124,0,48.3967509691058,0,31.5625293001594,0,94.5350199274709,0,8.49883754856393,0,226.708376727221
1.14132,9.47579,TGO,"Cacongo - Angola",FALSE,33.327,1373.44357100469,23.4389778775196,45772753.8908734,781150.815724097,,,,0,16,331.487743808309,33.327,2505.78410772372,5718.84346979817,3.08615750729141,386.972145063103,33.327,3125.79952383822,6615.77644072079,2.88810411898309,33.327,803.268324162205,781.150815724096,11.7785808040626,0,77.4781982549007,0,56.0033128500779,0,24.4311706124882,0,120.884478822108,0,12.3604589143242,0,190.389793704759
0.59562,6.0068398,GHA,"",FALSE,0,3953.2102,37.1738924725988,0,0,,,,0,14,199.302954064936,1e-06,3.63495659385557e-05,3189.31796339338,4.37556357628401,257.461940012298,1e-06,5.24029063403124e-05,4470.57323537501,3.70289191417944,1e-06,163.081358899353,3.71738924725988e-05,33.6651300674806,0,24.7068090230324,0,118.460093862588,0,15.3554383312635,0,162.657851869228,0,176.749661953842,0,31.9063738756936
0.50771,7.5739598,GHA,"Kayanza - Burundi",FALSE,11.503,3218.33666164992,33.5632575458883,37020526.618959,386078.151550353,,,,0,14,138.141297547419,11.503,247.682755480449,4396.90589618661,4.49093673234531,210.449750606877,11.503,451.933127371646,5286.33235015904,3.74958668999662,11.503,386.33429964625,386.078151550353,21.4508347005267,0,50.8213737183503,0,82.9319940767719,0,25.8303515856432,0,130.216543460079,0,42.028739498813,0,94.1287152874644
0.470198,6.611847,GHA,"Ho - Ghana",TRUE,183.715,3893.07070546691,38.4335396256206,715215484.654853,7060817.73232089,,,,0,14,442.693648744342,183.715,20881.9851512084,40419.9576504803,2.72630330109256,573.649860141015,183.715,30237.6722348333,49057.5408128484,2.43972678425776,183.715,6023.49401873972,7060.81773232089,9.87596148703852,0,187.562538429796,0,99.7809517600332,0,104.821737516828,0,147.065501126896,0,506.881649681345,0,51.4289112751964
0.14396,34.7495003,DZA,"Meknès - Morocco",FALSE,128.413,13832.7356266939,48.9472390691589,1776303080.03064,6285461.8105879,,,,0,10,628.590707410768,128.413,24085.5799424466,31370.7471316387,2.34594527371722,592.944435391135,128.413,22158.3371861,37181.3469214254,2.4053809274364,128.413,5294.68112191378,6285.4618105879,8.82078836679311,0,572.720424768522,0,38.854276608822,0,30.9998882199927,0,271.5358587169,0,91.2088378198584,0,132.244005208544
1.316772,35.366641,DZA,"Tiaret - Algeria",TRUE,273.948,13822.566,52.0993930151733,3786664310.568,14272524.5177207,,,,0,10,659.845285992903,273.948,55070.9027270372,61792.8389757811,2.29766177096192,711.760053856947,273.948,61363.4885142984,69218.7214534611,2.2242814672741,0,702.046560250313,0,47.4709782584659,273.948,13350.5635893135,14272.5245177207,6.66303956755199,0,40.8987271173755,0,315.887371636501,0,125.229587883095,0,149.807707421993
0.83412,11.1550198,BFA,"Missour - Morocco",FALSE,13.579,1539.16365357952,21.9358482617815,20900303.2519562,297866.88354673,,,,0,13,277.704454894781,13.579,792.829923095957,2906.25690003632,3.32942065182519,382.618308653247,13.579,1253.17796099759,2943.90993826255,2.90214313290975,13.579,312.26581103553,297.866883546731,12.9514645941261,0,39.4262045952966,0,51.4610362154583,0,16.9433055216338,0,90.3655881933784,0,3.91261852512784,0,240.080472373883
1.064238,10.697912,BEN,"Matéri - Benin",TRUE,260.509,1341.27023884108,22.6149908758556,349412968.65025,5891408.65807827,,,,0,17,442.504165299996,260.509,29592.6791584906,37214.6335946069,2.72680349843948,483.917522398448,260.509,33627.1435842899,42033.9107222745,2.62423148352635,0,808.481486226423,0,36.555715356898,260.509,4536.8187913781,5891.40865807827,11.5762452161301,0,146.864931352741,0,113.969839179323,0,47.5636109277696,0,241.667803381782
1.331625,36.164677,DZA,"Chlef - Algeria",TRUE,575.939,13822.566,54.0496792570843,7960954839.474,31129318.2216458,,,,0,10,664.666860854089,575.939,116989.681989225,118569.557062485,2.2905037297361,694.48925760365,575.939,124559.909414674,127917.388400718,2.24782127166687,0,687.864190810244,0,73.2340465844796,575.939,30799.3733800071,31129.3182216459,5.80791491818524,0,66.8525985250554,0,346.446334741934,0,233.074989927943,0,150.678417401163
